{
"type": "FeatureCollection",
"features": [
{ "type": "Feature", "properties": { "Name": "Пятёрочка", "address": "наб. Генерала Карбышева, 14, Калининград", "latitude": 54.705170008682003, "longitude": 20.52096997412 }, "geometry": { "type": "Point", "coordinates": [ 20.52096997412, 54.705170008682003 ] } },
{ "type": "Feature", "properties": { "Name": "Пятёрочка", "address": "ул. Профессора Баранова, 30, подъезд 2, этаж 1", "latitude": 54.721619996577999, "longitude": 20.509179989113001 }, "geometry": { "type": "Point", "coordinates": [ 20.509179989113001, 54.721619996577999 ] } },
{ "type": "Feature", "properties": { "Name": "Пятёрочка", "address": "ул. Космонавта Леонова, 47, Калининград", "latitude": 54.729545136158002, "longitude": 20.481357174256999 }, "geometry": { "type": "Point", "coordinates": [ 20.481357174256999, 54.729545136158002 ] } },
{ "type": "Feature", "properties": { "Name": "Пятёрочка", "address": "ул. Осипенко, 20", "latitude": 54.728980020027997, "longitude": 20.460560005373001 }, "geometry": { "type": "Point", "coordinates": [ 20.460560005373001, 54.728980020027997 ] } },
{ "type": "Feature", "properties": { "Name": "Пятёрочка", "address": "ул. Петра Панина, 1, Ленинградский район, микрорайон Сельма, Калининград", "latitude": 54.746215408627997, "longitude": 20.49356629311 }, "geometry": { "type": "Point", "coordinates": [ 20.49356629311, 54.746215408627997 ] } },
{ "type": "Feature", "properties": { "Name": "Мираторг", "address": "Совхозная ул., 12, лит.К, посёлок Невское", "latitude": 54.737593211737, "longitude": 20.566054995289999 }, "geometry": { "type": "Point", "coordinates": [ 20.566054995289999, 54.737593211737 ] } },
{ "type": "Feature", "properties": { "Name": "Акорус", "address": "Промышленная ул., 8, посёлок Кутузово", "latitude": 54.767597851962996, "longitude": 20.529304145853001 }, "geometry": { "type": "Point", "coordinates": [ 20.529304145853001, 54.767597851962996 ] } },
{ "type": "Feature", "properties": { "Name": "SPAR", "address": "ул. Генерала Буткова, 16", "latitude": 54.709450017991003, "longitude": 20.494600003816 }, "geometry": { "type": "Point", "coordinates": [ 20.494600003816, 54.709450017991003 ] } },
{ "type": "Feature", "properties": { "Name": "Виктория", "address": "Мариупольская ул., 14, этаж 1", "latitude": 54.708439998659003, "longitude": 20.498860022285001 }, "geometry": { "type": "Point", "coordinates": [ 20.498860022285001, 54.708439998659003 ] } },
{ "type": "Feature", "properties": { "Name": "SPAR", "address": "Театральная ул., 21, этаж 1", "latitude": 54.716560009269003, "longitude": 20.500379996606998 }, "geometry": { "type": "Point", "coordinates": [ 20.500379996606998, 54.716560009269003 ] } },
{ "type": "Feature", "properties": { "Name": "SPAR", "address": "Советский просп., 8", "latitude": 54.722549487047999, "longitude": 20.499263322135999 }, "geometry": { "type": "Point", "coordinates": [ 20.499263322135999, 54.722549487047999 ] } },
{ "type": "Feature", "properties": { "Name": "SPAR", "address": "Московский просп., 48", "latitude": 54.709550014096003, "longitude": 20.504340026762002 }, "geometry": { "type": "Point", "coordinates": [ 20.504340026762002, 54.709550014096003 ] } },
{ "type": "Feature", "properties": { "Name": "Виктория", "address": "Ленинский просп., 30, этаж 1", "latitude": 54.711210008110001, "longitude": 20.508229984206999 }, "geometry": { "type": "Point", "coordinates": [ 20.508229984206999, 54.711210008110001 ] } },
{ "type": "Feature", "properties": { "Name": "Bon Ville", "address": "ул. Профессора Баранова, 40, этаж 1", "latitude": 54.718599996864, "longitude": 20.499109970637999 }, "geometry": { "type": "Point", "coordinates": [ 20.499109970637999, 54.718599996864 ] } },
{ "type": "Feature", "properties": { "Name": "SPAR", "address": "Краснооктябрьская ул., 1", "latitude": 54.702569984226997, "longitude": 20.505809961122001 }, "geometry": { "type": "Point", "coordinates": [ 20.505809961122001, 54.702569984226997 ] } },
{ "type": "Feature", "properties": { "Name": "Виктория", "address": "Солнечный бул., 1, этаж 1", "latitude": 54.704580006518, "longitude": 20.517649986091001 }, "geometry": { "type": "Point", "coordinates": [ 20.517649986091001, 54.704580006518 ] } },
{ "type": "Feature", "properties": { "Name": "SPAR", "address": "ул. Литовский Вал, 2, этаж 1", "latitude": 54.719669057582998, "longitude": 20.52859332773 }, "geometry": { "type": "Point", "coordinates": [ 20.52859332773, 54.719669057582998 ] } },
{ "type": "Feature", "properties": { "Name": "Виктория", "address": "площадь Калинина, 28, этаж 1", "latitude": 54.694689989413, "longitude": 20.501509960974001 }, "geometry": { "type": "Point", "coordinates": [ 20.501509960974001, 54.694689989413 ] } },
{ "type": "Feature", "properties": { "Name": "SPAR Gourmet", "address": "просп. Мира, 31", "latitude": 54.719749993980003, "longitude": 20.484819999190002 }, "geometry": { "type": "Point", "coordinates": [ 20.484819999190002, 54.719749993980003 ] } },
{ "type": "Feature", "properties": { "Name": "SPAR", "address": "ул. Карла Маркса, 18, этаж 1", "latitude": 54.729219993915997, "longitude": 20.480840020106001 }, "geometry": { "type": "Point", "coordinates": [ 20.480840020106001, 54.729219993915997 ] } },
{ "type": "Feature", "properties": { "Name": "Виктория", "address": "просп. Победы, 137, этаж 1", "latitude": 54.709960014890001, "longitude": 20.442549977658 }, "geometry": { "type": "Point", "coordinates": [ 20.442549977658, 54.709960014890001 ] } },
{ "type": "Feature", "properties": { "Name": "SPAR", "address": "Пролетарская ул., 57", "latitude": 54.717410018069998, "longitude": 20.512569966032999 }, "geometry": { "type": "Point", "coordinates": [ 20.512569966032999, 54.717410018069998 ] } },
{ "type": "Feature", "properties": { "Name": "SPAR", "address": "Красносельская ул., 85А", "latitude": 54.720350012518999, "longitude": 20.442679980975999 }, "geometry": { "type": "Point", "coordinates": [ 20.442679980975999, 54.720350012518999 ] } },
{ "type": "Feature", "properties": { "Name": "Виктория", "address": "ул. Гайдара, 120", "latitude": 54.743410011168002, "longitude": 20.504710003968999 }, "geometry": { "type": "Point", "coordinates": [ 20.504710003968999, 54.743410011168002 ] } },
{ "type": "Feature", "properties": { "Name": "SPAR", "address": "Интернациональная ул., 59А, Калининград", "latitude": 54.669789995378999, "longitude": 20.508710015801999 }, "geometry": { "type": "Point", "coordinates": [ 20.508710015801999, 54.669789995378999 ] } },
{ "type": "Feature", "properties": { "Name": "Пятёрочка", "address": "Дачная ул., 6Б, Калининград, этаж 1", "latitude": 54.711820001113999, "longitude": 20.547299962745999 }, "geometry": { "type": "Point", "coordinates": [ 20.547299962745999, 54.711820001113999 ] } },
{ "type": "Feature", "properties": { "Name": "Светофор", "address": "ул. Старшины Дадаева, 62, Калининград, этаж 1", "latitude": 54.728970003653998, "longitude": 20.541449981062001 }, "geometry": { "type": "Point", "coordinates": [ 20.541449981062001, 54.728970003653998 ] } },
{ "type": "Feature", "properties": { "Name": "Пятёрочка", "address": "Уральская ул., 18, Калининград, этаж 1", "latitude": 54.724629979917999, "longitude": 20.502070039745 }, "geometry": { "type": "Point", "coordinates": [ 20.502070039745, 54.724629979917999 ] } },
{ "type": "Feature", "properties": { "Name": "Виктория", "address": "Московский просп., 171А, Калининград", "latitude": 54.710589998732999, "longitude": 20.542910024777001 }, "geometry": { "type": "Point", "coordinates": [ 20.542910024777001, 54.710589998732999 ] } },
{ "type": "Feature", "properties": { "Name": "Пятёрочка", "address": "ул. Подполковника Емельянова, 29А, Калининград", "latitude": 54.683679982407, "longitude": 20.542150037616 }, "geometry": { "type": "Point", "coordinates": [ 20.542150037616, 54.683679982407 ] } },
{ "type": "Feature", "properties": { "Name": "Светофор", "address": "ул. Генерала Толстикова, 15/2, Калининград", "latitude": 54.67635000808, "longitude": 20.494160037718 }, "geometry": { "type": "Point", "coordinates": [ 20.494160037718, 54.67635000808 ] } },
{ "type": "Feature", "properties": { "Name": "Пятёрочка", "address": "Московский просп., 135, Калининград", "latitude": 54.710140016261001, "longitude": 20.53248000356 }, "geometry": { "type": "Point", "coordinates": [ 20.53248000356, 54.710140016261001 ] } },
{ "type": "Feature", "properties": { "Name": "SPAR", "address": "ул. Маршала Борзова, 93А, Калининград", "latitude": 54.735890019095997, "longitude": 20.462579960218999 }, "geometry": { "type": "Point", "coordinates": [ 20.462579960218999, 54.735890019095997 ] } },
{ "type": "Feature", "properties": { "Name": "Пятёрочка", "address": "Московский просп., 257, Калининград, этаж 1", "latitude": 54.707969983437998, "longitude": 20.580950035053 }, "geometry": { "type": "Point", "coordinates": [ 20.580950035053, 54.707969983437998 ] } },
{ "type": "Feature", "properties": { "Name": "Пятёрочка", "address": "ул. Юрия Гагарина, 72А, Калининград, этаж 1", "latitude": 54.726859985258002, "longitude": 20.555629981940001 }, "geometry": { "type": "Point", "coordinates": [ 20.555629981940001, 54.726859985258002 ] } },
{ "type": "Feature", "properties": { "Name": "Пятёрочка", "address": "ул. Горького, 96, Калининград, этаж цокольный", "latitude": 54.732089999472997, "longitude": 20.512220021575999 }, "geometry": { "type": "Point", "coordinates": [ 20.512220021575999, 54.732089999472997 ] } },
{ "type": "Feature", "properties": { "Name": "SPAR", "address": "Советский просп., 159, Калининград, этаж 1", "latitude": 54.742440015423, "longitude": 20.465250015475 }, "geometry": { "type": "Point", "coordinates": [ 20.465250015475, 54.742440015423 ] } },
{ "type": "Feature", "properties": { "Name": "Пятёрочка", "address": "Красная ул., 142, Калининград", "latitude": 54.737830010586002, "longitude": 20.474150004085999 }, "geometry": { "type": "Point", "coordinates": [ 20.474150004085999, 54.737830010586002 ] } },
{ "type": "Feature", "properties": { "Name": "Виктория", "address": "Шатурская ул., 5, посёлок Васильково", "latitude": 54.741679986352999, "longitude": 20.581060005622 }, "geometry": { "type": "Point", "coordinates": [ 20.581060005622, 54.741679986352999 ] } },
{ "type": "Feature", "properties": { "Name": "SPAR", "address": "наб. Адмирала Трибуца, 53, Калининград", "latitude": 54.707860012867997, "longitude": 20.528189977876998 }, "geometry": { "type": "Point", "coordinates": [ 20.528189977876998, 54.707860012867997 ] } },
{ "type": "Feature", "properties": { "Name": "SPAR", "address": "ул. Генерала Толстикова, 2, Калининград", "latitude": 54.674196978715997, "longitude": 20.500010075411002 }, "geometry": { "type": "Point", "coordinates": [ 20.500010075411002, 54.674196978715997 ] } },
{ "type": "Feature", "properties": { "Name": "SPAR", "address": "ул. Горького, 104, Калининград, этаж 1", "latitude": 54.735509983606001, "longitude": 20.509519959106001 }, "geometry": { "type": "Point", "coordinates": [ 20.509519959106001, 54.735509983606001 ] } },
{ "type": "Feature", "properties": { "Name": "Виктория", "address": "Советский просп., 292, Калининград", "latitude": 54.764259995316998, "longitude": 20.440279990640001 }, "geometry": { "type": "Point", "coordinates": [ 20.440279990640001, 54.764259995316998 ] } },
{ "type": "Feature", "properties": { "Name": "Доброцен", "address": "ул. Олега Кошевого, 37А, Калининград", "latitude": 54.668919995739003, "longitude": 20.512929968775001 }, "geometry": { "type": "Point", "coordinates": [ 20.512929968775001, 54.668919995739003 ] } },
{ "type": "Feature", "properties": { "Name": "EUROSPAR", "address": "Московский просп., 174, Калининград", "latitude": 55.91417, "longitude": 37.82556 }, "geometry": { "type": "Point", "coordinates": [ 37.82556, 55.91417 ] } },
{ "type": "Feature", "properties": { "Name": "SPAR", "address": "просп. Мира, 71, Калининград", "latitude": 54.721250019372, "longitude": 20.470270021106 }, "geometry": { "type": "Point", "coordinates": [ 20.470270021106, 54.721250019372 ] } },
{ "type": "Feature", "properties": { "Name": "SPAR", "address": "ул. Дзержинского, 166А, Калининград", "latitude": 54.672089970309003, "longitude": 20.544164193480999 }, "geometry": { "type": "Point", "coordinates": [ 20.544164193480999, 54.672089970309003 ] } },
{ "type": "Feature", "properties": { "Name": "Территория вкуса", "address": "Автомобильная ул., 22, Калининград", "latitude": 54.674410016590002, "longitude": 20.490170000349 }, "geometry": { "type": "Point", "coordinates": [ 20.490170000349, 54.674410016590002 ] } },
{ "type": "Feature", "properties": { "Name": "Пятёрочка", "address": "ул. Генерала Челнокова, 11Б, Калининград", "latitude": 54.737609985627998, "longitude": 20.485969996306 }, "geometry": { "type": "Point", "coordinates": [ 20.485969996306, 54.737609985627998 ] } },
{ "type": "Feature", "properties": { "Name": "SPAR", "address": "ул. Юрия Гагарина, 239В, посёлок Невское", "latitude": 54.732546355034003, "longitude": 20.570053068654001 }, "geometry": { "type": "Point", "coordinates": [ 20.570053068654001, 54.732546355034003 ] } },
{ "type": "Feature", "properties": { "Name": "Светофор", "address": "ул. Александра Невского, 28, Калининград", "latitude": 54.726729981939997, "longitude": 20.528010018416001 }, "geometry": { "type": "Point", "coordinates": [ 20.528010018416001, 54.726729981939997 ] } },
{ "type": "Feature", "properties": { "Name": "Светофор", "address": "Эпроновская ул., 21, Калининград", "latitude": 54.702150008967998, "longitude": 20.512759983778 }, "geometry": { "type": "Point", "coordinates": [ 20.512759983778, 54.702150008967998 ] } },
{ "type": "Feature", "properties": { "Name": "SPAR", "address": "ул. Аллея Смелых, 39/1, Калининград", "latitude": 54.687039994023003, "longitude": 20.523859970516 }, "geometry": { "type": "Point", "coordinates": [ 20.523859970516, 54.687039994023003 ] } },
{ "type": "Feature", "properties": { "Name": "SPAR", "address": "Авторемонтная ул., 21, Калининград, этаж 1", "latitude": 54.734893287687001, "longitude": 20.468309738795998 }, "geometry": { "type": "Point", "coordinates": [ 20.468309738795998, 54.734893287687001 ] } },
{ "type": "Feature", "properties": { "Name": "SPAR", "address": "ул. Александра Суворова, 40, Калининград", "latitude": 54.693619997563999, "longitude": 20.472700018655999 }, "geometry": { "type": "Point", "coordinates": [ 20.472700018655999, 54.693619997563999 ] } },
{ "type": "Feature", "properties": { "Name": "Пятёрочка", "address": "ул. Космонавта Леонова, 48, Калининград", "latitude": 54.731159985406002, "longitude": 20.481769992263001 }, "geometry": { "type": "Point", "coordinates": [ 20.481769992263001, 54.731159985406002 ] } },
{ "type": "Feature", "properties": { "Name": "SPAR", "address": "Батальная ул., 104, Калининград", "latitude": 54.676132564356003, "longitude": 20.513443889417001 }, "geometry": { "type": "Point", "coordinates": [ 20.513443889417001, 54.676132564356003 ] } },
{ "type": "Feature", "properties": { "Name": "SPAR", "address": "ул. Юрия Гагарина, 227кС2, посёлок Невское, этаж 1", "latitude": 54.721813373449997, "longitude": 20.544436365961001 }, "geometry": { "type": "Point", "coordinates": [ 20.544436365961001, 54.721813373449997 ] } },
{ "type": "Feature", "properties": { "Name": "SPAR", "address": "ул. Александра Невского, 220, Калининград", "latitude": 54.758062906791999, "longitude": 20.544049868112001 }, "geometry": { "type": "Point", "coordinates": [ 20.544049868112001, 54.758062906791999 ] } },
{ "type": "Feature", "properties": { "Name": "Доброцен", "address": "ул. Александра Невского, 137Б, Калининград", "latitude": 54.741820006045003, "longitude": 20.531759998077 }, "geometry": { "type": "Point", "coordinates": [ 20.531759998077, 54.741820006045003 ] } },
{ "type": "Feature", "properties": { "Name": "Пятёрочка", "address": "Уральская ул., 18, Калининград, этаж 1", "latitude": 54.724629979917999, "longitude": 20.502070039745 }, "geometry": { "type": "Point", "coordinates": [ 20.502070039745, 54.724629979917999 ] } },
{ "type": "Feature", "properties": { "Name": "SPAR", "address": "просп. Калинина, 65, Калининград", "latitude": 54.695290007952003, "longitude": 20.510829966753001 }, "geometry": { "type": "Point", "coordinates": [ 20.510829966753001, 54.695290007952003 ] } },
{ "type": "Feature", "properties": { "Name": "Ледяное Сердце", "address": "Нарвская ул., 46, Калининград, этаж 1", "latitude": 54.731740013105998, "longitude": 20.498129958519002 }, "geometry": { "type": "Point", "coordinates": [ 20.498129958519002, 54.731740013105998 ] } },
{ "type": "Feature", "properties": { "Name": "Брусничка", "address": "ул. Юрия Гагарина, 13, Калининград", "latitude": 54.717089997007001, "longitude": 20.540229995055 }, "geometry": { "type": "Point", "coordinates": [ 20.540229995055, 54.717089997007001 ] } },
{ "type": "Feature", "properties": { "Name": "SPAR", "address": "ул. Виктора Гакуна, 5А, Калининград", "latitude": 54.748020016005, "longitude": 20.528319981195001 }, "geometry": { "type": "Point", "coordinates": [ 20.528319981195001, 54.748020016005 ] } },
{ "type": "Feature", "properties": { "Name": "SPAR", "address": "Елизаветинская ул., 11, Калининград", "latitude": 54.746879993354, "longitude": 20.482670041026001 }, "geometry": { "type": "Point", "coordinates": [ 20.482670041026001, 54.746879993354 ] } },
{ "type": "Feature", "properties": { "Name": "SPAR", "address": "ул. Генерала Челнокова, 11, лит.Ж, Калининград", "latitude": 54.736719995149002, "longitude": 20.488039991114 }, "geometry": { "type": "Point", "coordinates": [ 20.488039991114, 54.736719995149002 ] } },
{ "type": "Feature", "properties": { "Name": "SPAR", "address": "Кипарисовая ул., 3, Калининград", "latitude": 54.712050000536998, "longitude": 20.592870023378001 }, "geometry": { "type": "Point", "coordinates": [ 20.592870023378001, 54.712050000536998 ] } },
{ "type": "Feature", "properties": { "Name": "SPAR", "address": "ул. Аксакова, 125, Калининград", "latitude": 54.711700014169999, "longitude": 20.579210035772999 }, "geometry": { "type": "Point", "coordinates": [ 20.579210035772999, 54.711700014169999 ] } },
{ "type": "Feature", "properties": { "Name": "Пятёрочка", "address": "ул. Николая Карамзина, 40, Калининград", "latitude": 54.665969984916003, "longitude": 20.510290004550999 }, "geometry": { "type": "Point", "coordinates": [ 20.510290004550999, 54.665969984916003 ] } },
{ "type": "Feature", "properties": { "Name": "SPAR", "address": "ул. Юрия Гагарина, 16Е, Калининград", "latitude": 54.720389994196999, "longitude": 20.544279963032 }, "geometry": { "type": "Point", "coordinates": [ 20.544279963032, 54.720389994196999 ] } },
{ "type": "Feature", "properties": { "Name": "Пятёрочка", "address": "Минусинская ул., 16, Калининград", "latitude": 54.677680006566, "longitude": 20.475520026160002 }, "geometry": { "type": "Point", "coordinates": [ 20.475520026160002, 54.677680006566 ] } },
{ "type": "Feature", "properties": { "Name": "Виктория", "address": "ул. Согласия, 1, Калининград", "latitude": 54.740520014772002, "longitude": 20.493240040025 }, "geometry": { "type": "Point", "coordinates": [ 20.493240040025, 54.740520014772002 ] } },
{ "type": "Feature", "properties": { "Name": "SPAR", "address": "Индустриальная ул., 2, посёлок Невское", "latitude": 54.749439994222001, "longitude": 20.564570036048 }, "geometry": { "type": "Point", "coordinates": [ 20.564570036048, 54.749439994222001 ] } },
{ "type": "Feature", "properties": { "Name": "Виктория", "address": "ул. Карла Маркса, 118Б, Калининград", "latitude": 54.724509992973999, "longitude": 20.464679962240002 }, "geometry": { "type": "Point", "coordinates": [ 20.464679962240002, 54.724509992973999 ] } },
{ "type": "Feature", "properties": { "Name": "Светофор", "address": "Аэропортная ул., 12, Калининград", "latitude": 54.730739025609999, "longitude": 20.554245552232999 }, "geometry": { "type": "Point", "coordinates": [ 20.554245552232999, 54.730739025609999 ] } }
]
}
