{
"type": "FeatureCollection",
"crs": { "type": "name", "properties": { "name": "urn:ogc:def:crs:OGC:1.3:CRS84" } },
"features": [
{ "type": "Feature", "properties": { "Name": "Лукойл", "address": "Московский просп., 6А, Калининград, Россия", "url": "https://auto.lukoil.ru/", "phone": "8 (800) 100-09-11", "hours": "ежедневно, круглосуточно", "longitude": 20.49452, "latitude": 54.71004 }, "geometry": { "type": "Point", "coordinates": [ 20.49452, 54.71004 ] } },
{ "type": "Feature", "properties": { "Name": "Рос&Нефть", "address": "Московский просп., 81, Калининград, Россия", "url": "https://www.rn-oil.com/", "phone": "+7 (4012) 34-90-04", "hours": "ежедневно, круглосуточно", "longitude": 20.515413, "latitude": 54.709321 }, "geometry": { "type": "Point", "coordinates": [ 20.515413, 54.709321 ] } },
{ "type": "Feature", "properties": { "Name": "Газпромнефть", "address": "ул. Александра Невского, 120Л, Калининград, Россия", "url": "https://gpnbonus.ru/", "phone": "8 (800) 700-51-51", "hours": "ежедневно, круглосуточно", "longitude": 20.533344, "latitude": 54.742638 }, "geometry": { "type": "Point", "coordinates": [ 20.533344, 54.742638 ] } },
{ "type": "Feature", "properties": { "Name": "Лукойл", "address": "ул. Островского, 40, Калининград, Россия", "url": "https://auto.lukoil.ru/", "phone": "8 (800) 100-09-11", "hours": "ежедневно, круглосуточно", "longitude": 20.530411, "latitude": 54.741361 }, "geometry": { "type": "Point", "coordinates": [ 20.530411, 54.741361 ] } },
{ "type": "Feature", "properties": { "Name": "Рос&Нефть", "address": "ул. Литовский Вал, 9, Калининград, Россия", "url": "https://www.rn-oil.com/", "phone": "+7 (4012) 35-98-53", "hours": "ежедневно, круглосуточно", "longitude": 20.529442, "latitude": 54.719593 }, "geometry": { "type": "Point", "coordinates": [ 20.529442, 54.719593 ] } },
{ "type": "Feature", "properties": { "Name": "Рос&Нефть", "address": "Советский просп., 108, Калининград, Россия", "url": "https://www.rn-oil.com/", "phone": "+7 (4012) 91-13-33", "hours": "ежедневно, круглосуточно", "longitude": 20.481885, "latitude": 54.736763 }, "geometry": { "type": "Point", "coordinates": [ 20.481885, 54.736763 ] } },
{ "type": "Feature", "properties": { "Name": "Идель", "address": "ул. Генерал-Фельдмаршала Румянцева, 2А, Калининград, Россия", "url": "http://идель39.рф/", "phone": "+7 (4012) 21-39-10", "hours": "ежедневно, круглосуточно", "longitude": 20.486858, "latitude": 54.714234 }, "geometry": { "type": "Point", "coordinates": [ 20.486858, 54.714234 ] } },
{ "type": "Feature", "properties": { "Name": "Рос&Нефть", "address": "ул. Горького, 162Б/1, Калининград, Россия", "url": "https://www.rn-oil.com/", "phone": "+7 (4012) 67-05-10", "hours": "ежедневно, круглосуточно", "longitude": 20.502936, "latitude": 54.743437 }, "geometry": { "type": "Point", "coordinates": [ 20.502936, 54.743437 ] } },
{ "type": "Feature", "properties": { "Name": "Балтнефть", "address": "просп. Мира, 151, Калининград, Россия", "url": "https://baltneft.info/", "phone": "+7 (963) 737-74-13", "hours": "ежедневно, круглосуточно", "longitude": 20.442643, "latitude": 54.721075 }, "geometry": { "type": "Point", "coordinates": [ 20.442643, 54.721075 ] } },
{ "type": "Feature", "properties": { "Name": "Балтнефть", "address": "ул. Горького, 178Б, Калининград, Россия", "url": "https://baltneft.info/", "phone": "+7 (963) 737-74-08", "hours": "ежедневно, круглосуточно", "longitude": 20.500735, "latitude": 54.755197 }, "geometry": { "type": "Point", "coordinates": [ 20.500735, 54.755197 ] } },
{ "type": "Feature", "properties": { "Name": "Рос&Нефть", "address": "ул. Александра Невского, 230А, Калининград, Россия", "url": "https://www.rn-oil.com/", "phone": "+7 (4012) 31-16-01", "hours": "ежедневно, круглосуточно", "longitude": 20.545125, "latitude": 54.759773 }, "geometry": { "type": "Point", "coordinates": [ 20.545125, 54.759773 ] } },
{ "type": "Feature", "properties": { "Name": "Лукойл", "address": "просп. Мира, 166, Калининград, Россия", "url": "https://auto.lukoil.ru/", "phone": "8 (800) 100-09-11", "hours": "ежедневно, круглосуточно", "longitude": 20.43734, "latitude": 54.722225 }, "geometry": { "type": "Point", "coordinates": [ 20.43734, 54.722225 ] } },
{ "type": "Feature", "properties": { "Name": "Рос&Нефть", "address": "Автомобильная ул., 20, Калининград, Россия", "url": "https://www.rn-oil.com/", "phone": "-", "hours": "ежедневно, круглосуточно", "longitude": 20.490932, "latitude": 54.674557 }, "geometry": { "type": "Point", "coordinates": [ 20.490932, 54.674557 ] } },
{ "type": "Feature", "properties": { "Name": "Калининграднефтепродукт", "address": "Советский просп., 181, Калининград, Россия", "url": "http://www.surgutneftegas39.ru/", "phone": "+7 (4012) 99-54-43", "hours": "ежедневно, круглосуточно", "longitude": 20.462188, "latitude": 54.746266 }, "geometry": { "type": "Point", "coordinates": [ 20.462188, 54.746266 ] } },
{ "type": "Feature", "properties": { "Name": "Калининграднефтепродукт", "address": "ул. Юрия Гагарина, 2Б, Калининград, Россия", "url": "http://www.surgutneftegas39.ru/", "phone": "+7 (4012) 99-54-64", "hours": "ежедневно, круглосуточно", "longitude": 20.540783, "latitude": 54.715677 }, "geometry": { "type": "Point", "coordinates": [ 20.540783, 54.715677 ] } },
{ "type": "Feature", "properties": { "Name": "Калининграднефтепродукт", "address": "ул. Парковая Аллея, 61, Калининград, Россия", "url": "http://www.surgutneftegas39.ru/", "phone": "+7 (4012) 99-54-77", "hours": "ежедневно, круглосуточно", "longitude": 20.518089, "latitude": 54.743319 }, "geometry": { "type": "Point", "coordinates": [ 20.518089, 54.743319 ] } },
{ "type": "Feature", "properties": { "Name": "Лукойл", "address": "Киевская ул., 23А, Калининград, Россия", "url": "https://auto.lukoil.ru/", "phone": "8 (800) 100-09-11", "hours": "ежедневно, круглосуточно", "longitude": 20.500886, "latitude": 54.690237 }, "geometry": { "type": "Point", "coordinates": [ 20.500886, 54.690237 ] } },
{ "type": "Feature", "properties": { "Name": "Рос&Нефть", "address": "просп. Победы, 182, Калининград, Россия", "url": "https://www.rn-oil.com/", "phone": "+7 (4012) 96-10-61", "hours": "ежедневно, круглосуточно", "longitude": 20.422577, "latitude": 54.713248 }, "geometry": { "type": "Point", "coordinates": [ 20.422577, 54.713248 ] } },
{ "type": "Feature", "properties": { "Name": "Лукойл", "address": "Московский просп., 373, Калининград, Россия", "url": "https://auto.lukoil.ru/", "phone": "8 (800) 100-09-11", "hours": "ежедневно, круглосуточно", "longitude": 20.609052, "latitude": 54.705504 }, "geometry": { "type": "Point", "coordinates": [ 20.609052, 54.705504 ] } },
{ "type": "Feature", "properties": { "Name": "Калининграднефтепродукт", "address": "ул. Александра Суворова, 139А, Калининград, Россия", "url": "http://www.surgutneftegas39.ru/", "phone": "+7 (4012) 99-54-46", "hours": "ежедневно, круглосуточно", "longitude": 20.439972, "latitude": 54.673896 }, "geometry": { "type": "Point", "coordinates": [ 20.439972, 54.673896 ] } },
{ "type": "Feature", "properties": { "Name": "Калининграднефтепродукт", "address": "Советский просп., 248, Калининград, Россия", "url": "http://www.surgutneftegas39.ru/", "phone": "+7 (4012) 99-54-73", "hours": "ежедневно, круглосуточно", "longitude": 20.451045, "latitude": 54.75356 }, "geometry": { "type": "Point", "coordinates": [ 20.451045, 54.75356 ] } },
{ "type": "Feature", "properties": { "Name": "Лукойл", "address": "ул. Юрия Гагарина, 112, Калининград, Россия", "url": "https://auto.lukoil.ru/", "phone": "8 (800) 100-09-11", "hours": "ежедневно, круглосуточно", "longitude": 20.569529, "latitude": 54.731575 }, "geometry": { "type": "Point", "coordinates": [ 20.569529, 54.731575 ] } },
{ "type": "Feature", "properties": { "Name": "Балтнефть", "address": "ул. Габайдулина, 26, Калининград, Россия", "url": "https://baltneft.info/", "phone": "+7 (963) 737-74-31", "hours": "ежедневно, круглосуточно", "longitude": 20.443227, "latitude": 54.764134 }, "geometry": { "type": "Point", "coordinates": [ 20.443227, 54.764134 ] } },
{ "type": "Feature", "properties": { "Name": "Балтнефть", "address": "ул. Дзержинского, 249, Калининград, Россия", "url": "https://baltneft.info/", "phone": "+7 (963) 737-74-28", "hours": "ежедневно, круглосуточно", "longitude": 20.542516, "latitude": 54.657807 }, "geometry": { "type": "Point", "coordinates": [ 20.542516, 54.657807 ] } },
{ "type": "Feature", "properties": { "Name": "АЗС", "address": "Калининградская область, Мамоновское шоссе, 20", "url": "-", "phone": "-", "hours": "ежедневно, круглосуточно", "longitude": 20.351268, "latitude": 54.645489 }, "geometry": { "type": "Point", "coordinates": [ 20.351268, 54.645489 ] } },
{ "type": "Feature", "properties": { "Name": "Лукойл", "address": "ул. Александра Суворова, 110, Калининград, Россия", "url": "https://auto.lukoil.ru/", "phone": "8 (800) 100-09-11", "hours": "ежедневно, круглосуточно", "longitude": 20.458208, "latitude": 54.685393 }, "geometry": { "type": "Point", "coordinates": [ 20.458208, 54.685393 ] } },
{ "type": "Feature", "properties": { "Name": "Лукойл", "address": "ул. Олега Кошевого, 45, Калининград, Россия", "url": "https://auto.lukoil.ru/", "phone": "8 (800) 100-09-11", "hours": "ежедневно, круглосуточно", "longitude": 20.513214, "latitude": 54.667987 }, "geometry": { "type": "Point", "coordinates": [ 20.513214, 54.667987 ] } },
{ "type": "Feature", "properties": { "Name": "Калининграднефтепродукт", "address": "ул. Александра Невского, 251, Калининград, Россия", "url": "http://www.surgutneftegas39.ru/", "phone": "+7 (4012) 99-54-25", "hours": "ежедневно, 00:05–23:50", "longitude": 20.543501, "latitude": 54.759189 }, "geometry": { "type": "Point", "coordinates": [ 20.543501, 54.759189 ] } },
{ "type": "Feature", "properties": { "Name": "Лукойл", "address": "Балтийское ш., 98, Калининград, Россия", "url": "https://auto.lukoil.ru/", "phone": "8 (800) 100-09-11", "hours": "ежедневно, круглосуточно", "longitude": 20.377768, "latitude": 54.716796 }, "geometry": { "type": "Point", "coordinates": [ 20.377768, 54.716796 ] } },
{ "type": "Feature", "properties": { "Name": "Баррель", "address": "ул. Дзержинского, 242А, Калининград, Россия", "url": "-", "phone": "+7 (931) 616-38-88", "hours": "ежедневно, 07:20–07:00", "longitude": 20.539791, "latitude": 54.655349 }, "geometry": { "type": "Point", "coordinates": [ 20.539791, 54.655349 ] } },
{ "type": "Feature", "properties": { "Name": "Лукойл", "address": "Киевская ул., 23А, Калининград, Россия", "url": "https://auto.lukoil.ru/", "phone": "8 (800) 100-09-11", "hours": "ежедневно, круглосуточно", "longitude": 20.500722, "latitude": 54.69027 }, "geometry": { "type": "Point", "coordinates": [ 20.500722, 54.69027 ] } },
{ "type": "Feature", "properties": { "Name": "АЗС", "address": "ул. Аллея Смелых, 1, Калининград, Россия", "url": "-", "phone": "-", "hours": "ежедневно, круглосуточно", "longitude": 20.52443, "latitude": 54.693962 }, "geometry": { "type": "Point", "coordinates": [ 20.52443, 54.693962 ] } },
{ "type": "Feature", "properties": { "Name": "Нефтегаз", "address": "ул. Габайдулина, 56, Калининград, Россия", "url": "-", "phone": "-", "hours": "ежедневно, круглосуточно", "longitude": 20.440668, "latitude": 54.760519 }, "geometry": { "type": "Point", "coordinates": [ 20.440668, 54.760519 ] } },
{ "type": "Feature", "properties": { "Name": "Сургутнефтегаз", "address": "Московский просп., 246, Калининград, Россия", "url": "http://surgutneftegas39.ru/", "phone": "+7 (4012) 99-54-66", "hours": "ежедневно, круглосуточно", "longitude": 20.572866, "latitude": 54.707749 }, "geometry": { "type": "Point", "coordinates": [ 20.572866, 54.707749 ] } },
{ "type": "Feature", "properties": { "Name": "Ас-ойл", "address": "Осенняя ул., 19, Калининград, Россия", "url": "-", "phone": "+7 (911) 498-71-24", "hours": "ежедневно, круглосуточно", "longitude": 20.459982, "latitude": 54.738147 }, "geometry": { "type": "Point", "coordinates": [ 20.459982, 54.738147 ] } },
{ "type": "Feature", "properties": { "Name": "Калининграднефтепродукт", "address": "ул. Подполковника Емельянова, 259, Калининград, Россия", "url": "http://www.surgutneftegas39.ru/", "phone": "+7 (4012) 99-08-61", "hours": "ежедневно, круглосуточно", "longitude": 20.585864, "latitude": 54.682485 }, "geometry": { "type": "Point", "coordinates": [ 20.585864, 54.682485 ] } },
{ "type": "Feature", "properties": { "Name": "Калининграднефтепродукт", "address": "ул. Дзержинского, 251, Калининград, Россия", "url": "http://www.surgutneftegas39.ru/", "phone": "+7 (4012) 99-54-28", "hours": "ежедневно, круглосуточно", "longitude": 20.544329, "latitude": 54.656543 }, "geometry": { "type": "Point", "coordinates": [ 20.544329, 54.656543 ] } },
{ "type": "Feature", "properties": { "Name": "Лукойл", "address": "Балтийское ш., 98, Калининград, Россия", "url": "https://auto.lukoil.ru/", "phone": "8 (800) 100-09-11", "hours": "ежедневно, круглосуточно", "longitude": 20.377809, "latitude": 54.716802 }, "geometry": { "type": "Point", "coordinates": [ 20.377809, 54.716802 ] } },
{ "type": "Feature", "properties": { "Name": "Калининграднефтепродукт", "address": "ул. Аллея Смелых, 1, Калининград, Россия", "url": "http://www.surgutneftegas39.ru/", "phone": "+7 (4012) 99-08-61", "hours": "ежедневно, круглосуточно", "longitude": 20.524395, "latitude": 54.694004 }, "geometry": { "type": "Point", "coordinates": [ 20.524395, 54.694004 ] } },
{ "type": "Feature", "properties": { "Name": "Калининграднефтепродукт", "address": "Калининградская область, Северный обход города Калининграда, 21", "url": "http://www.surgutneftegas39.ru/", "phone": "+7 (4012) 99-08-61", "hours": "ежедневно, круглосуточно", "longitude": 20.453652, "latitude": 54.759689 }, "geometry": { "type": "Point", "coordinates": [ 20.453652, 54.759689 ] } },
{ "type": "Feature", "properties": { "Name": "Лукойл", "address": "ул. Ульяны Громовой, 64, Калининград, Россия", "url": "https://auto.lukoil.ru/", "phone": "8 (800) 100-09-11", "hours": "ежедневно, круглосуточно", "longitude": 20.499083, "latitude": 54.668839 }, "geometry": { "type": "Point", "coordinates": [ 20.499083, 54.668839 ] } },
{ "type": "Feature", "properties": { "Name": "Калининграднефтепродукт", "address": "Московский просп., 246, Калининград, Россия", "url": "http://www.surgutneftegas39.ru/", "phone": "+7 (4012) 99-54-66", "hours": "ежедневно, круглосуточно", "longitude": 20.572871, "latitude": 54.707792 }, "geometry": { "type": "Point", "coordinates": [ 20.572871, 54.707792 ] } },
{ "type": "Feature", "properties": { "Name": "Teboil", "address": "Московский просп., 233, Калининград, Россия", "url": "https://azs.teboil.ru/", "phone": "-", "hours": "ежедневно, круглосуточно", "longitude": 20.573986, "latitude": 54.708541 }, "geometry": { "type": "Point", "coordinates": [ 20.573986, 54.708541 ] } },
{ "type": "Feature", "properties": { "Name": "Балтнефть", "address": "ул. Подполковника Емельянова, 232, Калининград, Россия", "url": "-", "phone": "+7 (4012) 70-25-70", "hours": "ежедневно, круглосуточно", "longitude": 20.589324, "latitude": 54.681682 }, "geometry": { "type": "Point", "coordinates": [ 20.589324, 54.681682 ] } },
{ "type": "Feature", "properties": { "Name": "Идель", "address": "Муромская ул., 35, Калининград, Россия", "url": "-", "phone": "+7 (4012) 97-76-42", "hours": "ежедневно, 08:20–08:00, перерыв 20:00–20:20", "longitude": 20.540774, "latitude": 54.673745 }, "geometry": { "type": "Point", "coordinates": [ 20.540774, 54.673745 ] } },
{ "type": "Feature", "properties": { "Name": "Teboil", "address": "Московский просп., 242А, Калининград, Россия", "url": "https://azs.teboil.ru/", "phone": "8 (800) 101-00-88", "hours": "ежедневно, круглосуточно", "longitude": 20.569641, "latitude": 54.708046 }, "geometry": { "type": "Point", "coordinates": [ 20.569641, 54.708046 ] } },
{ "type": "Feature", "properties": { "Name": "Лукойл", "address": "Московский просп., 242А, Калининград, Россия", "url": "https://auto.lukoil.ru/", "phone": "8 (800) 100-09-11", "hours": "ежедневно, круглосуточно", "longitude": 20.569605, "latitude": 54.708024 }, "geometry": { "type": "Point", "coordinates": [ 20.569605, 54.708024 ] } },
{ "type": "Feature", "properties": { "Name": "Лукойл", "address": "Московский просп., 233, Калининград, Россия", "url": "https://auto.lukoil.ru/", "phone": "8 (800) 100-09-11", "hours": "ежедневно, круглосуточно", "longitude": 20.573944, "latitude": 54.708524 }, "geometry": { "type": "Point", "coordinates": [ 20.573944, 54.708524 ] } },
{ "type": "Feature", "properties": { "Name": "Лукойл", "address": "Елизаветинская ул., 2А, Калининград, Россия", "url": "https://auto.lukoil.ru/", "phone": "8 (800) 100-09-11", "hours": "ежедневно, круглосуточно", "longitude": 20.48741, "latitude": 54.747402 }, "geometry": { "type": "Point", "coordinates": [ 20.48741, 54.747402 ] } },
{ "type": "Feature", "properties": { "Name": "Лукойл", "address": "Советский просп., 290, Калининград, Россия", "url": "https://auto.lukoil.ru/", "phone": "8 (800) 100-09-11", "hours": "ежедневно, круглосуточно", "longitude": 20.440832, "latitude": 54.76355 }, "geometry": { "type": "Point", "coordinates": [ 20.440832, 54.76355 ] } },
{ "type": "Feature", "properties": { "Name": "Teboil", "address": "Елизаветинская ул., 2А, Калининград, Россия", "url": "https://azs.teboil.ru/", "phone": "+7 (981) 471-28-40", "hours": "ежедневно, круглосуточно", "longitude": 20.487483, "latitude": 54.747397 }, "geometry": { "type": "Point", "coordinates": [ 20.487483, 54.747397 ] } },
{ "type": "Feature", "properties": { "Name": "Сургутнефтегаз", "address": "ул. Дзержинского, 251, Калининград, Россия", "url": "-", "phone": "-", "hours": "ежедневно, 06:00–00:00", "longitude": 20.544906, "latitude": 54.656615 }, "geometry": { "type": "Point", "coordinates": [ 20.544906, 54.656615 ] } },
{ "type": "Feature", "properties": { "Name": "Сургутнефтегаз", "address": "ул. Парковая Аллея, 61, Калининград, Россия", "url": "http://surgutneftegas39.ru/", "phone": "+7 (4012) 99-54-77", "hours": "ежедневно, круглосуточно", "longitude": 20.517979, "latitude": 54.743344 }, "geometry": { "type": "Point", "coordinates": [ 20.517979, 54.743344 ] } },
{ "type": "Feature", "properties": { "Name": "Питерснаб", "address": "ул. Богдана Хмельницкого, 86, Калининград, Россия", "url": "-", "phone": "+7 (4012) 35-10-05", "hours": "пн-пт 08:00–17:00, перерыв 13:00–14:00", "longitude": 20.515726, "latitude": 54.696964 }, "geometry": { "type": "Point", "coordinates": [ 20.515726, 54.696964 ] } },
{ "type": "Feature", "properties": { "Name": "Блеск авто", "address": "Московский просп., 81Б, Калининград, Россия", "url": "-", "phone": "+7 (4012) 35-10-53", "hours": "ежедневно, 08:00–20:00", "longitude": 20.515817, "latitude": 54.709481 }, "geometry": { "type": "Point", "coordinates": [ 20.515817, 54.709481 ] } },
{ "type": "Feature", "properties": { "Name": "Сургутнефтегаз", "address": "ул. Александра Суворова, 139А, Калининград, Россия", "url": "-", "phone": "+7 (4012) 99-54-46", "hours": "ежедневно, круглосуточно", "longitude": 20.440005, "latitude": 54.673872 }, "geometry": { "type": "Point", "coordinates": [ 20.440005, 54.673872 ] } },
{ "type": "Feature", "properties": { "Name": "Лукойл", "address": "ул. Куйбышева, 36, Калининград, Россия", "url": "https://auto.lukoil.ru/", "phone": "8 (800) 100-09-11", "hours": "ежедневно, круглосуточно", "longitude": 20.53660015205217, "latitude": 54.724937525488237 }, "geometry": { "type": "Point", "coordinates": [ 20.53660015205217, 54.724937525488237 ] } },
{ "type": "Feature", "properties": { "Name": "Балтнефть", "address": "ул. Генерал-Лейтенанта Озерова, 33, Калининград, Россия", "url": "https://baltneft.info/", "phone": "+7 (963) 737-74-38", "hours": "ежедневно, круглосуточно", "longitude": 20.506053499172207, "latitude": 54.726791410097022 }, "geometry": { "type": "Point", "coordinates": [ 20.506053499172207, 54.726791410097022 ] } },
{ "type": "Feature", "properties": { "Name": "РостОйл", "address": "Дачная ул., 1А, Калининград, Россия", "url": "-", "phone": "-", "hours": "ежедневно, круглосуточно", "longitude": 20.544541830710703, "latitude": 54.710481443927193 }, "geometry": { "type": "Point", "coordinates": [ 20.544541830710703, 54.710481443927193 ] } },
{ "type": "Feature", "properties": { "Name": "Одор", "address": "просп. Победы, 279, Калининград, Россия", "url": "-", "phone": "+7 (921) 009-64-88", "hours": "ежедневно, круглосуточно", "longitude": 20.40744306171511, "latitude": 54.714924879498469 }, "geometry": { "type": "Point", "coordinates": [ 20.40744306171511, 54.714924879498469 ] } },
{ "type": "Feature", "properties": { "Name": "Балтнефть", "address": "ул. Олега Кошевого, 31, Калининград, Россия", "url": "https://baltneft.info/", "phone": "+7 (963) 737-74-37", "hours": "ежедневно, круглосуточно", "longitude": 20.512588504355758, "latitude": 54.671191672594333 }, "geometry": { "type": "Point", "coordinates": [ 20.512588504355758, 54.671191672594333 ] } },
{ "type": "Feature", "properties": { "Name": "Рос&Нефть", "address": "ул. Дзержинского, 61, Калининград, Россия", "url": "http://www.ros-neft.com/", "phone": "+7 (4012) 64-35-04", "hours": "ежедневно, круглосуточно", "longitude": 20.532359988465416, "latitude": 54.689798266855682 }, "geometry": { "type": "Point", "coordinates": [ 20.532359988465416, 54.689798266855682 ] } },
{ "type": "Feature", "properties": { "Name": "Калининграднефтепродукт", "address": "Московский просп., 266, Калининград, Россия", "url": "http://www.surgutneftegas39.ru/", "phone": "+7 (4012) 99-54-61", "hours": "ежедневно, круглосуточно", "longitude": 20.583881848122218, "latitude": 54.706028918432672 }, "geometry": { "type": "Point", "coordinates": [ 20.583881848122218, 54.706028918432672 ] } },
{ "type": "Feature", "properties": { "Name": "Фаворит", "address": "ул. Энергетиков, 5, корп. 1, Калининград, Россия", "url": "-", "phone": "-", "hours": "ежедневно, 14:00–21:00", "longitude": 20.542576354637504, "latitude": 54.657808726707223 }, "geometry": { "type": "Point", "coordinates": [ 20.542576354637504, 54.657808726707223 ] } },
{ "type": "Feature", "properties": { "Name": "Балтнефть", "address": "Калининградская область, Мамоновское шоссе, 11", "url": "http://baltneft.info/", "phone": "+7 (963) 737-74-11", "hours": "ежедневно, круглосуточно", "longitude": 20.37597254845646, "latitude": 54.652033939310193 }, "geometry": { "type": "Point", "coordinates": [ 20.37597254845646, 54.652033939310193 ] } },
{ "type": "Feature", "properties": { "Name": "Калининграднефтепродукт", "address": "просп. Победы, 221А, Калининград, Россия", "url": "http://www.surgutneftegas39.ru/", "phone": "+7 (4012) 99-54-55", "hours": "ежедневно, круглосуточно", "longitude": 20.421553791002783, "latitude": 54.712057382563813 }, "geometry": { "type": "Point", "coordinates": [ 20.421553791002783, 54.712057382563813 ] } },
{ "type": "Feature", "properties": { "Name": "Калининграднефтепродукт", "address": "ул. Аллея Смелых, 210, Калининград, Россия", "url": "http://www.surgutneftegas39.ru/", "phone": "+7 (4012) 99-08-61", "hours": "ежедневно, круглосуточно", "longitude": 20.516020966449883, "latitude": 54.666033449489568 }, "geometry": { "type": "Point", "coordinates": [ 20.516020966449883, 54.666033449489568 ] } },
{ "type": "Feature", "properties": { "Name": "Лукойл", "address": "Тихорецкая ул., 2Б, Калининград, Россия", "url": "https://auto.lukoil.ru/", "phone": "8 (800) 100-09-11", "hours": "ежедневно, круглосуточно", "longitude": 20.488869389800396, "latitude": 54.684510340704726 }, "geometry": { "type": "Point", "coordinates": [ 20.488869389800396, 54.684510340704726 ] } },
{ "type": "Feature", "properties": { "Name": "Калининграднефтепродукт", "address": "ул. Александра Суворова, 117А, Калининград, Россия", "url": "http://www.surgutneftegas39.ru/", "phone": "+7 (4012) 99-08-61", "hours": "ежедневно, круглосуточно", "longitude": 20.455209017935552, "latitude": 54.68248517691373 }, "geometry": { "type": "Point", "coordinates": [ 20.455209017935552, 54.68248517691373 ] } },
{ "type": "Feature", "properties": { "Name": "АЗС", "address": "Калининград, посёлок Димитрово", "url": "-", "phone": "-", "hours": "ежедневно, 04:00–22:00", "longitude": 20.458342966759322, "latitude": 54.679386260255846 }, "geometry": { "type": "Point", "coordinates": [ 20.458342966759322, 54.679386260255846 ] } },
{ "type": "Feature", "properties": { "Name": "АГЗС № 7", "address": "Калининград, улица Старшего Лейтенанта Сибирякова", "url": "http://39ags.ru/", "phone": "+7 (4012) 92-10-04", "hours": "ежедневно, круглосуточно", "longitude": 20.501805566889885, "latitude": 54.734868665814659 }, "geometry": { "type": "Point", "coordinates": [ 20.501805566889885, 54.734868665814659 ] } },
{ "type": "Feature", "properties": { "Name": "Teboil", "address": "Советский просп., 290, Калининград, Россия", "url": "https://azs.teboil.ru/", "phone": "-", "hours": "ежедневно, круглосуточно", "longitude": 20.440673059976323, "latitude": 54.763683670860679 }, "geometry": { "type": "Point", "coordinates": [ 20.440673059976323, 54.763683670860679 ] } },
{ "type": "Feature", "properties": { "Name": "Автозаправочная Станция", "address": "Камская ул., 6А, корп. 11, Калининград, Россия", "url": "-", "phone": "-", "hours": "ежедневно, 08:00–00:00", "longitude": 20.463206242248273, "latitude": 54.67442972744152 }, "geometry": { "type": "Point", "coordinates": [ 20.463206242248273, 54.67442972744152 ] } },
{ "type": "Feature", "properties": { "Name": "Лукойл", "address": "Калининград, Московский район", "url": "https://auto.lukoil.ru/", "phone": "8 (800) 100-09-11", "hours": "ежедневно, круглосуточно", "longitude": 20.45835691177507, "latitude": 54.685372690372752 }, "geometry": { "type": "Point", "coordinates": [ 20.45835691177507, 54.685372690372752 ] } },
{ "type": "Feature", "properties": { "Name": "Лукойл", "address": "ул. Куйбышева, 36, Калининград, Россия", "url": "https://auto.lukoil.ru/", "phone": "8 (800) 100-09-11", "hours": "ежедневно, круглосуточно", "longitude": 20.53660015205217, "latitude": 54.724937525488237 }, "geometry": { "type": "Point", "coordinates": [ 20.53660015205217, 54.724937525488237 ] } },
{ "type": "Feature", "properties": { "Name": "Балтнефть", "address": "ул. Генерал-Лейтенанта Озерова, 33, Калининград, Россия", "url": "https://baltneft.info/", "phone": "+7 (963) 737-74-38", "hours": "ежедневно, круглосуточно", "longitude": 20.506053499172207, "latitude": 54.726791410097022 }, "geometry": { "type": "Point", "coordinates": [ 20.506053499172207, 54.726791410097022 ] } },
{ "type": "Feature", "properties": { "Name": "РостОйл", "address": "Дачная ул., 1А, Калининград, Россия", "url": "-", "phone": "-", "hours": "ежедневно, круглосуточно", "longitude": 20.544541830710703, "latitude": 54.710481443927193 }, "geometry": { "type": "Point", "coordinates": [ 20.544541830710703, 54.710481443927193 ] } },
{ "type": "Feature", "properties": { "Name": "Одор", "address": "просп. Победы, 279, Калининград, Россия", "url": "-", "phone": "+7 (921) 009-64-88", "hours": "ежедневно, круглосуточно", "longitude": 20.40744306171511, "latitude": 54.714924879498469 }, "geometry": { "type": "Point", "coordinates": [ 20.40744306171511, 54.714924879498469 ] } },
{ "type": "Feature", "properties": { "Name": "Балтнефть", "address": "ул. Олега Кошевого, 31, Калининград, Россия", "url": "https://baltneft.info/", "phone": "+7 (963) 737-74-37", "hours": "ежедневно, круглосуточно", "longitude": 20.512588504355758, "latitude": 54.671191672594333 }, "geometry": { "type": "Point", "coordinates": [ 20.512588504355758, 54.671191672594333 ] } },
{ "type": "Feature", "properties": { "Name": "Рос&Нефть", "address": "ул. Дзержинского, 61, Калининград, Россия", "url": "http://www.ros-neft.com/", "phone": "+7 (4012) 64-35-04", "hours": "ежедневно, круглосуточно", "longitude": 20.532359988465416, "latitude": 54.689798266855682 }, "geometry": { "type": "Point", "coordinates": [ 20.532359988465416, 54.689798266855682 ] } },
{ "type": "Feature", "properties": { "Name": "Калининграднефтепродукт", "address": "Московский просп., 266, Калининград, Россия", "url": "http://www.surgutneftegas39.ru/", "phone": "+7 (4012) 99-54-61", "hours": "ежедневно, круглосуточно", "longitude": 20.583881848122218, "latitude": 54.706028918432672 }, "geometry": { "type": "Point", "coordinates": [ 20.583881848122218, 54.706028918432672 ] } },
{ "type": "Feature", "properties": { "Name": "Фаворит", "address": "ул. Энергетиков, 5, корп. 1, Калининград, Россия", "url": "-", "phone": "-", "hours": "ежедневно, 14:00–21:00", "longitude": 20.542576354637504, "latitude": 54.657808726707223 }, "geometry": { "type": "Point", "coordinates": [ 20.542576354637504, 54.657808726707223 ] } },
{ "type": "Feature", "properties": { "Name": "Балтнефть", "address": "Калининградская область, Мамоновское шоссе, 11", "url": "http://baltneft.info/", "phone": "+7 (963) 737-74-11", "hours": "ежедневно, круглосуточно", "longitude": 20.37597254845646, "latitude": 54.652033939310193 }, "geometry": { "type": "Point", "coordinates": [ 20.37597254845646, 54.652033939310193 ] } },
{ "type": "Feature", "properties": { "Name": "Калининграднефтепродукт", "address": "просп. Победы, 221А, Калининград, Россия", "url": "http://www.surgutneftegas39.ru/", "phone": "+7 (4012) 99-54-55", "hours": "ежедневно, круглосуточно", "longitude": 20.421553791002783, "latitude": 54.712057382563813 }, "geometry": { "type": "Point", "coordinates": [ 20.421553791002783, 54.712057382563813 ] } },
{ "type": "Feature", "properties": { "Name": "Калининграднефтепродукт", "address": "ул. Аллея Смелых, 210, Калининград, Россия", "url": "http://www.surgutneftegas39.ru/", "phone": "+7 (4012) 99-08-61", "hours": "ежедневно, круглосуточно", "longitude": 20.516020966449883, "latitude": 54.666033449489568 }, "geometry": { "type": "Point", "coordinates": [ 20.516020966449883, 54.666033449489568 ] } },
{ "type": "Feature", "properties": { "Name": "Лукойл", "address": "Тихорецкая ул., 2Б, Калининград, Россия", "url": "https://auto.lukoil.ru/", "phone": "8 (800) 100-09-11", "hours": "ежедневно, круглосуточно", "longitude": 20.488869389800396, "latitude": 54.684510340704726 }, "geometry": { "type": "Point", "coordinates": [ 20.488869389800396, 54.684510340704726 ] } },
{ "type": "Feature", "properties": { "Name": "Калининграднефтепродукт", "address": "ул. Александра Суворова, 117А, Калининград, Россия", "url": "http://www.surgutneftegas39.ru/", "phone": "+7 (4012) 99-08-61", "hours": "ежедневно, круглосуточно", "longitude": 20.455209017935552, "latitude": 54.68248517691373 }, "geometry": { "type": "Point", "coordinates": [ 20.455209017935552, 54.68248517691373 ] } },
{ "type": "Feature", "properties": { "Name": "АЗС", "address": "Калининград, посёлок Димитрово", "url": "-", "phone": "-", "hours": "ежедневно, 04:00–22:00", "longitude": 20.458342966759322, "latitude": 54.679386260255846 }, "geometry": { "type": "Point", "coordinates": [ 20.458342966759322, 54.679386260255846 ] } },
{ "type": "Feature", "properties": { "Name": "АГЗС № 7", "address": "Калининград, улица Старшего Лейтенанта Сибирякова", "url": "http://39ags.ru/", "phone": "+7 (4012) 92-10-04", "hours": "ежедневно, круглосуточно", "longitude": 20.501805566889885, "latitude": 54.734868665814659 }, "geometry": { "type": "Point", "coordinates": [ 20.501805566889885, 54.734868665814659 ] } },
{ "type": "Feature", "properties": { "Name": "Teboil", "address": "Советский просп., 290, Калининград, Россия", "url": "https://azs.teboil.ru/", "phone": "-", "hours": "ежедневно, круглосуточно", "longitude": 20.440673059976323, "latitude": 54.763683670860679 }, "geometry": { "type": "Point", "coordinates": [ 20.440673059976323, 54.763683670860679 ] } },
{ "type": "Feature", "properties": { "Name": "Автозаправочная Станция", "address": "Камская ул., 6А, корп. 11, Калининград, Россия", "url": "-", "phone": "-", "hours": "ежедневно, 08:00–00:00", "longitude": 20.463206242248273, "latitude": 54.67442972744152 }, "geometry": { "type": "Point", "coordinates": [ 20.463206242248273, 54.67442972744152 ] } },
{ "type": "Feature", "properties": { "Name": "Лукойл", "address": "Калининград, Московский район", "url": "https://auto.lukoil.ru/", "phone": "8 (800) 100-09-11", "hours": "ежедневно, круглосуточно", "longitude": 20.45835691177507, "latitude": 54.685372690372752 }, "geometry": { "type": "Point", "coordinates": [ 20.45835691177507, 54.685372690372752 ] } }
]
}
