{
"type": "FeatureCollection",
"name": "aparts",
"crs": { "type": "name", "properties": { "name": "urn:ogc:def:crs:OGC:1.3:CRS84" } },
"features": [
{ "type": "Feature", "properties": { "Name": "Apart39", "address": "ул. Горького, 164, Калининград, Россия", "url": "http://apart39.ru/", "phone": "-", "hours": "-", "longitude": 20.501832, "latitude": 54.746039 }, "geometry": { "type": "Point", "coordinates": [ 20.501832, 54.746039 ] } },
{ "type": "Feature", "properties": { "Name": "Апартаменты Калининград", "address": "Ленинский просп., 67, Калининград, Россия", "url": "-", "phone": "+7 (909) 796-18-00", "hours": "-", "longitude": 20.507689, "latitude": 54.71313 }, "geometry": { "type": "Point", "coordinates": [ 20.507689, 54.71313 ] } },
{ "type": "Feature", "properties": { "Name": "Apartments Parkgarten", "address": "ул. 9 Апреля, 88А, Калининград, Россия", "url": "-", "phone": "+7 (962) 255-57-77", "hours": "-", "longitude": 20.525525, "latitude": 54.71903 }, "geometry": { "type": "Point", "coordinates": [ 20.525525, 54.71903 ] } },
{ "type": "Feature", "properties": { "Name": "Апартаменты Калининград", "address": "ул. Генерала Галицкого, 6, Калининград, Россия", "url": "-", "phone": "+7 (911) 940-59-43", "hours": "-", "longitude": 20.499105, "latitude": 54.71635 }, "geometry": { "type": "Point", "coordinates": [ 20.499105, 54.71635 ] } },
{ "type": "Feature", "properties": { "Name": "Апартаменты на Октябрьской и Верхнем озере", "address": "Октябрьская ул., 37, Калининград, Россия", "url": "http://vlasovaapartments.ru/", "phone": "+7 (921) 265-56-69", "hours": "ежедневно, круглосуточно", "longitude": 20.51744, "latitude": 54.702032 }, "geometry": { "type": "Point", "coordinates": [ 20.51744, 54.702032 ] } },
{ "type": "Feature", "properties": { "Name": "Апартаменты в центре Калининграда", "address": "Ленинский просп., 62, Калининград, Россия", "url": "-", "phone": "+7 (911) 491-12-57", "hours": "-", "longitude": 20.50305, "latitude": 54.700943 }, "geometry": { "type": "Point", "coordinates": [ 20.50305, 54.700943 ] } },
{ "type": "Feature", "properties": { "Name": "Апартаменты Черняховского 5", "address": "ул. Черняховского, 5, Калининград, Россия", "url": "-", "phone": "+7 (963) 299-79-77", "hours": "-", "longitude": 20.506014, "latitude": 54.719856 }, "geometry": { "type": "Point", "coordinates": [ 20.506014, 54.719856 ] } },
{ "type": "Feature", "properties": { "Name": "Апарт-отель Калининград", "address": "Земельная ул., 8-8А, Калининград, Россия", "url": "-", "phone": "+7 (911) 455-19-88", "hours": "-", "longitude": 20.512552, "latitude": 54.731705 }, "geometry": { "type": "Point", "coordinates": [ 20.512552, 54.731705 ] } },
{ "type": "Feature", "properties": { "Name": "Апартаменты на Проспекте", "address": "Московский просп., 64, Калининград, Россия", "url": "-", "phone": "+7 (921) 005-05-98", "hours": "-", "longitude": 20.518393, "latitude": 54.708115 }, "geometry": { "type": "Point", "coordinates": [ 20.518393, 54.708115 ] } },
{ "type": "Feature", "properties": { "Name": "Апартаменты Kaliningrad Home", "address": "ул. Памяти Павших в Афганистане, 24, Калининград, Россия", "url": "-", "phone": "+7 (938) 316-16-45", "hours": "-", "longitude": 20.494919, "latitude": 54.73102 }, "geometry": { "type": "Point", "coordinates": [ 20.494919, 54.73102 ] } },
{ "type": "Feature", "properties": { "Name": "Апартаменты в центре города Калининград", "address": "Пролетарская ул., 13, Калининград, Россия", "url": "-", "phone": "+7 (911) 850-63-31", "hours": "-", "longitude": 20.512724, "latitude": 54.71269 }, "geometry": { "type": "Point", "coordinates": [ 20.512724, 54.71269 ] } },
{ "type": "Feature", "properties": { "Name": "Апартаменты на Старо-Прегольской Набережной 14", "address": "Старопрегольская наб., 14, Калининград, Россия", "url": "-", "phone": "-", "hours": "-", "longitude": 20.511251, "latitude": 54.704445 }, "geometry": { "type": "Point", "coordinates": [ 20.511251, 54.704445 ] } },
{ "type": "Feature", "properties": { "Name": "Апартаменты Imperial", "address": "ул. Александра Невского, 59, Калининград, Россия", "url": "https://euro-apart.ru/", "phone": "+7 (905) 245-09-18", "hours": "ежедневно, круглосуточно", "longitude": 20.531279, "latitude": 54.733097 }, "geometry": { "type": "Point", "coordinates": [ 20.531279, 54.733097 ] } },
{ "type": "Feature", "properties": { "Name": "Апартаменты Двухкомнатная квартира в центре", "address": "Ленинский просп., 65А, Калининград, Россия", "url": "-", "phone": "+7 (905) 242-72-80", "hours": "-", "longitude": 20.5094, "latitude": 54.712982 }, "geometry": { "type": "Point", "coordinates": [ 20.5094, 54.712982 ] } },
{ "type": "Feature", "properties": { "Name": "Апартаменты Самый центр", "address": "Ленинский просп., 21А, Калининград, Россия", "url": "-", "phone": "+7 (906) 216-19-55", "hours": "-", "longitude": 20.50401, "latitude": 54.71675 }, "geometry": { "type": "Point", "coordinates": [ 20.50401, 54.71675 ] } },
{ "type": "Feature", "properties": { "Name": "Апартаменты в центре Города Ленинский ПР 73а", "address": "Ленинский просп., 73А, Калининград, Россия", "url": "-", "phone": "+7 (911) 856-23-35", "hours": "-", "longitude": 20.509382, "latitude": 54.712467 }, "geometry": { "type": "Point", "coordinates": [ 20.509382, 54.712467 ] } },
{ "type": "Feature", "properties": { "Name": "Апартаменты в центре на набережной", "address": "Московский просп., 76, Калининград, Россия", "url": "-", "phone": "+7 (901) 035-84-71", "hours": "-", "longitude": 20.524698, "latitude": 54.70845 }, "geometry": { "type": "Point", "coordinates": [ 20.524698, 54.70845 ] } },
{ "type": "Feature", "properties": { "Name": "Апартаменты на Шахматной", "address": "Шахматная ул., 2, Калининград, Россия", "url": "-", "phone": "-", "hours": "ежедневно, круглосуточно", "longitude": 20.554088, "latitude": 54.734047 }, "geometry": { "type": "Point", "coordinates": [ 20.554088, 54.734047 ] } },
{ "type": "Feature", "properties": { "Name": "Morskaya Kvartira V Tsentre Kaliningrada", "address": "Ленинский просп., 31, Калининград, Россия", "url": "-", "phone": "+7 (952) 791-11-75", "hours": "-", "longitude": 20.5041, "latitude": 54.715656 }, "geometry": { "type": "Point", "coordinates": [ 20.5041, 54.715656 ] } },
{ "type": "Feature", "properties": { "Name": "Апартаменты на Проспекте", "address": "Московский просп., 36, Калининград, Россия", "url": "-", "phone": "+7 (921) 005-05-98", "hours": "-", "longitude": 20.501648, "latitude": 54.70959 }, "geometry": { "type": "Point", "coordinates": [ 20.501648, 54.70959 ] } },
{ "type": "Feature", "properties": { "Name": "Апартаменты в центре", "address": "Московский просп., 42, Калининград, Россия", "url": "-", "phone": "+7 (911) 456-95-26", "hours": "-", "longitude": 20.502321, "latitude": 54.708916 }, "geometry": { "type": "Point", "coordinates": [ 20.502321, 54.708916 ] } },
{ "type": "Feature", "properties": { "Name": "Апартаменты в центре Калининграда", "address": "ул. Мусоргского, 4, Калининград, Россия", "url": "-", "phone": "+7 (911) 459-48-03", "hours": "-", "longitude": 20.498844, "latitude": 54.724895 }, "geometry": { "type": "Point", "coordinates": [ 20.498844, 54.724895 ] } },
{ "type": "Feature", "properties": { "Name": "Апартаменты на Советском", "address": "Советский просп., 27, Калининград, Россия", "url": "-", "phone": "+7 (911) 456-95-26", "hours": "-", "longitude": 20.492933, "latitude": 54.727825 }, "geometry": { "type": "Point", "coordinates": [ 20.492933, 54.727825 ] } },
{ "type": "Feature", "properties": { "Name": "Апартаменты Калининграда на ул. Красная", "address": "Красная ул., 17, Калининград, Россия", "url": "-", "phone": "+7 (911) 855-20-68", "hours": "-", "longitude": 20.474373, "latitude": 54.72263 }, "geometry": { "type": "Point", "coordinates": [ 20.474373, 54.72263 ] } },
{ "type": "Feature", "properties": { "Name": "Апартаменты Двухкомнатные рядом с Достопримечательностями Калининграда", "address": "Пролетарская ул., 33А, Калининград, Россия", "url": "-", "phone": "+7 (909) 777-20-76", "hours": "-", "longitude": 20.512913, "latitude": 54.7144 }, "geometry": { "type": "Point", "coordinates": [ 20.512913, 54.7144 ] } },
{ "type": "Feature", "properties": { "Name": "Апартаменты на Московском Проспекте", "address": "Московский просп., 14, Калининград, Россия", "url": "-", "phone": "+7 (911) 460-36-03", "hours": "-", "longitude": 20.497597, "latitude": 54.70995 }, "geometry": { "type": "Point", "coordinates": [ 20.497597, 54.70995 ] } },
{ "type": "Feature", "properties": { "Name": "Апартаменты на 9 Апреля", "address": "ул. 9 Апреля, 62, Калининград, Россия", "url": "-", "phone": "+7 (911) 451-51-81", "hours": "-", "longitude": 20.52598, "latitude": 54.716381 }, "geometry": { "type": "Point", "coordinates": [ 20.52598, 54.716381 ] } },
{ "type": "Feature", "properties": { "Name": "Апартаменты с видом на новый стадион в Калининграде", "address": "Московский просп., 119, Калининград, Россия", "url": "-", "phone": "+7 (921) 603-52-62", "hours": "-", "longitude": 20.527353, "latitude": 54.710026 }, "geometry": { "type": "Point", "coordinates": [ 20.527353, 54.710026 ] } },
{ "type": "Feature", "properties": { "Name": "Апартаменты Квартира в центре", "address": "ул. Вагнера, 5, Калининград, Россия", "url": "-", "phone": "+7 (906) 238-92-93", "hours": "-", "longitude": 20.504496, "latitude": 54.711864 }, "geometry": { "type": "Point", "coordinates": [ 20.504496, 54.711864 ] } },
{ "type": "Feature", "properties": { "Name": "Апартаменты Казанская Калининград", "address": "Казанская ул., 8, Калининград, Россия", "url": "-", "phone": "+7 (911) 491-12-57", "hours": "-", "longitude": 20.505566, "latitude": 54.700096 }, "geometry": { "type": "Point", "coordinates": [ 20.505566, 54.700096 ] } },
{ "type": "Feature", "properties": { "Name": "Апартаменты на Дачной Калининград", "address": "Дачная ул., 8, Калининград, Россия", "url": "-", "phone": "+7 (964) 419-81-07", "hours": "-", "longitude": 20.5457, "latitude": 54.712437 }, "geometry": { "type": "Point", "coordinates": [ 20.5457, 54.712437 ] } },
{ "type": "Feature", "properties": { "Name": "Апартаменты Двухкомнатные в центре Калининграда", "address": "Житомирская ул., 14, Калининград, Россия", "url": "-", "phone": "+7 (905) 242-72-80", "hours": "-", "longitude": 20.506472, "latitude": 54.711407 }, "geometry": { "type": "Point", "coordinates": [ 20.506472, 54.711407 ] } },
{ "type": "Feature", "properties": { "Name": "Аппартаменты в центре Калининграда", "address": "Пролетарская ул., 39, Калининград, Россия", "url": "-", "phone": "+7 (906) 219-90-49", "hours": "-", "longitude": 20.512697, "latitude": 54.71517 }, "geometry": { "type": "Point", "coordinates": [ 20.512697, 54.71517 ] } },
{ "type": "Feature", "properties": { "Name": "Апартаменты у Северного вокзала", "address": "ул. Генерал-Лейтенанта Озерова, 3, Калининград, Россия", "url": "-", "phone": "+7 (952) 057-10-22", "hours": "-", "longitude": 20.49641, "latitude": 54.72622 }, "geometry": { "type": "Point", "coordinates": [ 20.49641, 54.72622 ] } },
{ "type": "Feature", "properties": { "Name": "Квартира с видом на Кафедральный собор", "address": "Московский просп., 76, Калининград, Россия", "url": "-", "phone": "+7 (902) 037-92-01", "hours": "-", "longitude": 20.524698, "latitude": 54.70845 }, "geometry": { "type": "Point", "coordinates": [ 20.524698, 54.70845 ] } },
{ "type": "Feature", "properties": { "Name": "Апартаменты Bellevue", "address": "Клиническая ул., 19А, Калининград, Россия", "url": "-", "phone": "+7 (911) 453-06-16", "hours": "-", "longitude": 20.517843, "latitude": 54.712986 }, "geometry": { "type": "Point", "coordinates": [ 20.517843, 54.712986 ] } },
{ "type": "Feature", "properties": { "Name": "Апартаменты Old Kenig на Московском", "address": "Московский просп., 153, Калининград, Россия", "url": "-", "phone": "+7 (911) 074-34-38", "hours": "-", "longitude": 20.535074, "latitude": 54.71014 }, "geometry": { "type": "Point", "coordinates": [ 20.535074, 54.71014 ] } },
{ "type": "Feature", "properties": { "Name": "Апартаменты центр Города, три комнаты", "address": "Ленинский просп., 22, Калининград, Россия", "url": "-", "phone": "+7 (900) 354-77-77", "hours": "-", "longitude": 20.505987, "latitude": 54.713345 }, "geometry": { "type": "Point", "coordinates": [ 20.505987, 54.713345 ] } },
{ "type": "Feature", "properties": { "Name": "Апартаменты двухкомнатные Портовая", "address": "Портовая ул., 6, Калининград, Россия", "url": "-", "phone": "+7 (963) 351-40-00", "hours": "-", "longitude": 20.50242, "latitude": 54.705017 }, "geometry": { "type": "Point", "coordinates": [ 20.50242, 54.705017 ] } },
{ "type": "Feature", "properties": { "Name": "Апартаменты Apart39 на Гайдара 175", "address": "ул. Гайдара, 175, Калининград, Россия", "url": "-", "phone": "+7 (921) 100-72-02", "hours": "-", "longitude": 20.511862, "latitude": 54.742428 }, "geometry": { "type": "Point", "coordinates": [ 20.511862, 54.742428 ] } },
{ "type": "Feature", "properties": { "Name": "Апартаменты Квартира на Радистов", "address": "ул. Радистов, 12, Калининград, Россия", "url": "-", "phone": "+7 (950) 677-70-94", "hours": "-", "longitude": 20.438972, "latitude": 54.715607 }, "geometry": { "type": "Point", "coordinates": [ 20.438972, 54.715607 ] } },
{ "type": "Feature", "properties": { "Name": "Апартаменты в центре", "address": "Советский просп., 43, Калининград, Россия", "url": "-", "phone": "+7 (911) 465-13-27", "hours": "-", "longitude": 20.49014, "latitude": 54.729595 }, "geometry": { "type": "Point", "coordinates": [ 20.49014, 54.729595 ] } },
{ "type": "Feature", "properties": { "Name": "Апартаменты в самом центре", "address": "Ленинский просп., 95, Калининград, Россия", "url": "-", "phone": "+7 (952) 059-93-15", "hours": "-", "longitude": 20.506096, "latitude": 54.703773 }, "geometry": { "type": "Point", "coordinates": [ 20.506096, 54.703773 ] } },
{ "type": "Feature", "properties": { "Name": "Апартаменты Central city", "address": "Ленинский просп., 37, Калининград, Россия", "url": "-", "phone": "+7 (911) 852-06-11", "hours": "-", "longitude": 20.50506, "latitude": 54.714874 }, "geometry": { "type": "Point", "coordinates": [ 20.50506, 54.714874 ] } },
{ "type": "Feature", "properties": { "Name": "Апартаменты на Радистов", "address": "ул. Радистов, 3, Калининград, Россия", "url": "-", "phone": "+7 (905) 243-35-59", "hours": "-", "longitude": 20.438253, "latitude": 54.714355 }, "geometry": { "type": "Point", "coordinates": [ 20.438253, 54.714355 ] } },
{ "type": "Feature", "properties": { "Name": "Апартаменты на Театральной в центре города", "address": "Театральная ул., 23, Калининград, Россия", "url": "-", "phone": "+7 (909) 796-18-00", "hours": "-", "longitude": 20.499908, "latitude": 54.717037 }, "geometry": { "type": "Point", "coordinates": [ 20.499908, 54.717037 ] } },
{ "type": "Feature", "properties": { "Name": "Апартаменты на Советском 36 А", "address": "Советский просп., 36А, Калининград, Россия", "url": "-", "phone": "+7 (906) 216-22-38", "hours": "-", "longitude": 20.495556, "latitude": 54.726524 }, "geometry": { "type": "Point", "coordinates": [ 20.495556, 54.726524 ] } },
{ "type": "Feature", "properties": { "Name": "Апартаменты рядом с Кафедральным", "address": "Университетская ул., 1А, Калининград, Россия", "url": "-", "phone": "+7 (906) 238-86-66", "hours": "-", "longitude": 20.508305, "latitude": 54.713413 }, "geometry": { "type": "Point", "coordinates": [ 20.508305, 54.713413 ] } },
{ "type": "Feature", "properties": { "Name": "Апартаменты рядом с о. Канта", "address": "ул. Багратиона, 9, Калининград, Россия", "url": "-", "phone": "+7 (912) 061-34-32", "hours": "-", "longitude": 20.514368, "latitude": 54.69921 }, "geometry": { "type": "Point", "coordinates": [ 20.514368, 54.69921 ] } },
{ "type": "Feature", "properties": { "Name": "Апартаменты у Южного жд вокзала", "address": "Ленинский просп., 82, Калининград, Россия", "url": "-", "phone": "+7 (963) 738-33-83", "hours": "-", "longitude": 20.502708, "latitude": 54.699535 }, "geometry": { "type": "Point", "coordinates": [ 20.502708, 54.699535 ] } },
{ "type": "Feature", "properties": { "Name": "Апартаменты Маяк", "address": "ул. Шевченко, 11, Калининград, Россия", "url": "-", "phone": "+7 (913) 474-73-64", "hours": "-", "longitude": 20.511799, "latitude": 54.711555 }, "geometry": { "type": "Point", "coordinates": [ 20.511799, 54.711555 ] } },
{ "type": "Feature", "properties": { "Name": "Апартаменты Между Островом Канта и Вокзалом", "address": "ул. Багратиона, 78, Калининград, Россия", "url": "-", "phone": "+7 (952) 798-95-80", "hours": "-", "longitude": 20.507668, "latitude": 54.699493 }, "geometry": { "type": "Point", "coordinates": [ 20.507668, 54.699493 ] } },
{ "type": "Feature", "properties": { "Name": "Апартаменты Аренда 39", "address": "Автомобильная ул., 9, Калининград, Россия", "url": "-", "phone": "+7 (909) 789-01-39", "hours": "-", "longitude": 20.496868, "latitude": 54.676563 }, "geometry": { "type": "Point", "coordinates": [ 20.496868, 54.676563 ] } },
{ "type": "Feature", "properties": { "Name": "Апартаменты на Коммунистической", "address": "Коммунистическая ул., 24, Калининград, Россия", "url": "-", "phone": "+7 (911) 467-44-95", "hours": "-", "longitude": 20.481337, "latitude": 54.676804 }, "geometry": { "type": "Point", "coordinates": [ 20.481337, 54.676804 ] } },
{ "type": "Feature", "properties": { "Name": "Апартаменты Museum в центре города", "address": "Мариупольская ул., 11, Калининград, Россия", "url": "-", "phone": "+7 (906) 238-55-43", "hours": "-", "longitude": 20.500319, "latitude": 54.70777 }, "geometry": { "type": "Point", "coordinates": [ 20.500319, 54.70777 ] } },
{ "type": "Feature", "properties": { "Name": "Апартаменты Комфорт в центре", "address": "ул. Генерал-Лейтенанта Озерова, 16А, Калининград, Россия", "url": "-", "phone": "+7 (909) 787-10-91", "hours": "-", "longitude": 20.500929, "latitude": 54.725086 }, "geometry": { "type": "Point", "coordinates": [ 20.500929, 54.725086 ] } },
{ "type": "Feature", "properties": { "Name": "Апартаменты двухкомнатные у Северного вокзала", "address": "Нарвская ул., 8, Калининград, Россия", "url": "-", "phone": "+7 (906) 238-86-66", "hours": "-", "longitude": 20.495747, "latitude": 54.727932 }, "geometry": { "type": "Point", "coordinates": [ 20.495747, 54.727932 ] } },
{ "type": "Feature", "properties": { "Name": "Апартаменты с Релакс-Джакузи", "address": "Московский просп., 42, Калининград, Россия", "url": "-", "phone": "+7 (911) 472-75-24", "hours": "-", "longitude": 20.502321, "latitude": 54.708916 }, "geometry": { "type": "Point", "coordinates": [ 20.502321, 54.708916 ] } },
{ "type": "Feature", "properties": { "Name": "Апартаменты двухкомнатные в шаге от центра на Калужском", "address": "Калужский пер., 2, Калининград, Россия", "url": "-", "phone": "+7 (911) 473-92-13", "hours": "-", "longitude": 20.49774, "latitude": 54.728 }, "geometry": { "type": "Point", "coordinates": [ 20.49774, 54.728 ] } },
{ "type": "Feature", "properties": { "Name": "Апартаменты центр", "address": "Пролетарская ул., 83, Калининград, Россия", "url": "-", "phone": "+7 (900) 354-77-77", "hours": "-", "longitude": 20.513739, "latitude": 54.72017 }, "geometry": { "type": "Point", "coordinates": [ 20.513739, 54.72017 ] } },
{ "type": "Feature", "properties": { "Name": "Апартаменты у бассейна", "address": "Московский просп., 46, Калининград, Россия", "url": "-", "phone": "+7 (906) 213-42-18", "hours": "-", "longitude": 20.502125, "latitude": 54.708572 }, "geometry": { "type": "Point", "coordinates": [ 20.502125, 54.708572 ] } },
{ "type": "Feature", "properties": { "Name": "Апартаменты на острове Октябрьский", "address": "ул. Генерала Павлова, 8, Калининград, Россия", "url": "-", "phone": "+7 (906) 215-90-14", "hours": "-", "longitude": 20.522911, "latitude": 54.704746 }, "geometry": { "type": "Point", "coordinates": [ 20.522911, 54.704746 ] } },
{ "type": "Feature", "properties": { "Name": "Апартаменты Luxe c Джакузи", "address": "Ольштынская ул., 7, Калининград, Россия", "url": "-", "phone": "+7 (999) 255-93-74", "hours": "-", "longitude": 20.507092, "latitude": 54.696198 }, "geometry": { "type": "Point", "coordinates": [ 20.507092, 54.696198 ] } },
{ "type": "Feature", "properties": { "Name": "Апартаменты Калининград Как на Ладони", "address": "наб. Генерала Карбышева, 6, Калининград, Россия", "url": "-", "phone": "+7 (911) 856-01-03", "hours": "-", "longitude": 20.518744, "latitude": 54.705364 }, "geometry": { "type": "Point", "coordinates": [ 20.518744, 54.705364 ] } },
{ "type": "Feature", "properties": { "Name": "Апартаменты в центре Калининграда с видом на город", "address": "ул. Профессора Севастьянова, 29, Калининград, Россия", "url": "-", "phone": "+7 (913) 805-58-82", "hours": "-", "longitude": 20.50966, "latitude": 54.715305 }, "geometry": { "type": "Point", "coordinates": [ 20.50966, 54.715305 ] } },
{ "type": "Feature", "properties": { "Name": "Видовые апартаменты на Московском", "address": "Московский просп., 9, Калининград, Россия", "url": "-", "phone": "+7 (905) 941-45-56", "hours": "-", "longitude": 20.496502, "latitude": 54.711205 }, "geometry": { "type": "Point", "coordinates": [ 20.496502, 54.711205 ] } },
{ "type": "Feature", "properties": { "Name": "Аренда 39 на улице Серпуховская", "address": "Серпуховская ул., 30, Калининград, Россия", "url": "-", "phone": "+7 (909) 789-01-39", "hours": "-", "longitude": 20.501074, "latitude": 54.70063 }, "geometry": { "type": "Point", "coordinates": [ 20.501074, 54.70063 ] } },
{ "type": "Feature", "properties": { "Name": "Апартаменты в центре", "address": "ул. Багратиона, 89, Калининград, Россия", "url": "-", "phone": "+7 (963) 293-73-01", "hours": "-", "longitude": 20.50544, "latitude": 54.698967 }, "geometry": { "type": "Point", "coordinates": [ 20.50544, 54.698967 ] } },
{ "type": "Feature", "properties": { "Name": "Апартаменты на Гостиной", "address": "Гостиная ул., 22, Калининград, Россия", "url": "-", "phone": "+7 (962) 251-07-42", "hours": "-", "longitude": 20.48785, "latitude": 54.71683 }, "geometry": { "type": "Point", "coordinates": [ 20.48785, 54.71683 ] } },
{ "type": "Feature", "properties": { "Name": "Апартаменты Павлин в центре города", "address": "ул. Генерала Галицкого, 24, Калининград, Россия", "url": "-", "phone": "+7 (911) 495-43-21", "hours": "-", "longitude": 20.494165, "latitude": 54.71374 }, "geometry": { "type": "Point", "coordinates": [ 20.494165, 54.71374 ] } },
{ "type": "Feature", "properties": { "Name": "Апартаменты Зеленый центр города", "address": "ул. Космонавта Леонова, 11, Калининград, Россия", "url": "-", "phone": "+7 (906) 215-90-14", "hours": "-", "longitude": 20.481552, "latitude": 54.72366 }, "geometry": { "type": "Point", "coordinates": [ 20.481552, 54.72366 ] } },
{ "type": "Feature", "properties": { "Name": "Апартаменты Classic Red", "address": "Красная ул., 139А, Калининград, Россия", "url": "-", "phone": "-", "hours": "-", "longitude": 20.4713, "latitude": 54.7384 }, "geometry": { "type": "Point", "coordinates": [ 20.4713, 54.7384 ] } },
{ "type": "Feature", "properties": { "Name": "Апартаменты Друзья Рядом с Рыбной Деревней", "address": "Эльблонгская ул., 5, Калининград, Россия", "url": "-", "phone": "+7 (981) 467-53-37", "hours": "-", "longitude": 20.499447, "latitude": 54.69985 }, "geometry": { "type": "Point", "coordinates": [ 20.499447, 54.69985 ] } },
{ "type": "Feature", "properties": { "Name": "Апартаменты в Самом центре Калининграда в современном доме", "address": "ул. Профессора Севастьянова, 22А, Калининград, Россия", "url": "-", "phone": "+7 (909) 779-08-90", "hours": "-", "longitude": 20.511852, "latitude": 54.71488 }, "geometry": { "type": "Point", "coordinates": [ 20.511852, 54.71488 ] } },
{ "type": "Feature", "properties": { "Name": "Апартаменты Комсомольская", "address": "Комсомольская ул., 53А, Калининград, Россия", "url": "-", "phone": "+7 (911) 473-45-55", "hours": "-", "longitude": 20.478237, "latitude": 54.729027 }, "geometry": { "type": "Point", "coordinates": [ 20.478237, 54.729027 ] } },
{ "type": "Feature", "properties": { "Name": "Апартаменты в центре Калининграда", "address": "Краснооктябрьская ул., 5, Калининград, Россия", "url": "-", "phone": "+7 (909) 776-34-83", "hours": "-", "longitude": 20.506283, "latitude": 54.702465 }, "geometry": { "type": "Point", "coordinates": [ 20.506283, 54.702465 ] } },
{ "type": "Feature", "properties": { "Name": "Апартаменты Уютная квартира возле Кёнигсбергского Зоопарка", "address": "Гостиная ул., 14, Калининград, Россия", "url": "-", "phone": "+7 (911) 491-12-57", "hours": "-", "longitude": 20.487814, "latitude": 54.717697 }, "geometry": { "type": "Point", "coordinates": [ 20.487814, 54.717697 ] } },
{ "type": "Feature", "properties": { "Name": "Апартаменты Площадь Калинина", "address": "площадь Калинина, 11, Калининград, Россия", "url": "-", "phone": "+7 (902) 282-60-25", "hours": "-", "longitude": 20.499132, "latitude": 54.696365 }, "geometry": { "type": "Point", "coordinates": [ 20.499132, 54.696365 ] } },
{ "type": "Feature", "properties": { "Name": "Апартаменты 2х комнатные в центре на Ленинском проспекте 71 Kenig Holidays", "address": "Ленинский просп., 71, Калининград, Россия", "url": "-", "phone": "+7 (931) 601-17-50", "hours": "-", "longitude": 20.508537, "latitude": 54.71256 }, "geometry": { "type": "Point", "coordinates": [ 20.508537, 54.71256 ] } },
{ "type": "Feature", "properties": { "Name": "Апартаменты Самый центр города", "address": "ул. Профессора Севастьянова, 8, Калининград, Россия", "url": "-", "phone": "+7 (911) 856-23-35", "hours": "-", "longitude": 20.509256, "latitude": 54.71486 }, "geometry": { "type": "Point", "coordinates": [ 20.509256, 54.71486 ] } },
{ "type": "Feature", "properties": { "Name": "Апартаменты на Звёздной", "address": "Звёздная ул., 13, Калининград, Россия", "url": "-", "phone": "+7 (981) 453-99-99", "hours": "-", "longitude": 20.500633, "latitude": 54.715824 }, "geometry": { "type": "Point", "coordinates": [ 20.500633, 54.715824 ] } },
{ "type": "Feature", "properties": { "Name": "Апартаменты в центре города", "address": "ул. Репина, 39, Калининград, Россия", "url": "-", "phone": "+7 (981) 462-51-82", "hours": "-", "longitude": 20.4859, "latitude": 54.728195 }, "geometry": { "type": "Point", "coordinates": [ 20.4859, 54.728195 ] } },
{ "type": "Feature", "properties": { "Name": "Апартаменты на Больничной", "address": "Больничная ул., 6, Калининград, Россия", "url": "-", "phone": "+7 (911) 857-47-07", "hours": "-", "longitude": 20.503508, "latitude": 54.713676 }, "geometry": { "type": "Point", "coordinates": [ 20.503508, 54.713676 ] } },
{ "type": "Feature", "properties": { "Name": "Апартаменты Stella на Мариупольской", "address": "Мариупольская ул., 8, Калининград, Россия", "url": "-", "phone": "+7 (912) 061-34-32", "hours": "-", "longitude": 20.498253, "latitude": 54.709274 }, "geometry": { "type": "Point", "coordinates": [ 20.498253, 54.709274 ] } },
{ "type": "Feature", "properties": { "Name": "Апартаменты у Европы", "address": "Больничная ул., 21, Калининград, Россия", "url": "-", "phone": "+7 (905) 248-60-97", "hours": "-", "longitude": 20.503876, "latitude": 54.711937 }, "geometry": { "type": "Point", "coordinates": [ 20.503876, 54.711937 ] } },
{ "type": "Feature", "properties": { "Name": "Апартаменты в Калининграде Konigsberg", "address": "Балашовская ул., 4, Калининград, Россия", "url": "-", "phone": "+7 (929) 167-33-23", "hours": "-", "longitude": 20.568213, "latitude": 54.705288 }, "geometry": { "type": "Point", "coordinates": [ 20.568213, 54.705288 ] } },
{ "type": "Feature", "properties": { "Name": "Апартаменты Grand Lux", "address": "Октябрьская ул., 57, Калининград, Россия", "url": "-", "phone": "+7 (923) 506-33-33", "hours": "-", "longitude": 20.518349, "latitude": 54.70044 }, "geometry": { "type": "Point", "coordinates": [ 20.518349, 54.70044 ] } },
{ "type": "Feature", "properties": { "Name": "Апартаменты в центре Города", "address": "ул. Сергеева, 53, Калининград, Россия", "url": "-", "phone": "+7 (911) 466-25-50", "hours": "-", "longitude": 20.517647, "latitude": 54.719673 }, "geometry": { "type": "Point", "coordinates": [ 20.517647, 54.719673 ] } },
{ "type": "Feature", "properties": { "Name": "Апартаменты на 9 апреля 34", "address": "ул. 9 Апреля, 34, Калининград, Россия", "url": "-", "phone": "+7 (912) 061-34-32", "hours": "-", "longitude": 20.52363, "latitude": 54.713654 }, "geometry": { "type": "Point", "coordinates": [ 20.52363, 54.713654 ] } },
{ "type": "Feature", "properties": { "Name": "Апартаменты центр Калининграда", "address": "ул. Куйбышева, 27Б, Калининград, Россия", "url": "-", "phone": "+7 (911) 468-66-33", "hours": "-", "longitude": 20.53406, "latitude": 54.7279 }, "geometry": { "type": "Point", "coordinates": [ 20.53406, 54.7279 ] } },
{ "type": "Feature", "properties": { "Name": "Апартаменты Central", "address": "Ленинский просп., 8, Калининград, Россия", "url": "-", "phone": "+7 (906) 238-58-82", "hours": "-", "longitude": 20.50322, "latitude": 54.71555 }, "geometry": { "type": "Point", "coordinates": [ 20.50322, 54.71555 ] } },
{ "type": "Feature", "properties": { "Name": "Апартаменты Дух Кёнигсберга", "address": "ул. Степана Разина, 25, Калининград, Россия", "url": "-", "phone": "+7 (900) 351-54-14", "hours": "-", "longitude": 20.47408, "latitude": 54.723293 }, "geometry": { "type": "Point", "coordinates": [ 20.47408, 54.723293 ] } },
{ "type": "Feature", "properties": { "Name": "Апартаменты Янтарные Выходные", "address": "ул. Рокоссовского, 22, Калининград, Россия", "url": "-", "phone": "+7 (911) 454-45-52", "hours": "-", "longitude": 20.508951, "latitude": 54.719337 }, "geometry": { "type": "Point", "coordinates": [ 20.508951, 54.719337 ] } },
{ "type": "Feature", "properties": { "Name": "Апартаменты Исторический Квартал", "address": "Вагоностроительная ул., 3А, Калининград, Россия", "url": "-", "phone": "+7 (911) 484-49-47", "hours": "-", "longitude": 20.459867, "latitude": 54.713432 }, "geometry": { "type": "Point", "coordinates": [ 20.459867, 54.713432 ] } },
{ "type": "Feature", "properties": { "Name": "Апартаменты Рыбная деревня", "address": "Московский просп., 74, Калининград, Россия", "url": "-", "phone": "+7 (900) 351-54-14", "hours": "-", "longitude": 20.521412, "latitude": 54.708157 }, "geometry": { "type": "Point", "coordinates": [ 20.521412, 54.708157 ] } },
{ "type": "Feature", "properties": { "Name": "Апартаменты Комсомольская", "address": "Комсомольская ул., 96, Калининград, Россия", "url": "-", "phone": "+7 (911) 475-37-21", "hours": "-", "longitude": 20.478542, "latitude": 54.734306 }, "geometry": { "type": "Point", "coordinates": [ 20.478542, 54.734306 ] } },
{ "type": "Feature", "properties": { "Name": "Апартаменты King в центре Города", "address": "Ленинский просп., 25, Калининград, Россия", "url": "-", "phone": "+7 (911) 455-60-70", "hours": "-", "longitude": 20.503498, "latitude": 54.716244 }, "geometry": { "type": "Point", "coordinates": [ 20.503498, 54.716244 ] } },
{ "type": "Feature", "properties": { "Name": "Апартаменты Маяк", "address": "Мариупольская ул., 7, Калининград, Россия", "url": "-", "phone": "+7 (952) 790-54-66", "hours": "-", "longitude": 20.501064, "latitude": 54.708775 }, "geometry": { "type": "Point", "coordinates": [ 20.501064, 54.708775 ] } },
{ "type": "Feature", "properties": { "Name": "Апартаменты Central", "address": "Зарайская ул., 11, Калининград, Россия", "url": "-", "phone": "+7 (962) 267-54-68", "hours": "-", "longitude": 20.517504, "latitude": 54.710846 }, "geometry": { "type": "Point", "coordinates": [ 20.517504, 54.710846 ] } },
{ "type": "Feature", "properties": { "Name": "Апартаменты Двухкомнатные на Ростовской", "address": "Ростовская ул., 26, Калининград, Россия", "url": "-", "phone": "+7 (906) 213-14-15", "hours": "-", "longitude": 20.462437, "latitude": 54.727665 }, "geometry": { "type": "Point", "coordinates": [ 20.462437, 54.727665 ] } },
{ "type": "Feature", "properties": { "Name": "Апартаменты Гостиная 28", "address": "Гостиная ул., 28, Калининград, Россия", "url": "-", "phone": "+7 (921) 008-76-37", "hours": "-", "longitude": 20.487877, "latitude": 54.71618 }, "geometry": { "type": "Point", "coordinates": [ 20.487877, 54.71618 ] } },
{ "type": "Feature", "properties": { "Name": "Апартаменты в центре Калининграда", "address": "ул. Брамса, 37, Калининград, Россия", "url": "-", "phone": "+7 (906) 212-26-81", "hours": "-", "longitude": 20.493671, "latitude": 54.72634 }, "geometry": { "type": "Point", "coordinates": [ 20.493671, 54.72634 ] } },
{ "type": "Feature", "properties": { "Name": "Апартаменты Baltic MonApart", "address": "Ленинский просп., 17, Калининград, Россия", "url": "-", "phone": "+7 (952) 795-85-70", "hours": "-", "longitude": 20.503067, "latitude": 54.71692 }, "geometry": { "type": "Point", "coordinates": [ 20.503067, 54.71692 ] } },
{ "type": "Feature", "properties": { "Name": "Апартаменты Багратиона 79", "address": "ул. Багратиона, 79, Калининград, Россия", "url": "-", "phone": "+7 (952) 110-90-37", "hours": "-", "longitude": 20.507101, "latitude": 54.699043 }, "geometry": { "type": "Point", "coordinates": [ 20.507101, 54.699043 ] } },
{ "type": "Feature", "properties": { "Name": "Апартаменты Pavlin De Luxe", "address": "Белгородская ул., 5, корп. 1, Калининград, Россия", "url": "-", "phone": "+7 (900) 566-54-76", "hours": "-", "longitude": 20.520819, "latitude": 54.68652 }, "geometry": { "type": "Point", "coordinates": [ 20.520819, 54.68652 ] } },
{ "type": "Feature", "properties": { "Name": "Апартаменты центр", "address": "ул. Дмитрия Донского, 15, Калининград, Россия", "url": "-", "phone": "+7 (911) 456-29-25", "hours": "-", "longitude": 20.488388, "latitude": 54.715645 }, "geometry": { "type": "Point", "coordinates": [ 20.488388, 54.715645 ] } },
{ "type": "Feature", "properties": { "Name": "Апартаменты Театр-Отель", "address": "Театральная ул., 42, Калининград, Россия", "url": "-", "phone": "+7 (900) 351-54-14", "hours": "-", "longitude": 20.49508, "latitude": 54.718884 }, "geometry": { "type": "Point", "coordinates": [ 20.49508, 54.718884 ] } },
{ "type": "Feature", "properties": { "Name": "Апартаменты на Осенней", "address": "Осенняя ул., 6Б, Калининград, Россия", "url": "-", "phone": "+7 (950) 677-70-94", "hours": "-", "longitude": 20.468616, "latitude": 54.739143 }, "geometry": { "type": "Point", "coordinates": [ 20.468616, 54.739143 ] } },
{ "type": "Feature", "properties": { "Name": "Апартаменты двухкомнатные в центре", "address": "ул. Рокоссовского, 26, Калининград, Россия", "url": "-", "phone": "+7 (912) 061-34-32", "hours": "-", "longitude": 20.508825, "latitude": 54.719643 }, "geometry": { "type": "Point", "coordinates": [ 20.508825, 54.719643 ] } },
{ "type": "Feature", "properties": { "Name": "Апартаменты Cosmo", "address": "ул. Космонавта Леонова, 61, Калининград, Россия", "url": "-", "phone": "+7 (911) 234-06-03", "hours": "-", "longitude": 20.480644, "latitude": 54.732708 }, "geometry": { "type": "Point", "coordinates": [ 20.480644, 54.732708 ] } },
{ "type": "Feature", "properties": { "Name": "Апартаменты в центре на университетской", "address": "Университетская ул., 7, Калининград, Россия", "url": "-", "phone": "+7 (921) 261-75-68", "hours": "-", "longitude": 20.508116, "latitude": 54.71386 }, "geometry": { "type": "Point", "coordinates": [ 20.508116, 54.71386 ] } },
{ "type": "Feature", "properties": { "Name": "Апартаменты Kenigdeluxe в центре на Нарвской", "address": "Нарвская ул., 101, Калининград, Россия", "url": "-", "phone": "+7 (906) 238-78-87", "hours": "-", "longitude": 20.497444, "latitude": 54.739586 }, "geometry": { "type": "Point", "coordinates": [ 20.497444, 54.739586 ] } },
{ "type": "Feature", "properties": { "Name": "Апартаменты на Пролетарской у озера", "address": "Пролетарская ул., 19, Калининград, Россия", "url": "-", "phone": "+7 (906) 215-90-14", "hours": "-", "longitude": 20.513075, "latitude": 54.7134 }, "geometry": { "type": "Point", "coordinates": [ 20.513075, 54.7134 ] } },
{ "type": "Feature", "properties": { "Name": "Апартаменты Мечты на острове", "address": "наб. Генерала Карбышева, 12, Калининград, Россия", "url": "-", "phone": "+7 (911) 484-80-63", "hours": "-", "longitude": 20.520018, "latitude": 54.705048 }, "geometry": { "type": "Point", "coordinates": [ 20.520018, 54.705048 ] } },
{ "type": "Feature", "properties": { "Name": "Апартаменты Amber Travel", "address": "ул. Космонавта Леонова, 47, Калининград, Россия", "url": "-", "phone": "+7 (911) 452-40-96", "hours": "-", "longitude": 20.480186, "latitude": 54.729797 }, "geometry": { "type": "Point", "coordinates": [ 20.480186, 54.729797 ] } },
{ "type": "Feature", "properties": { "Name": "Апартаменты 2-к в центре у Озера", "address": "Пролетарская ул., 25, Калининград, Россия", "url": "-", "phone": "+7 (911) 474-61-73", "hours": "-", "longitude": 20.51205, "latitude": 54.713356 }, "geometry": { "type": "Point", "coordinates": [ 20.51205, 54.713356 ] } },
{ "type": "Feature", "properties": { "Name": "Апартаменты Комфортные в историческом центре", "address": "Красная ул., 60, Калининград, Россия", "url": "-", "phone": "+7 (911) 456-95-26", "hours": "-", "longitude": 20.474684, "latitude": 54.728893 }, "geometry": { "type": "Point", "coordinates": [ 20.474684, 54.728893 ] } },
{ "type": "Feature", "properties": { "Name": "Апартаменты Три изолированные комнаты, центр, Звёздная, Колибри 27", "address": "Звёздная ул., 27, Калининград, Россия", "url": "-", "phone": "+7 (911) 480-35-08", "hours": "-", "longitude": 20.499258, "latitude": 54.714268 }, "geometry": { "type": "Point", "coordinates": [ 20.499258, 54.714268 ] } },
{ "type": "Feature", "properties": { "Name": "Апартаменты на Советском проспекте 22", "address": "Советский просп., 22, Калининград, Россия", "url": "-", "phone": "+7 (911) 491-12-57", "hours": "-", "longitude": 20.498323, "latitude": 54.724464 }, "geometry": { "type": "Point", "coordinates": [ 20.498323, 54.724464 ] } },
{ "type": "Feature", "properties": { "Name": "Апартаменты Astro", "address": "ул. Генерала Галицкого, 24, Калининград, Россия", "url": "https://aparts-kgd.ru/", "phone": "+7 (906) 211-00-31", "hours": "ежедневно, 08:00–22:00", "longitude": 20.493213, "latitude": 54.713727 }, "geometry": { "type": "Point", "coordinates": [ 20.493213, 54.713727 ] } },
{ "type": "Feature", "properties": { "Name": "Апартаменты Романтичная Квартира", "address": "Красносельская ул., 83Б, Калининград, Россия", "url": "-", "phone": "+7 (906) 234-20-29", "hours": "-", "longitude": 20.44288, "latitude": 54.719612 }, "geometry": { "type": "Point", "coordinates": [ 20.44288, 54.719612 ] } },
{ "type": "Feature", "properties": { "Name": "Апартаменты в центре", "address": "Калужский пер., 8, Калининград, Россия", "url": "-", "phone": "-", "hours": "-", "longitude": 20.498032, "latitude": 54.728397 }, "geometry": { "type": "Point", "coordinates": [ 20.498032, 54.728397 ] } },
{ "type": "Feature", "properties": { "Name": "Апартаменты на Барнаульской 8", "address": "Барнаульская ул., 8, Калининград, Россия", "url": "-", "phone": "+7 (952) 110-90-37", "hours": "-", "longitude": 20.500786, "latitude": 54.712643 }, "geometry": { "type": "Point", "coordinates": [ 20.500786, 54.712643 ] } },
{ "type": "Feature", "properties": { "Name": "Апартаменты с фамильной антикварной мебелью в немецком доме", "address": "Комсомольская ул., 42, Калининград, Россия", "url": "-", "phone": "+7 (911) 856-01-03", "hours": "-", "longitude": 20.479092, "latitude": 54.72674 }, "geometry": { "type": "Point", "coordinates": [ 20.479092, 54.72674 ] } },
{ "type": "Feature", "properties": { "Name": "Апартаменты Плаза - центр Калининграда", "address": "ул. Вагнера, 5, Калининград, Россия", "url": "-", "phone": "+7 (911) 470-75-44", "hours": "-", "longitude": 20.504496, "latitude": 54.711864 }, "geometry": { "type": "Point", "coordinates": [ 20.504496, 54.711864 ] } },
{ "type": "Feature", "properties": { "Name": "Апартаменты на Толстикова", "address": "ул. Генерала Толстикова, 2А, Калининград, Россия", "url": "-", "phone": "+7 (911) 856-35-43", "hours": "-", "longitude": 20.49165, "latitude": 54.678864 }, "geometry": { "type": "Point", "coordinates": [ 20.49165, 54.678864 ] } },
{ "type": "Feature", "properties": { "Name": "Апартаменты Комильфо", "address": "ул. Чайковского, 30, Калининград, Россия", "url": "-", "phone": "+7 (911) 454-26-13", "hours": "-", "longitude": 20.490643, "latitude": 54.724625 }, "geometry": { "type": "Point", "coordinates": [ 20.490643, 54.724625 ] } },
{ "type": "Feature", "properties": { "Name": "Апартаменты Чемодан", "address": "ул. Огарёва, 15, Калининград, Россия", "url": "-", "phone": "+7 (952) 111-99-55", "hours": "-", "longitude": 20.470379, "latitude": 54.716774 }, "geometry": { "type": "Point", "coordinates": [ 20.470379, 54.716774 ] } },
{ "type": "Feature", "properties": { "Name": "Апартаменты у Площади Победы", "address": "ул. Подполковника Иванникова, 12, Калининград, Россия", "url": "-", "phone": "+7 (905) 242-72-80", "hours": "-", "longitude": 20.50578, "latitude": 54.718784 }, "geometry": { "type": "Point", "coordinates": [ 20.50578, 54.718784 ] } },
{ "type": "Feature", "properties": { "Name": "Апартаменты Музей старого Кёнигсберга", "address": "Сибирская ул., 32, Калининград, Россия", "url": "-", "phone": "+7 (921) 853-92-70", "hours": "-", "longitude": 20.502922, "latitude": 54.713425 }, "geometry": { "type": "Point", "coordinates": [ 20.502922, 54.713425 ] } },
{ "type": "Feature", "properties": { "Name": "Апартаменты в центре с видом на Кафедральный собор", "address": "Зарайская ул., 19, Калининград, Россия", "url": "-", "phone": "+7 (906) 219-95-37", "hours": "-", "longitude": 20.517063, "latitude": 54.70982 }, "geometry": { "type": "Point", "coordinates": [ 20.517063, 54.70982 ] } },
{ "type": "Feature", "properties": { "Name": "Apart39 Апартаменты в Самом Сердце Калининграда", "address": "Клиническая ул., 19, Калининград, Россия", "url": "-", "phone": "+7 (921) 100-72-02", "hours": "-", "longitude": 20.516884, "latitude": 54.712776 }, "geometry": { "type": "Point", "coordinates": [ 20.516884, 54.712776 ] } },
{ "type": "Feature", "properties": { "Name": "ApartMari", "address": "ул. Генерала Соммера, 68, Калининград, Россия", "url": "https://apartmari.ru/", "phone": "+7 (911) 861-55-20", "hours": "ежедневно, 08:00–22:00", "longitude": 20.512392, "latitude": 54.71576 }, "geometry": { "type": "Point", "coordinates": [ 20.512392, 54.71576 ] } },
{ "type": "Feature", "properties": { "Name": "Апартаменты Комсомольская 79", "address": "Комсомольская ул., 79, Калининград, Россия", "url": "-", "phone": "+7 (911) 486-88-94", "hours": "-", "longitude": 20.478004, "latitude": 54.732574 }, "geometry": { "type": "Point", "coordinates": [ 20.478004, 54.732574 ] } },
{ "type": "Feature", "properties": { "Name": "Апартаменты на Пугачева", "address": "ул. Пугачёва, 37, Калининград, Россия", "url": "-", "phone": "+7 (905) 242-78-30", "hours": "-", "longitude": 20.472435, "latitude": 54.725468 }, "geometry": { "type": "Point", "coordinates": [ 20.472435, 54.725468 ] } },
{ "type": "Feature", "properties": { "Name": "Апартаменты Квартира Captain's Cabin", "address": "Ленинский просп., 39А, Калининград, Россия", "url": "-", "phone": "+7 (906) 232-20-48", "hours": "-", "longitude": 20.505825, "latitude": 54.715202 }, "geometry": { "type": "Point", "coordinates": [ 20.505825, 54.715202 ] } },
{ "type": "Feature", "properties": { "Name": "Апартаменты на Каштановой Аллее", "address": "ул. Каштановая Аллея, 97, Калининград, Россия", "url": "-", "phone": "+7 (911) 856-01-03", "hours": "-", "longitude": 20.463676, "latitude": 54.72659 }, "geometry": { "type": "Point", "coordinates": [ 20.463676, 54.72659 ] } },
{ "type": "Feature", "properties": { "Name": "Апартаменты Luisenwahl Apartments", "address": "ул. Дмитрия Донского, 20, Калининград, Россия", "url": "-", "phone": "+7 (911) 484-75-47", "hours": "-", "longitude": 20.4813, "latitude": 54.715874 }, "geometry": { "type": "Point", "coordinates": [ 20.4813, 54.715874 ] } },
{ "type": "Feature", "properties": { "Name": "Апартаменты 77", "address": "Большая Песочная ул., 7, Калининград, Россия", "url": "-", "phone": "+7 (911) 450-79-30", "hours": "-", "longitude": 20.514862, "latitude": 54.698467 }, "geometry": { "type": "Point", "coordinates": [ 20.514862, 54.698467 ] } },
{ "type": "Feature", "properties": { "Name": "АпартКант", "address": "Серпуховская ул., 11, Калининград, Россия", "url": "-", "phone": "+7 (906) 211-54-16", "hours": "-", "longitude": 20.502762, "latitude": 54.702454 }, "geometry": { "type": "Point", "coordinates": [ 20.502762, 54.702454 ] } },
{ "type": "Feature", "properties": { "Name": "Апартаменты Уютная современная квартира в историческом центре города", "address": "площадь Калинина, 25, Калининград, Россия", "url": "-", "phone": "+7 (962) 258-34-00", "hours": "-", "longitude": 20.501575, "latitude": 54.695625 }, "geometry": { "type": "Point", "coordinates": [ 20.501575, 54.695625 ] } },
{ "type": "Feature", "properties": { "Name": "Апартаменты Мансарда в Калининграде", "address": "Нарвский пер., 2, Калининград, Россия", "url": "-", "phone": "+7 (911) 855-80-67", "hours": "-", "longitude": 20.497362, "latitude": 54.72892 }, "geometry": { "type": "Point", "coordinates": [ 20.497362, 54.72892 ] } },
{ "type": "Feature", "properties": { "Name": "Апартаменты на Сибирской", "address": "Сибирская ул., 27, Калининград, Россия", "url": "-", "phone": "+7 (903) 690-11-31", "hours": "-", "longitude": 20.502941, "latitude": 54.712986 }, "geometry": { "type": "Point", "coordinates": [ 20.502941, 54.712986 ] } },
{ "type": "Feature", "properties": { "Name": "Апартаменты центр города Космическая", "address": "Космическая ул., 30, Калининград, Россия", "url": "-", "phone": "+7 (911) 469-36-06", "hours": "-", "longitude": 20.499537, "latitude": 54.71367 }, "geometry": { "type": "Point", "coordinates": [ 20.499537, 54.71367 ] } },
{ "type": "Feature", "properties": { "Name": "Апартаменты Plaza в центре города", "address": "ул. Салтыкова-Щедрина, 5, Калининград, Россия", "url": "-", "phone": "+7 (906) 238-55-43", "hours": "-", "longitude": 20.505816, "latitude": 54.71114 }, "geometry": { "type": "Point", "coordinates": [ 20.505816, 54.71114 ] } },
{ "type": "Feature", "properties": { "Name": "Апартаменты Уютные в центре", "address": "Северный пер., 6, Калининград, Россия", "url": "-", "phone": "+7 (929) 160-82-62", "hours": "-", "longitude": 20.512833, "latitude": 54.72431 }, "geometry": { "type": "Point", "coordinates": [ 20.512833, 54.72431 ] } },
{ "type": "Feature", "properties": { "Name": "Апартаменты Hoffmann Рядом с Рыбной Деревней", "address": "Краснооктябрьская ул., 6, Калининград, Россия", "url": "-", "phone": "+7 (963) 351-40-00", "hours": "-", "longitude": 20.511944, "latitude": 54.700916 }, "geometry": { "type": "Point", "coordinates": [ 20.511944, 54.700916 ] } },
{ "type": "Feature", "properties": { "Name": "Апартаменты у площади Победы", "address": "Уральская ул., 10, Калининград, Россия", "url": "-", "phone": "+7 (911) 456-29-14", "hours": "-", "longitude": 20.500525, "latitude": 54.72421 }, "geometry": { "type": "Point", "coordinates": [ 20.500525, 54.72421 ] } },
{ "type": "Feature", "properties": { "Name": "Апартаменты Koenig Style 7", "address": "ул. Молочинского, 4, Калининград, Россия", "url": "-", "phone": "+7 (952) 051-72-91", "hours": "-", "longitude": 20.479523, "latitude": 54.73454 }, "geometry": { "type": "Point", "coordinates": [ 20.479523, 54.73454 ] } },
{ "type": "Feature", "properties": { "Name": "Апартаменты на Черняховского 74б", "address": "ул. Черняховского, 74Б, Калининград, Россия", "url": "-", "phone": "+7 (911) 456-95-26", "hours": "-", "longitude": 20.516085, "latitude": 54.72041 }, "geometry": { "type": "Point", "coordinates": [ 20.516085, 54.72041 ] } },
{ "type": "Feature", "properties": { "Name": "Апартаменты в историческом центре на улице Красная", "address": "Красная ул., 31, Калининград, Россия", "url": "-", "phone": "+7 (999) 460-41-47", "hours": "-", "longitude": 20.474258, "latitude": 54.72477 }, "geometry": { "type": "Point", "coordinates": [ 20.474258, 54.72477 ] } },
{ "type": "Feature", "properties": { "Name": "Апартаменты Двухкомнатные в центре города", "address": "ул. Генерала Соммера, 34, Калининград, Россия", "url": "-", "phone": "+7 (906) 232-20-48", "hours": "-", "longitude": 20.510864, "latitude": 54.716152 }, "geometry": { "type": "Point", "coordinates": [ 20.510864, 54.716152 ] } },
{ "type": "Feature", "properties": { "Name": "Апартаменты Самый центр", "address": "ул. Генерала Соммера, 28, Калининград, Россия", "url": "-", "phone": "+7 (921) 005-05-98", "hours": "-", "longitude": 20.509644, "latitude": 54.71609 }, "geometry": { "type": "Point", "coordinates": [ 20.509644, 54.71609 ] } },
{ "type": "Feature", "properties": { "Name": "Просторные апартаменты на Советском проспекте", "address": "Советский просп., 105, Калининград, Россия", "url": "-", "phone": "+7 (905) 941-45-56", "hours": "-", "longitude": 20.480242, "latitude": 54.73678 }, "geometry": { "type": "Point", "coordinates": [ 20.480242, 54.73678 ] } },
{ "type": "Feature", "properties": { "Name": "Апартаменты с Шикарным Видом на Калининградскую Филармонию", "address": "Красноармейская ул., 13, Калининград, Россия", "url": "-", "phone": "+7 (911) 491-12-57", "hours": "-", "longitude": 20.510632, "latitude": 54.69785 }, "geometry": { "type": "Point", "coordinates": [ 20.510632, 54.69785 ] } },
{ "type": "Feature", "properties": { "Name": "Апартаменты на Острове", "address": "ул. Генерала Павлова, 16, Калининград, Россия", "url": "-", "phone": "+7 (921) 711-00-17", "hours": "-", "longitude": 20.522022, "latitude": 54.703205 }, "geometry": { "type": "Point", "coordinates": [ 20.522022, 54.703205 ] } },
{ "type": "Feature", "properties": { "Name": "Апартаменты Центрально-Театральная квартира", "address": "Театральная ул., 36, Калининград, Россия", "url": "-", "phone": "+7 (909) 799-07-55", "hours": "-", "longitude": 20.495935, "latitude": 54.718685 }, "geometry": { "type": "Point", "coordinates": [ 20.495935, 54.718685 ] } },
{ "type": "Feature", "properties": { "Name": "Апартаменты на Серпуховской", "address": "Серпуховская ул., 24, Калининград, Россия", "url": "-", "phone": "+7 (911) 454-11-19", "hours": "-", "longitude": 20.502182, "latitude": 54.703175 }, "geometry": { "type": "Point", "coordinates": [ 20.502182, 54.703175 ] } },
{ "type": "Feature", "properties": { "Name": "Апартаменты на Верхнем озере", "address": "Северный пер., 5, Калининград, Россия", "url": "-", "phone": "+7 (911) 856-22-88", "hours": "-", "longitude": 20.511955, "latitude": 54.72447 }, "geometry": { "type": "Point", "coordinates": [ 20.511955, 54.72447 ] } },
{ "type": "Feature", "properties": { "Name": "Апартаменты на Нарвской", "address": "Нарвская ул., 83, Калининград, Россия", "url": "-", "phone": "+7 (962) 267-61-12", "hours": "-", "longitude": 20.495972, "latitude": 54.73805 }, "geometry": { "type": "Point", "coordinates": [ 20.495972, 54.73805 ] } },
{ "type": "Feature", "properties": { "Name": "Апартаменты Юность", "address": "Правая наб., 10, Калининград, Россия", "url": "-", "phone": "+7 (911) 452-51-51", "hours": "-", "longitude": 20.502401, "latitude": 54.70764 }, "geometry": { "type": "Point", "coordinates": [ 20.502401, 54.70764 ] } },
{ "type": "Feature", "properties": { "Name": "Апартаменты Двухкомнатные с Видом на Музей Янтаря", "address": "ул. Сергеева, 61, Калининград, Россия", "url": "-", "phone": "+7 (906) 216-67-64", "hours": "-", "longitude": 20.517962, "latitude": 54.72016 }, "geometry": { "type": "Point", "coordinates": [ 20.517962, 54.72016 ] } },
{ "type": "Feature", "properties": { "Name": "Апартаменты Солнечные в центре", "address": "ул. Генерала Соммера, 44, Калининград, Россия", "url": "-", "phone": "+7 (906) 230-00-11", "hours": "-", "longitude": 20.511053, "latitude": 54.715508 }, "geometry": { "type": "Point", "coordinates": [ 20.511053, 54.715508 ] } },
{ "type": "Feature", "properties": { "Name": "Апартаменты Просторные в центре Калининграда", "address": "ул. Генерал-Лейтенанта Озерова, 16А, Калининград, Россия", "url": "-", "phone": "+7 (906) 212-26-81", "hours": "-", "longitude": 20.500797, "latitude": 54.72501 }, "geometry": { "type": "Point", "coordinates": [ 20.500797, 54.72501 ] } },
{ "type": "Feature", "properties": { "Name": "Апартаменты на проспекте Мира", "address": "просп. Мира, 14, Калининград, Россия", "url": "-", "phone": "+7 (906) 211-30-21", "hours": "-", "longitude": 20.49041, "latitude": 54.71982 }, "geometry": { "type": "Point", "coordinates": [ 20.49041, 54.71982 ] } },
{ "type": "Feature", "properties": { "Name": "Апартаменты в самом центре возле площади", "address": "ул. Черняховского, 20, Калининград, Россия", "url": "-", "phone": "+7 (911) 456-95-26", "hours": "-", "longitude": 20.506786, "latitude": 54.71934 }, "geometry": { "type": "Point", "coordinates": [ 20.506786, 54.71934 ] } },
{ "type": "Feature", "properties": { "Name": "Апартаменты в центре города", "address": "ул. Горького, 5, Калининград, Россия", "url": "-", "phone": "+7 (911) 475-35-95", "hours": "-", "longitude": 20.508398, "latitude": 54.72354 }, "geometry": { "type": "Point", "coordinates": [ 20.508398, 54.72354 ] } },
{ "type": "Feature", "properties": { "Name": "Апартаменты на Пролетарской", "address": "Пролетарская ул., 49, Калининград, Россия", "url": "-", "phone": "+7 (906) 237-12-25", "hours": "-", "longitude": 20.512985, "latitude": 54.71625 }, "geometry": { "type": "Point", "coordinates": [ 20.512985, 54.71625 ] } },
{ "type": "Feature", "properties": { "Name": "Апартаменты Морские", "address": "ул. Богдана Хмельницкого, 18, Калининград, Россия", "url": "-", "phone": "+7 (911) 468-40-66", "hours": "-", "longitude": 20.508043, "latitude": 54.696705 }, "geometry": { "type": "Point", "coordinates": [ 20.508043, 54.696705 ] } },
{ "type": "Feature", "properties": { "Name": "Апартаменты у Европы", "address": "Космическая ул., 20, Калининград, Россия", "url": "-", "phone": "+7 (911) 456-29-14", "hours": "-", "longitude": 20.500246, "latitude": 54.71443 }, "geometry": { "type": "Point", "coordinates": [ 20.500246, 54.71443 ] } },
{ "type": "Feature", "properties": { "Name": "Апартаменты Уютный объект в центре города", "address": "ул. Багратиона, 100, Калининград, Россия", "url": "-", "phone": "+7 (911) 478-08-97", "hours": "-", "longitude": 20.505474, "latitude": 54.69938 }, "geometry": { "type": "Point", "coordinates": [ 20.505474, 54.69938 ] } },
{ "type": "Feature", "properties": { "Name": "Апартаменты Рыбная Деревня на улице Октябрьская 45", "address": "Октябрьская ул., 45, Калининград, Россия", "url": "-", "phone": "+7 (996) 543-11-72", "hours": "-", "longitude": 20.518463, "latitude": 54.70194 }, "geometry": { "type": "Point", "coordinates": [ 20.518463, 54.70194 ] } },
{ "type": "Feature", "properties": { "Name": "Апартаменты Gala", "address": "Красносельская ул., 71А, Калининград, Россия", "url": "-", "phone": "+7 (905) 249-39-19", "hours": "-", "longitude": 20.440014, "latitude": 54.717136 }, "geometry": { "type": "Point", "coordinates": [ 20.440014, 54.717136 ] } },
{ "type": "Feature", "properties": { "Name": "Апартаменты на улица Генерала Павлова 22", "address": "ул. Генерала Павлова, 22, Калининград, Россия", "url": "-", "phone": "+7 (996) 521-50-60", "hours": "-", "longitude": 20.521095, "latitude": 54.70271 }, "geometry": { "type": "Point", "coordinates": [ 20.521095, 54.70271 ] } },
{ "type": "Feature", "properties": { "Name": "Апартаменты на Вагнера 58", "address": "ул. Вагнера, 58, Калининград, Россия", "url": "-", "phone": "+7 (909) 791-22-46", "hours": "-", "longitude": 20.499725, "latitude": 54.71268 }, "geometry": { "type": "Point", "coordinates": [ 20.499725, 54.71268 ] } },
{ "type": "Feature", "properties": { "Name": "Апартаменты новые двухкомнатные в центральном районе", "address": "ул. Добролюбова, 46, Калининград, Россия", "url": "-", "phone": "+7 (906) 238-86-66", "hours": "-", "longitude": 20.44119, "latitude": 54.718945 }, "geometry": { "type": "Point", "coordinates": [ 20.44119, 54.718945 ] } },
{ "type": "Feature", "properties": { "Name": "Апартаменты 1к на проспекте Победы", "address": "просп. Победы, 94, Калининград, Россия", "url": "-", "phone": "+7 (921) 603-89-08", "hours": "-", "longitude": 20.440742, "latitude": 54.7115 }, "geometry": { "type": "Point", "coordinates": [ 20.440742, 54.7115 ] } },
{ "type": "Feature", "properties": { "Name": "Апартаменты Кольцо старого Кенигсберга", "address": "ул. Литовский Вал, 87А, Калининград, Россия", "url": "-", "phone": "+7 (911) 472-75-24", "hours": "-", "longitude": 20.540096, "latitude": 54.70862 }, "geometry": { "type": "Point", "coordinates": [ 20.540096, 54.70862 ] } },
{ "type": "Feature", "properties": { "Name": "Апартаменты Ваша уютная квартира в самом центре Калининграда", "address": "ул. Салтыкова-Щедрина, 5, Калининград, Россия", "url": "-", "phone": "+7 (926) 610-23-22", "hours": "-", "longitude": 20.505816, "latitude": 54.71114 }, "geometry": { "type": "Point", "coordinates": [ 20.505816, 54.71114 ] } },
{ "type": "Feature", "properties": { "Name": "Апартаменты на Суворова", "address": "ул. Александра Суворова, 31, Калининград, Россия", "url": "-", "phone": "+7 (926) 338-11-77", "hours": "-", "longitude": 20.473333, "latitude": 54.692818 }, "geometry": { "type": "Point", "coordinates": [ 20.473333, 54.692818 ] } },
{ "type": "Feature", "properties": { "Name": "Апартаменты Хорошая 2к Квартира в Самом центре", "address": "ул. Желябова, 3, Калининград, Россия", "url": "-", "phone": "+7 (909) 777-05-08", "hours": "-", "longitude": 20.496178, "latitude": 54.727432 }, "geometry": { "type": "Point", "coordinates": [ 20.496178, 54.727432 ] } },
{ "type": "Feature", "properties": { "Name": "Апартаменты у площади Победы", "address": "ул. Горького, 10, Калининград, Россия", "url": "-", "phone": "+7 (950) 671-32-32", "hours": "-", "longitude": 20.50961, "latitude": 54.724045 }, "geometry": { "type": "Point", "coordinates": [ 20.50961, 54.724045 ] } },
{ "type": "Feature", "properties": { "Name": "Апартаменты на Солнечном Бульваре Калининграда", "address": "Солнечный бул., 20, Калининград, Россия", "url": "-", "phone": "+7 (911) 474-59-93", "hours": "-", "longitude": 20.522156, "latitude": 54.704227 }, "geometry": { "type": "Point", "coordinates": [ 20.522156, 54.704227 ] } },
{ "type": "Feature", "properties": { "Name": "Апартаменты в центре у озера", "address": "Пролетарская ул., 75, Калининград, Россия", "url": "-", "phone": "+7 (906) 215-90-14", "hours": "-", "longitude": 20.513308, "latitude": 54.719257 }, "geometry": { "type": "Point", "coordinates": [ 20.513308, 54.719257 ] } },
{ "type": "Feature", "properties": { "Name": "Семейная квартира в центре города", "address": "Калужская ул., 35, Калининград, Россия", "url": "-", "phone": "+7 (906) 219-95-37", "hours": "-", "longitude": 20.497849, "latitude": 54.730858 }, "geometry": { "type": "Point", "coordinates": [ 20.497849, 54.730858 ] } },
{ "type": "Feature", "properties": { "Name": "Апартаменты на проспекте Победы 6", "address": "просп. Победы, 6, Калининград, Россия", "url": "-", "phone": "+7 (911) 477-22-47", "hours": "-", "longitude": 20.473118, "latitude": 54.719166 }, "geometry": { "type": "Point", "coordinates": [ 20.473118, 54.719166 ] } },
{ "type": "Feature", "properties": { "Name": "Апартаменты Золото", "address": "Гостиная ул., 18, Калининград, Россия", "url": "-", "phone": "+7 (911) 452-60-48", "hours": "-", "longitude": 20.487823, "latitude": 54.717266 }, "geometry": { "type": "Point", "coordinates": [ 20.487823, 54.717266 ] } },
{ "type": "Feature", "properties": { "Name": "Апартаменты Парадайз на Ленинском Проспекте", "address": "Ленинский просп., 105, Калининград, Россия", "url": "-", "phone": "+7 (909) 784-77-47", "hours": "-", "longitude": 20.505753, "latitude": 54.703 }, "geometry": { "type": "Point", "coordinates": [ 20.505753, 54.703 ] } },
{ "type": "Feature", "properties": { "Name": "Апартаменты Уютный Уголок в Удобном Месте", "address": "ул. Чайковского, 35, Калининград, Россия", "url": "-", "phone": "+7 (906) 215-55-10", "hours": "-", "longitude": 20.490393, "latitude": 54.7243 }, "geometry": { "type": "Point", "coordinates": [ 20.490393, 54.7243 ] } },
{ "type": "Feature", "properties": { "Name": "Апартаменты Вишня", "address": "Ленинский просп., 34, Калининград, Россия", "url": "-", "phone": "-", "hours": "-", "longitude": 20.50506, "latitude": 54.704067 }, "geometry": { "type": "Point", "coordinates": [ 20.50506, 54.704067 ] } },
{ "type": "Feature", "properties": { "Name": "Апартаменты Pobedy", "address": "просп. Победы, 80, Калининград, Россия", "url": "-", "phone": "+7 (991) 382-60-94", "hours": "-", "longitude": 20.445484, "latitude": 54.71105 }, "geometry": { "type": "Point", "coordinates": [ 20.445484, 54.71105 ] } },
{ "type": "Feature", "properties": { "Name": "Апартаменты Мирный", "address": "просп. Мира, 136, Калининград, Россия", "url": "-", "phone": "+7 (911) 454-11-19", "hours": "-", "longitude": 20.452196, "latitude": 54.72147 }, "geometry": { "type": "Point", "coordinates": [ 20.452196, 54.72147 ] } },
{ "type": "Feature", "properties": { "Name": "Апартаменты на Лесопильной", "address": "Лесопильная ул., 64, Калининград, Россия", "url": "-", "phone": "+7 (900) 351-54-14", "hours": "-", "longitude": 20.53289, "latitude": 54.70745 }, "geometry": { "type": "Point", "coordinates": [ 20.53289, 54.70745 ] } },
{ "type": "Feature", "properties": { "Name": "Апартаменты Отличная 2к Студия в Самом центре", "address": "ул. Генерала Галицкого, 2, Калининград, Россия", "url": "-", "phone": "+7 (909) 777-05-08", "hours": "-", "longitude": 20.499582, "latitude": 54.7168 }, "geometry": { "type": "Point", "coordinates": [ 20.499582, 54.7168 ] } },
{ "type": "Feature", "properties": { "Name": "Апартаменты Остров Иммануила Канта", "address": "ул. Коперника, 10, Калининград, Россия", "url": "-", "phone": "+7 (902) 418-55-27", "hours": "-", "longitude": 20.504784, "latitude": 54.710777 }, "geometry": { "type": "Point", "coordinates": [ 20.504784, 54.710777 ] } },
{ "type": "Feature", "properties": { "Name": "Апартаменты Морская геометрия", "address": "Ореховая ул., 19, Калининград, Россия", "url": "-", "phone": "+7 (996) 521-29-40", "hours": "-", "longitude": 20.504028, "latitude": 54.697598 }, "geometry": { "type": "Point", "coordinates": [ 20.504028, 54.697598 ] } },
{ "type": "Feature", "properties": { "Name": "Апартаменты Курортный 875", "address": "Курортная ул., 87, Калининград, Россия", "url": "-", "phone": "+7 (911) 466-78-37", "hours": "-", "longitude": 20.521042, "latitude": 54.726124 }, "geometry": { "type": "Point", "coordinates": [ 20.521042, 54.726124 ] } },
{ "type": "Feature", "properties": { "Name": "Апартаменты Flat39", "address": "ул. Багратиона, 43, Калининград, Россия", "url": "-", "phone": "+7 (921) 850-11-24", "hours": "-", "longitude": 20.511314, "latitude": 54.699314 }, "geometry": { "type": "Point", "coordinates": [ 20.511314, 54.699314 ] } },
{ "type": "Feature", "properties": { "Name": "Апартаменты на острове Канта", "address": "ул. Генерала Павлова, 38, Калининград, Россия", "url": "-", "phone": "+7 (900) 351-54-14", "hours": "-", "longitude": 20.520872, "latitude": 54.70077 }, "geometry": { "type": "Point", "coordinates": [ 20.520872, 54.70077 ] } },
{ "type": "Feature", "properties": { "Name": "Апартаменты Феникс", "address": "Ленинский просп., 80, Калининград, Россия", "url": "-", "phone": "-", "hours": "-", "longitude": 20.502789, "latitude": 54.699684 }, "geometry": { "type": "Point", "coordinates": [ 20.502789, 54.699684 ] } },
{ "type": "Feature", "properties": { "Name": "Апартаменты Troesutok Pudding", "address": "ул. Генерала Галицкого, 24, Калининград, Россия", "url": "-", "phone": "+7 (911) 460-77-77", "hours": "-", "longitude": 20.494165, "latitude": 54.71374 }, "geometry": { "type": "Point", "coordinates": [ 20.494165, 54.71374 ] } },
{ "type": "Feature", "properties": { "Name": "Апартаменты Комсомольская", "address": "Комсомольская ул., 10, Калининград, Россия", "url": "-", "phone": "-", "hours": "-", "longitude": 20.479448, "latitude": 54.72219 }, "geometry": { "type": "Point", "coordinates": [ 20.479448, 54.72219 ] } },
{ "type": "Feature", "properties": { "Name": "Апартаменты в центре у Органного зала", "address": "ул. Подполковника Половца, 21, Калининград, Россия", "url": "-", "phone": "+7 (921) 008-69-49", "hours": "-", "longitude": 20.508932, "latitude": 54.697426 }, "geometry": { "type": "Point", "coordinates": [ 20.508932, 54.697426 ] } },
{ "type": "Feature", "properties": { "Name": "Апартаменты Квартирное Бюро Гала", "address": "ул. Генерала Соммера, 13, Калининград, Россия", "url": "-", "phone": "+7 (995) 257-40-04", "hours": "-", "longitude": 20.506428, "latitude": 54.716404 }, "geometry": { "type": "Point", "coordinates": [ 20.506428, 54.716404 ] } },
{ "type": "Feature", "properties": { "Name": "Апартаменты в центре города возле ТЦ Европа", "address": "ул. Генерала Галицкого, 10, Калининград, Россия", "url": "-", "phone": "+7 (963) 351-40-00", "hours": "-", "longitude": 20.498844, "latitude": 54.71608 }, "geometry": { "type": "Point", "coordinates": [ 20.498844, 54.71608 ] } },
{ "type": "Feature", "properties": { "Name": "Апартаменты около Рыбной деревни", "address": "ул. Багратиона, 58, Калининград, Россия", "url": "-", "phone": "+7 (905) 247-90-00", "hours": "-", "longitude": 20.511465, "latitude": 54.69985 }, "geometry": { "type": "Point", "coordinates": [ 20.511465, 54.69985 ] } },
{ "type": "Feature", "properties": { "Name": "Апартаменты Amber Holiday", "address": "Малый пер., 3, Калининград, Россия", "url": "-", "phone": "+7 (906) 238-17-22", "hours": "-", "longitude": 20.51179, "latitude": 54.702873 }, "geometry": { "type": "Point", "coordinates": [ 20.51179, 54.702873 ] } },
{ "type": "Feature", "properties": { "Name": "Апартаменты Амалиенау", "address": "ул. Яблоневая Аллея, 10, Калининград, Россия", "url": "-", "phone": "+7 (906) 234-00-44", "hours": "-", "longitude": 20.458178, "latitude": 54.716263 }, "geometry": { "type": "Point", "coordinates": [ 20.458178, 54.716263 ] } },
{ "type": "Feature", "properties": { "Name": "Апартаменты Рыбная Деревня", "address": "ул. Багратиона, 75, Калининград, Россия", "url": "-", "phone": "+7 (900) 347-10-88", "hours": "-", "longitude": 20.507658, "latitude": 54.699078 }, "geometry": { "type": "Point", "coordinates": [ 20.507658, 54.699078 ] } },
{ "type": "Feature", "properties": { "Name": "Апартаменты Семейные в центре", "address": "ул. Богдана Хмельницкого, 36, Калининград, Россия", "url": "-", "phone": "+7 (911) 456-69-98", "hours": "-", "longitude": 20.510387, "latitude": 54.69656 }, "geometry": { "type": "Point", "coordinates": [ 20.510387, 54.69656 ] } },
{ "type": "Feature", "properties": { "Name": "Апартаменты Ленинский Проспект 83а", "address": "Ленинский просп., 83А, Калининград, Россия", "url": "-", "phone": "+7 (952) 798-95-80", "hours": "-", "longitude": 20.508755, "latitude": 54.704525 }, "geometry": { "type": "Point", "coordinates": [ 20.508755, 54.704525 ] } },
{ "type": "Feature", "properties": { "Name": "Апартаменты Проспект Победы", "address": "просп. Победы, 70Б, Калининград, Россия", "url": "-", "phone": "+7 (911) 858-46-81", "hours": "-", "longitude": 20.450281, "latitude": 54.71297 }, "geometry": { "type": "Point", "coordinates": [ 20.450281, 54.71297 ] } },
{ "type": "Feature", "properties": { "Name": "Апартаменты 1 комнатная Квартира в центре Калининграда", "address": "Звёздная ул., 19, Калининград, Россия", "url": "-", "phone": "+7 (963) 820-05-70", "hours": "-", "longitude": 20.500786, "latitude": 54.715397 }, "geometry": { "type": "Point", "coordinates": [ 20.500786, 54.715397 ] } },
{ "type": "Feature", "properties": { "Name": "Апартаменты центр в шаговой доступности", "address": "ул. Генерала Буткова, 36, Калининград, Россия", "url": "-", "phone": "+7 (911) 472-75-24", "hours": "-", "longitude": 20.492476, "latitude": 54.70813 }, "geometry": { "type": "Point", "coordinates": [ 20.492476, 54.70813 ] } },
{ "type": "Feature", "properties": { "Name": "Апартаменты на Звёздной 29", "address": "Звёздная ул., 29, Калининград, Россия", "url": "-", "phone": "-", "hours": "-", "longitude": 20.499168, "latitude": 54.714046 }, "geometry": { "type": "Point", "coordinates": [ 20.499168, 54.714046 ] } },
{ "type": "Feature", "properties": { "Name": "Апартаменты 2-х Комнатная Квартире в центре", "address": "ул. Подполковника Иванникова, 9, Калининград, Россия", "url": "-", "phone": "+7 (906) 212-38-38", "hours": "-", "longitude": 20.505205, "latitude": 54.718956 }, "geometry": { "type": "Point", "coordinates": [ 20.505205, 54.718956 ] } },
{ "type": "Feature", "properties": { "Name": "Апартаменты Однокомнатная Квартира у Рыбной Деревни", "address": "ул. Багратиона, 3, Калининград, Россия", "url": "-", "phone": "+7 (952) 796-69-45", "hours": "-", "longitude": 20.515392, "latitude": 54.698982 }, "geometry": { "type": "Point", "coordinates": [ 20.515392, 54.698982 ] } },
{ "type": "Feature", "properties": { "Name": "Апартаменты Бис", "address": "ул. Богдана Хмельницкого, 28, Калининград, Россия", "url": "-", "phone": "+7 (952) 051-72-93", "hours": "-", "longitude": 20.508968, "latitude": 54.69651 }, "geometry": { "type": "Point", "coordinates": [ 20.508968, 54.69651 ] } },
{ "type": "Feature", "properties": { "Name": "Апартаменты Дом Олененка", "address": "просп. Победы, 106, Калининград, Россия", "url": "-", "phone": "+7 (963) 738-53-52", "hours": "-", "longitude": 20.438766, "latitude": 54.71156 }, "geometry": { "type": "Point", "coordinates": [ 20.438766, 54.71156 ] } },
{ "type": "Feature", "properties": { "Name": "Апартаменты Богдана Хмельницкого 19", "address": "ул. Богдана Хмельницкого, 19, Калининград, Россия", "url": "-", "phone": "+7 (921) 264-00-50", "hours": "-", "longitude": 20.503614, "latitude": 54.697105 }, "geometry": { "type": "Point", "coordinates": [ 20.503614, 54.697105 ] } },
{ "type": "Feature", "properties": { "Name": "Апартаменты у Южного вокзала", "address": "ул. Младшего Лейтенанта Ротко, 9, Калининград, Россия", "url": "-", "phone": "+7 (911) 856-01-03", "hours": "-", "longitude": 20.50738, "latitude": 54.697876 }, "geometry": { "type": "Point", "coordinates": [ 20.50738, 54.697876 ] } },
{ "type": "Feature", "properties": { "Name": "Апартаменты в Самом центре Калининграда", "address": "ул. Рокоссовского, 22, Калининград, Россия", "url": "-", "phone": "+7 (911) 070-69-19", "hours": "-", "longitude": 20.508951, "latitude": 54.719303 }, "geometry": { "type": "Point", "coordinates": [ 20.508951, 54.719303 ] } },
{ "type": "Feature", "properties": { "Name": "Pro. Apart on Aksakov 102", "address": "ул. Аксакова, 102, Калининград, Россия", "url": "-", "phone": "-", "hours": "-", "longitude": 20.579901, "latitude": 54.7108 }, "geometry": { "type": "Point", "coordinates": [ 20.579901, 54.7108 ] } },
{ "type": "Feature", "properties": { "Name": "Апартаменты у Острова Иммануила Канта", "address": "ул. Багратиона, 50, Калининград, Россия", "url": "-", "phone": "+7 (911) 478-08-97", "hours": "-", "longitude": 20.512428, "latitude": 54.699905 }, "geometry": { "type": "Point", "coordinates": [ 20.512428, 54.699905 ] } },
{ "type": "Feature", "properties": { "Name": "Апартаменты Pavlov", "address": "Октябрьская ул., 57, Калининград, Россия", "url": "https://pavlov-apart.ru/", "phone": "+7 (929) 167-50-50", "hours": "ежедневно, 09:00–22:00", "longitude": 20.518913, "latitude": 54.700043 }, "geometry": { "type": "Point", "coordinates": [ 20.518913, 54.700043 ] } },
{ "type": "Feature", "properties": { "Name": "Апартаменты на Свободной 8", "address": "Свободная ул., 8, Калининград, Россия", "url": "-", "phone": "+7 (921) 105-55-60", "hours": "-", "longitude": 20.486465, "latitude": 54.719055 }, "geometry": { "type": "Point", "coordinates": [ 20.486465, 54.719055 ] } },
{ "type": "Feature", "properties": { "Name": "Жилое Помещение Двухкомнатная в центре", "address": "Университетская ул., 7, Калининград, Россия", "url": "-", "phone": "+7 (911) 456-69-54", "hours": "-", "longitude": 20.508116, "latitude": 54.71386 }, "geometry": { "type": "Point", "coordinates": [ 20.508116, 54.71386 ] } },
{ "type": "Feature", "properties": { "Name": "Апартаменты Рыбная деревня", "address": "Эльблонгская ул., 24, Калининград, Россия", "url": "-", "phone": "+7 (900) 351-54-14", "hours": "-", "longitude": 20.494822, "latitude": 54.699566 }, "geometry": { "type": "Point", "coordinates": [ 20.494822, 54.699566 ] } },
{ "type": "Feature", "properties": { "Name": "Апартаменты в центре на Чайковского", "address": "ул. Чайковского, 31, Калининград, Россия", "url": "-", "phone": "+7 (906) 210-99-05", "hours": "-", "longitude": 20.491251, "latitude": 54.724194 }, "geometry": { "type": "Point", "coordinates": [ 20.491251, 54.724194 ] } },
{ "type": "Feature", "properties": { "Name": "Апартаменты White cat", "address": "Зоологический тупик, 1, Калининград, Россия", "url": "-", "phone": "+7 (906) 213-49-07", "hours": "-", "longitude": 20.491388, "latitude": 54.72331 }, "geometry": { "type": "Point", "coordinates": [ 20.491388, 54.72331 ] } },
{ "type": "Feature", "properties": { "Name": "Апартаменты Friendly в Самом центре с Классным Видом", "address": "ул. Рокоссовского, 26, Калининград, Россия", "url": "-", "phone": "+7 (931) 601-03-10", "hours": "-", "longitude": 20.508835, "latitude": 54.71967 }, "geometry": { "type": "Point", "coordinates": [ 20.508835, 54.71967 ] } },
{ "type": "Feature", "properties": { "Name": "Апартаменты в центре на Пролетарской", "address": "Пролетарская ул., 52, Калининград, Россия", "url": "-", "phone": "+7 (906) 211-30-21", "hours": "-", "longitude": 20.513784, "latitude": 54.71596 }, "geometry": { "type": "Point", "coordinates": [ 20.513784, 54.71596 ] } },
{ "type": "Feature", "properties": { "Name": "Апартаменты на Чайковского", "address": "ул. Чайковского, 10, Калининград, Россия", "url": "-", "phone": "+7 (905) 243-35-59", "hours": "-", "longitude": 20.496466, "latitude": 54.724014 }, "geometry": { "type": "Point", "coordinates": [ 20.496466, 54.724014 ] } },
{ "type": "Feature", "properties": { "Name": "Апартаменты в 10 минутах ходьбы от Рыбной деревни и о. Канта", "address": "Зарайская ул., 17, Калининград, Россия", "url": "-", "phone": "+7 (962) 251-59-69", "hours": "-", "longitude": 20.51718, "latitude": 54.710224 }, "geometry": { "type": "Point", "coordinates": [ 20.51718, 54.710224 ] } },
{ "type": "Feature", "properties": { "Name": "Апартаменты на Эпроновской 9", "address": "Эпроновская ул., 9, Калининград, Россия", "url": "-", "phone": "+7 (981) 452-52-13", "hours": "-", "longitude": 20.513208, "latitude": 54.700638 }, "geometry": { "type": "Point", "coordinates": [ 20.513208, 54.700638 ] } },
{ "type": "Feature", "properties": { "Name": "Апартаменты у Южного Вокзала", "address": "ул. Багратиона, 152, Калининград, Россия", "url": "-", "phone": "+7 (909) 791-23-91", "hours": "-", "longitude": 20.496553, "latitude": 54.69808 }, "geometry": { "type": "Point", "coordinates": [ 20.496553, 54.69808 ] } },
{ "type": "Feature", "properties": { "Name": "Апартаменты на Эльблонгской", "address": "Эльблонгская ул., 31, Калининград, Россия", "url": "-", "phone": "+7 (952) 790-53-00", "hours": "-", "longitude": 20.495827, "latitude": 54.69859 }, "geometry": { "type": "Point", "coordinates": [ 20.495827, 54.69859 ] } },
{ "type": "Feature", "properties": { "Name": "Апартаменты в историческом центре у Южного вокзала", "address": "ул. Багратиона, 104, Калининград, Россия", "url": "-", "phone": "+7 (911) 471-90-89", "hours": "-", "longitude": 20.50498, "latitude": 54.699352 }, "geometry": { "type": "Point", "coordinates": [ 20.50498, 54.699352 ] } },
{ "type": "Feature", "properties": { "Name": "Апартаменты Apart39 на Леонова 1а", "address": "ул. Космонавта Леонова, 1А, Калининград, Россия", "url": "-", "phone": "+7 (921) 100-72-02", "hours": "-", "longitude": 20.48166, "latitude": 54.722523 }, "geometry": { "type": "Point", "coordinates": [ 20.48166, 54.722523 ] } },
{ "type": "Feature", "properties": { "Name": "Апартаменты просторные в историческом центре", "address": "ул. Сержанта Колоскова, 1А, Калининград, Россия", "url": "-", "phone": "+7 (911) 456-95-26", "hours": "-", "longitude": 20.485596, "latitude": 54.719646 }, "geometry": { "type": "Point", "coordinates": [ 20.485596, 54.719646 ] } },
{ "type": "Feature", "properties": { "Name": "Апартаменты Просторные апартаменты в историческом центре", "address": "просп. Мира, 49, Калининград, Россия", "url": "-", "phone": "+7 (911) 456-95-26", "hours": "-", "longitude": 20.481598, "latitude": 54.720528 }, "geometry": { "type": "Point", "coordinates": [ 20.481598, 54.720528 ] } },
{ "type": "Feature", "properties": { "Name": "Апартаменты в Высотке на Московском 12", "address": "Московский просп., 12, Калининград, Россия", "url": "-", "phone": "+7 (921) 005-05-98", "hours": "-", "longitude": 20.496141, "latitude": 54.71014 }, "geometry": { "type": "Point", "coordinates": [ 20.496141, 54.71014 ] } },
{ "type": "Feature", "properties": { "Name": "Апартаменты LovelyHome39 студии на Киевской", "address": "Киевская ул., 36, Калининград, Россия", "url": "-", "phone": "+7 (967) 555-01-39", "hours": "-", "longitude": 20.487148, "latitude": 54.68275 }, "geometry": { "type": "Point", "coordinates": [ 20.487148, 54.68275 ] } },
{ "type": "Feature", "properties": { "Name": "Апартаменты Новые с парковкой", "address": "Колхозная ул., 3-5, Калининград, Россия", "url": "-", "phone": "+7 (963) 738-82-10", "hours": "-", "longitude": 20.526604, "latitude": 54.742973 }, "geometry": { "type": "Point", "coordinates": [ 20.526604, 54.742973 ] } },
{ "type": "Feature", "properties": { "Name": "Апартаменты Белая сова", "address": "ул. Полковника Сафронова, 3, Калининград, Россия", "url": "-", "phone": "+7 (963) 297-88-60", "hours": "-", "longitude": 20.48325, "latitude": 54.724243 }, "geometry": { "type": "Point", "coordinates": [ 20.48325, 54.724243 ] } },
{ "type": "Feature", "properties": { "Name": "Апартаменты в Калининграде", "address": "ул. Гайдара, 143, Калининград, Россия", "url": "-", "phone": "+7 (911) 474-59-93", "hours": "-", "longitude": 20.506104, "latitude": 54.74153 }, "geometry": { "type": "Point", "coordinates": [ 20.506104, 54.74153 ] } },
{ "type": "Feature", "properties": { "Name": "Апартаменты KÖNIGSBERG-Amalienau", "address": "Бородинская ул., 14, Калининград, Россия", "url": "-", "phone": "+7 (929) 167-33-23", "hours": "-", "longitude": 20.470154, "latitude": 54.71631 }, "geometry": { "type": "Point", "coordinates": [ 20.470154, 54.71631 ] } },
{ "type": "Feature", "properties": { "Name": "Апартаменты Красноярская 2", "address": "Красноярская ул., 2, Калининград, Россия", "url": "-", "phone": "+7 (911) 460-36-03", "hours": "-", "longitude": 20.501963, "latitude": 54.708096 }, "geometry": { "type": "Point", "coordinates": [ 20.501963, 54.708096 ] } },
{ "type": "Feature", "properties": { "Name": "Апартаменты трехкомнатные у площади Победы", "address": "Пролетарская ул., 72, Калининград, Россия", "url": "-", "phone": "+7 (906) 233-59-22", "hours": "-", "longitude": 20.513515, "latitude": 54.718437 }, "geometry": { "type": "Point", "coordinates": [ 20.513515, 54.718437 ] } },
{ "type": "Feature", "properties": { "Name": "Апартаменты на улице Пролетарской 63", "address": "Пролетарская ул., 63, Калининград, Россия", "url": "-", "phone": "+7 (900) 351-54-14", "hours": "-", "longitude": 20.512661, "latitude": 54.718166 }, "geometry": { "type": "Point", "coordinates": [ 20.512661, 54.718166 ] } },
{ "type": "Feature", "properties": { "Name": "Апартаменты Алина Калининград", "address": "ул. Гайдара, 122, Калининград, Россия", "url": "-", "phone": "+7 (921) 262-25-39", "hours": "-", "longitude": 20.507074, "latitude": 54.74354 }, "geometry": { "type": "Point", "coordinates": [ 20.507074, 54.74354 ] } },
{ "type": "Feature", "properties": { "Name": "Апартаменты в Самом центре города в элитном доме", "address": "ул. Чайковского, 36, Калининград, Россия", "url": "-", "phone": "+7 (909) 777-05-08", "hours": "-", "longitude": 20.48989, "latitude": 54.725025 }, "geometry": { "type": "Point", "coordinates": [ 20.48989, 54.725025 ] } },
{ "type": "Feature", "properties": { "Name": "Аппартамены с Видом на Лес", "address": "Бассейная ул., 7, Калининград, Россия", "url": "-", "phone": "+7 (950) 677-70-94", "hours": "-", "longitude": 20.454405, "latitude": 54.71576 }, "geometry": { "type": "Point", "coordinates": [ 20.454405, 54.71576 ] } },
{ "type": "Feature", "properties": { "Name": "Апартаменты Борзова 52", "address": "ул. Маршала Борзова, 52, Калининград, Россия", "url": "-", "phone": "+7 (905) 246-39-73", "hours": "-", "longitude": 20.472137, "latitude": 54.73645 }, "geometry": { "type": "Point", "coordinates": [ 20.472137, 54.73645 ] } },
{ "type": "Feature", "properties": { "Name": "Апартаменты Haus Hufen De Lux", "address": "просп. Мира, 44, Калининград, Россия", "url": "-", "phone": "+7 (911) 454-77-31", "hours": "-", "longitude": 20.48492, "latitude": 54.720688 }, "geometry": { "type": "Point", "coordinates": [ 20.48492, 54.720688 ] } },
{ "type": "Feature", "properties": { "Name": "Апартаменты Лофт", "address": "ул. Генерал-Лейтенанта Озерова, 51А, Калининград, Россия", "url": "-", "phone": "+7 (900) 351-54-14", "hours": "-", "longitude": 20.51135, "latitude": 54.725082 }, "geometry": { "type": "Point", "coordinates": [ 20.51135, 54.725082 ] } },
{ "type": "Feature", "properties": { "Name": "Жилое Помещение Берлога Хомлина", "address": "Эпроновская ул., 20, Калининград, Россия", "url": "-", "phone": "+7 (981) 453-47-44", "hours": "-", "longitude": 20.51329, "latitude": 54.70443 }, "geometry": { "type": "Point", "coordinates": [ 20.51329, 54.70443 ] } },
{ "type": "Feature", "properties": { "Name": "Апартаменты Sommera Center", "address": "ул. Генерала Соммера, 10, Калининград, Россия", "url": "-", "phone": "+7 (963) 297-51-37", "hours": "-", "longitude": 20.505842, "latitude": 54.71563 }, "geometry": { "type": "Point", "coordinates": [ 20.505842, 54.71563 ] } },
{ "type": "Feature", "properties": { "Name": "Апартаменты Уютная Студия в Калининграде", "address": "ул. Олега Кошевого, 30, Калининград, Россия", "url": "-", "phone": "+7 (911) 491-12-57", "hours": "-", "longitude": 20.508968, "latitude": 54.67372 }, "geometry": { "type": "Point", "coordinates": [ 20.508968, 54.67372 ] } },
{ "type": "Feature", "properties": { "Name": "Апартаменты Светлая уютная и комфортная в центре на Полоцкой", "address": "Полоцкая ул., 12, Калининград, Россия", "url": "-", "phone": "+7 (911) 456-95-26", "hours": "-", "longitude": 20.501495, "latitude": 54.703495 }, "geometry": { "type": "Point", "coordinates": [ 20.501495, 54.703495 ] } },
{ "type": "Feature", "properties": { "Name": "Апартаменты на Соммера 20", "address": "ул. Генерала Соммера, 20, Калининград, Россия", "url": "-", "phone": "+7 (906) 237-83-58", "hours": "-", "longitude": 20.507345, "latitude": 54.71587 }, "geometry": { "type": "Point", "coordinates": [ 20.507345, 54.71587 ] } },
{ "type": "Feature", "properties": { "Name": "Апартаменты в 100 метрах от Королевских Ворот Кёнигсберга", "address": "ул. Фортовая Дорога, 9, Калининград, Россия", "url": "-", "phone": "+7 (911) 491-12-57", "hours": "-", "longitude": 20.536762, "latitude": 54.71681 }, "geometry": { "type": "Point", "coordinates": [ 20.536762, 54.71681 ] } },
{ "type": "Feature", "properties": { "Name": "Апартаменты Рыбная деревня", "address": "ул. Богдана Хмельницкого, 22, Калининград, Россия", "url": "-", "phone": "+7 (900) 351-54-14", "hours": "-", "longitude": 20.508036, "latitude": 54.69633 }, "geometry": { "type": "Point", "coordinates": [ 20.508036, 54.69633 ] } },
{ "type": "Feature", "properties": { "Name": "Апартаменты Рыцарь старого Кёнигсберга", "address": "ул. Горького, 14, Калининград, Россия", "url": "-", "phone": "+7 (921) 853-92-70", "hours": "-", "longitude": 20.50967, "latitude": 54.724422 }, "geometry": { "type": "Point", "coordinates": [ 20.50967, 54.724422 ] } },
{ "type": "Feature", "properties": { "Name": "Апартаменты Современный, уютный и чистый - Königsberg house", "address": "ул. Нансена, 13, Калининград, Россия", "url": "-", "phone": "+7 (962) 251-59-69", "hours": "-", "longitude": 20.488066, "latitude": 54.696205 }, "geometry": { "type": "Point", "coordinates": [ 20.488066, 54.696205 ] } },
{ "type": "Feature", "properties": { "Name": "Трехкомнатные апартаменты в Историческом центре Калининграда", "address": "Нарвская ул., 28, Калининград, Россия", "url": "-", "phone": "+7 (906) 238-78-87", "hours": "-", "longitude": 20.496931, "latitude": 54.72952 }, "geometry": { "type": "Point", "coordinates": [ 20.496931, 54.72952 ] } },
{ "type": "Feature", "properties": { "Name": "Апартаменты Сергеева 5", "address": "ул. Сергеева, 5, Калининград, Россия", "url": "-", "phone": "+7 (921) 105-62-02", "hours": "-", "longitude": 20.51426, "latitude": 54.715572 }, "geometry": { "type": "Point", "coordinates": [ 20.51426, 54.715572 ] } },
{ "type": "Feature", "properties": { "Name": "Апартаменты на Казанской", "address": "Казанская ул., 28, Калининград, Россия", "url": "-", "phone": "+7 (909) 798-35-75", "hours": "-", "longitude": 20.50915, "latitude": 54.69995 }, "geometry": { "type": "Point", "coordinates": [ 20.50915, 54.69995 ] } },
{ "type": "Feature", "properties": { "Name": "Апартаменты Юбилейный Мост", "address": "Октябрьская ул., 29, Калининград, Россия", "url": "-", "phone": "+7 (909) 797-28-94", "hours": "-", "longitude": 20.51699, "latitude": 54.702686 }, "geometry": { "type": "Point", "coordinates": [ 20.51699, 54.702686 ] } },
{ "type": "Feature", "properties": { "Name": "Апартаменты Стильные Возле Южного Вокзала", "address": "Серпуховская ул., 32, Калининград, Россия", "url": "-", "phone": "+7 (996) 521-60-33", "hours": "-", "longitude": 20.500149, "latitude": 54.699154 }, "geometry": { "type": "Point", "coordinates": [ 20.500149, 54.699154 ] } },
{ "type": "Feature", "properties": { "Name": "Апартаменты Медведь Amalienau", "address": "Ростовская ул., 4, Калининград, Россия", "url": "-", "phone": "+7 (921) 107-39-69", "hours": "-", "longitude": 20.46214, "latitude": 54.726532 }, "geometry": { "type": "Point", "coordinates": [ 20.46214, 54.726532 ] } },
{ "type": "Feature", "properties": { "Name": "Апартаменты в центре возле парка с озером", "address": "ул. Багратиона, 72, Калининград, Россия", "url": "-", "phone": "+7 (911) 456-95-26", "hours": "-", "longitude": 20.508404, "latitude": 54.699524 }, "geometry": { "type": "Point", "coordinates": [ 20.508404, 54.699524 ] } },
{ "type": "Feature", "properties": { "Name": "Апартаменты на набережной Петра Великого", "address": "Правая наб., 32, Калининград, Россия", "url": "-", "phone": "+7 (921) 005-05-98", "hours": "-", "longitude": 20.496851, "latitude": 54.708214 }, "geometry": { "type": "Point", "coordinates": [ 20.496851, 54.708214 ] } },
{ "type": "Feature", "properties": { "Name": "Апартаменты Двушка на Горького", "address": "ул. Горького, 26, Калининград, Россия", "url": "-", "phone": "+7 (962) 252-19-54", "hours": "-", "longitude": 20.509912, "latitude": 54.72599 }, "geometry": { "type": "Point", "coordinates": [ 20.509912, 54.72599 ] } },
{ "type": "Feature", "properties": { "Name": "Апартаменты Оранжерея", "address": "Комсомольская ул., 17, Калининград, Россия", "url": "-", "phone": "+7 (911) 453-49-95", "hours": "-", "longitude": 20.478489, "latitude": 54.72318 }, "geometry": { "type": "Point", "coordinates": [ 20.478489, 54.72318 ] } },
{ "type": "Feature", "properties": { "Name": "Меблированная Комната с балконом", "address": "ул. Пугачёва, 30Б, Калининград, Россия", "url": "-", "phone": "+7 (911) 474-61-73", "hours": "-", "longitude": 20.473125, "latitude": 54.7249 }, "geometry": { "type": "Point", "coordinates": [ 20.473125, 54.7249 ] } },
{ "type": "Feature", "properties": { "Name": "Апартаменты у Бранденбургских ворот рядом с Южным вокзалом", "address": "ул. Багратиона, 148, Калининград, Россия", "url": "-", "phone": "+7 (913) 805-58-82", "hours": "-", "longitude": 20.49722, "latitude": 54.698208 }, "geometry": { "type": "Point", "coordinates": [ 20.49722, 54.698208 ] } },
{ "type": "Feature", "properties": { "Name": "Апартаменты в историческом районе на Чайковского 16", "address": "ул. Чайковского, 16, Калининград, Россия", "url": "-", "phone": "+7 (911) 493-02-19", "hours": "-", "longitude": 20.493214, "latitude": 54.72415 }, "geometry": { "type": "Point", "coordinates": [ 20.493214, 54.72415 ] } },
{ "type": "Feature", "properties": { "Name": "Апартаменты у острова и. Канта", "address": "Старопрегольская наб., 10, Калининград, Россия", "url": "-", "phone": "+7 (950) 671-32-32", "hours": "-", "longitude": 20.510542, "latitude": 54.7045 }, "geometry": { "type": "Point", "coordinates": [ 20.510542, 54.7045 ] } },
{ "type": "Feature", "properties": { "Name": "Апартаменты Судостроительная 17е", "address": "Судостроительная ул., 17Е, Калининград, Россия", "url": "-", "phone": "+7 (911) 484-51-05", "hours": "-", "longitude": 20.49271, "latitude": 54.681477 }, "geometry": { "type": "Point", "coordinates": [ 20.49271, 54.681477 ] } },
{ "type": "Feature", "properties": { "Name": "Апартаменты Трехкомнатные Семейные в Amalienau", "address": "Коммунальная ул., 5, Калининград, Россия", "url": "-", "phone": "+7 (963) 351-40-00", "hours": "-", "longitude": 20.469479, "latitude": 54.722443 }, "geometry": { "type": "Point", "coordinates": [ 20.469479, 54.722443 ] } },
{ "type": "Feature", "properties": { "Name": "Апартаменты Уютная квартира у озера", "address": "ул. Генерала Толстикова, 16А, Калининград, Россия", "url": "-", "phone": "+7 (911) 450-96-10", "hours": "-", "longitude": 20.492064, "latitude": 54.673523 }, "geometry": { "type": "Point", "coordinates": [ 20.492064, 54.673523 ] } },
{ "type": "Feature", "properties": { "Name": "Апартаменты в Туристическом центре Калининграда", "address": "ул. Черняховского, 66, Калининград, Россия", "url": "-", "phone": "-", "hours": "-", "longitude": 20.514757, "latitude": 54.720264 }, "geometry": { "type": "Point", "coordinates": [ 20.514757, 54.720264 ] } },
{ "type": "Feature", "properties": { "Name": "Апартаменты Уютная квартира в Калининграде", "address": "Коммунистическая ул., 26, Калининград, Россия", "url": "-", "phone": "+7 (909) 790-70-28", "hours": "-", "longitude": 20.482683, "latitude": 54.67688 }, "geometry": { "type": "Point", "coordinates": [ 20.482683, 54.67688 ] } },
{ "type": "Feature", "properties": { "Name": "Апартаменты Apartburo Tourist Centre", "address": "Октябрьская ул., 57, Калининград, Россия", "url": "-", "phone": "+7 (906) 239-52-69", "hours": "-", "longitude": 20.518349, "latitude": 54.70044 }, "geometry": { "type": "Point", "coordinates": [ 20.518349, 54.70044 ] } },
{ "type": "Feature", "properties": { "Name": "Жилое помещение в центре Ленинский проспект 74", "address": "Ленинский просп., 74, Калининград, Россия", "url": "-", "phone": "-", "hours": "-", "longitude": 20.502941, "latitude": 54.70018 }, "geometry": { "type": "Point", "coordinates": [ 20.502941, 54.70018 ] } },
{ "type": "Feature", "properties": { "Name": "Апартаменты Ретроапартаменты Врангельштрассе", "address": "ул. Черняховского, 5, Калининград, Россия", "url": "-", "phone": "+7 (995) 257-40-04", "hours": "-", "longitude": 20.506014, "latitude": 54.719856 }, "geometry": { "type": "Point", "coordinates": [ 20.506014, 54.719856 ] } },
{ "type": "Feature", "properties": { "Name": "Апартаменты у Зоопарка", "address": "Зоологическая ул., 11Б, Калининград, Россия", "url": "-", "phone": "+7 (911) 073-05-73", "hours": "-", "longitude": 20.483833, "latitude": 54.72215 }, "geometry": { "type": "Point", "coordinates": [ 20.483833, 54.72215 ] } },
{ "type": "Feature", "properties": { "Name": "Апарт39ру на улице 9 Апреля, 98", "address": "ул. 9 Апреля, 98, Калининград, Россия", "url": "-", "phone": "-", "hours": "-", "longitude": 20.527231, "latitude": 54.719498 }, "geometry": { "type": "Point", "coordinates": [ 20.527231, 54.719498 ] } },
{ "type": "Feature", "properties": { "Name": "Апартаменты на Соммера 56", "address": "ул. Генерала Соммера, 56, Калининград, Россия", "url": "-", "phone": "+7 (911) 857-47-07", "hours": "-", "longitude": 20.51171, "latitude": 54.71562 }, "geometry": { "type": "Point", "coordinates": [ 20.51171, 54.71562 ] } },
{ "type": "Feature", "properties": { "Name": "Апартаменты RosApart", "address": "просп. Мира, 54, Калининград, Россия", "url": "-", "phone": "+7 (999) 255-10-45", "hours": "-", "longitude": 20.483412, "latitude": 54.721188 }, "geometry": { "type": "Point", "coordinates": [ 20.483412, 54.721188 ] } },
{ "type": "Feature", "properties": { "Name": "Апартаменты в самом центре Калининграда", "address": "Серпуховская ул., 17, Калининград, Россия", "url": "-", "phone": "+7 (950) 129-94-58", "hours": "-", "longitude": 20.50252, "latitude": 54.702007 }, "geometry": { "type": "Point", "coordinates": [ 20.50252, 54.702007 ] } },
{ "type": "Feature", "properties": { "Name": "Апартаменты Design Bauhaus", "address": "ул. 1812 года, 29, Калининград, Россия", "url": "-", "phone": "-", "hours": "-", "longitude": 20.525534, "latitude": 54.710278 }, "geometry": { "type": "Point", "coordinates": [ 20.525534, 54.710278 ] } },
{ "type": "Feature", "properties": { "Name": "Апартаменты Двухкомнатные центр Генерала Галицкого 19", "address": "ул. Генерала Галицкого, 19, Калининград, Россия", "url": "-", "phone": "+7 (981) 452-52-13", "hours": "-", "longitude": 20.498108, "latitude": 54.714626 }, "geometry": { "type": "Point", "coordinates": [ 20.498108, 54.714626 ] } },
{ "type": "Feature", "properties": { "Name": "Апартаменты на Гайдара", "address": "ул. Гайдара, 41, Калининград, Россия", "url": "-", "phone": "+7 (902) 418-55-27", "hours": "-", "longitude": 20.494673, "latitude": 54.733368 }, "geometry": { "type": "Point", "coordinates": [ 20.494673, 54.733368 ] } },
{ "type": "Feature", "properties": { "Name": "Апартаменты Арка", "address": "ул. Профессора Севастьянова, 22А, Калининград, Россия", "url": "-", "phone": "+7 (950) 675-33-36", "hours": "-", "longitude": 20.511852, "latitude": 54.71488 }, "geometry": { "type": "Point", "coordinates": [ 20.511852, 54.71488 ] } },
{ "type": "Feature", "properties": { "Name": "Апартаменты Steindamm 11 в самом центре Калининграда", "address": "Ленинский просп., 15, Калининград, Россия", "url": "-", "phone": "+7 (962) 251-59-69", "hours": "-", "longitude": 20.502851, "latitude": 54.717182 }, "geometry": { "type": "Point", "coordinates": [ 20.502851, 54.717182 ] } },
{ "type": "Feature", "properties": { "Name": "Апартаменты Сергеева 19", "address": "ул. Сергеева, 19, Калининград, Россия", "url": "-", "phone": "+7 (911) 450-92-45", "hours": "-", "longitude": 20.515455, "latitude": 54.716454 }, "geometry": { "type": "Point", "coordinates": [ 20.515455, 54.716454 ] } },
{ "type": "Feature", "properties": { "Name": "Апартаменты 7 этаж в центре Калининграда", "address": "ул. Куйбышева, 2, Калининград, Россия", "url": "-", "phone": "+7 (911) 457-59-94", "hours": "-", "longitude": 20.52858, "latitude": 54.725883 }, "geometry": { "type": "Point", "coordinates": [ 20.52858, 54.725883 ] } },
{ "type": "Feature", "properties": { "Name": "Апартаменты 2 Комнатная Квартира", "address": "ул. Профессора Севастьянова, 20, Калининград, Россия", "url": "-", "phone": "-", "hours": "-", "longitude": 20.510963, "latitude": 54.715046 }, "geometry": { "type": "Point", "coordinates": [ 20.510963, 54.715046 ] } },
{ "type": "Feature", "properties": { "Name": "Апартаменты на Черняховского", "address": "ул. Черняховского, 24, Калининград, Россия", "url": "-", "phone": "+7 (911) 464-21-78", "hours": "-", "longitude": 20.506948, "latitude": 54.719067 }, "geometry": { "type": "Point", "coordinates": [ 20.506948, 54.719067 ] } },
{ "type": "Feature", "properties": { "Name": "Жилое помещение Harry Potter Калининград", "address": "ул. Генерала Толстикова, 8, Калининград, Россия", "url": "-", "phone": "+7 (921) 550-80-94", "hours": "-", "longitude": 20.491945, "latitude": 54.676464 }, "geometry": { "type": "Point", "coordinates": [ 20.491945, 54.676464 ] } },
{ "type": "Feature", "properties": { "Name": "Апартаменты в сердце Амалиенау", "address": "просп. Мира, 69, Калининград, Россия", "url": "-", "phone": "-", "hours": "-", "longitude": 20.470774, "latitude": 54.72116 }, "geometry": { "type": "Point", "coordinates": [ 20.470774, 54.72116 ] } },
{ "type": "Feature", "properties": { "Name": "Апартаменты в Калининграде на Куйбышева", "address": "ул. Куйбышева, 100, Калининград, Россия", "url": "-", "phone": "+7 (911) 474-59-93", "hours": "-", "longitude": 20.546717, "latitude": 54.72424 }, "geometry": { "type": "Point", "coordinates": [ 20.546717, 54.72424 ] } },
{ "type": "Feature", "properties": { "Name": "Апартаменты в сердце Калининграда", "address": "ул. Черняховского, 70, Калининград, Россия", "url": "-", "phone": "+7 (962) 254-57-44", "hours": "-", "longitude": 20.515373, "latitude": 54.719986 }, "geometry": { "type": "Point", "coordinates": [ 20.515373, 54.719986 ] } },
{ "type": "Feature", "properties": { "Name": "Апартаменты в Туристическом центре Калининграда", "address": "Беломорская ул., 2, Калининград, Россия", "url": "-", "phone": "-", "hours": "-", "longitude": 20.511526, "latitude": 54.735218 }, "geometry": { "type": "Point", "coordinates": [ 20.511526, 54.735218 ] } },
{ "type": "Feature", "properties": { "Name": "Апартаменты Райский Уголок", "address": "ул. Ватутина, 30, Калининград, Россия", "url": "-", "phone": "+7 (906) 238-43-94", "hours": "-", "longitude": 20.446464, "latitude": 54.717064 }, "geometry": { "type": "Point", "coordinates": [ 20.446464, 54.717064 ] } },
{ "type": "Feature", "properties": { "Name": "Апартаменты Трёхкомнатный Пентхаус, Южный вокзал, Колибри 27/13", "address": "ул. Богдана Хмельницкого, 27, Калининград, Россия", "url": "-", "phone": "+7 (911) 480-35-08", "hours": "-", "longitude": 20.505186, "latitude": 54.697266 }, "geometry": { "type": "Point", "coordinates": [ 20.505186, 54.697266 ] } },
{ "type": "Feature", "properties": { "Name": "Апартаменты на Коперника в центре", "address": "ул. Коперника, 8, Калининград, Россия", "url": "-", "phone": "+7 (909) 791-22-46", "hours": "-", "longitude": 20.505089, "latitude": 54.71075 }, "geometry": { "type": "Point", "coordinates": [ 20.505089, 54.71075 ] } },
{ "type": "Feature", "properties": { "Name": "Апартаменты Генерала Соммера 33 в центре", "address": "ул. Генерала Соммера, 33, Калининград, Россия", "url": "-", "phone": "+7 (905) 248-60-97", "hours": "-", "longitude": 20.511995, "latitude": 54.716953 }, "geometry": { "type": "Point", "coordinates": [ 20.511995, 54.716953 ] } },
{ "type": "Feature", "properties": { "Name": "Апартаменты центр, Больничная 15, Колибри 15", "address": "Больничная ул., 15, Калининград, Россия", "url": "-", "phone": "+7 (911) 480-35-08", "hours": "-", "longitude": 20.503922, "latitude": 54.712673 }, "geometry": { "type": "Point", "coordinates": [ 20.503922, 54.712673 ] } },
{ "type": "Feature", "properties": { "Name": "Апартаменты на Набережной Генерала Карбышева 20", "address": "наб. Генерала Карбышева, 20, Калининград, Россия", "url": "-", "phone": "+7 (921) 100-72-02", "hours": "-", "longitude": 20.521276, "latitude": 54.706444 }, "geometry": { "type": "Point", "coordinates": [ 20.521276, 54.706444 ] } },
{ "type": "Feature", "properties": { "Name": "Апартаменты Улучшенные в Новом Доме", "address": "Батальная ул., 104, Калининград, Россия", "url": "-", "phone": "+7 (996) 522-85-19", "hours": "-", "longitude": 20.508375, "latitude": 54.67466 }, "geometry": { "type": "Point", "coordinates": [ 20.508375, 54.67466 ] } },
{ "type": "Feature", "properties": { "Name": "Апартаменты FreeDom - Apartments CityCentr", "address": "Краснооктябрьская ул., 1, Калининград, Россия", "url": "-", "phone": "+7 (911) 455-17-10", "hours": "-", "longitude": 20.505798, "latitude": 54.702553 }, "geometry": { "type": "Point", "coordinates": [ 20.505798, 54.702553 ] } },
{ "type": "Feature", "properties": { "Name": "Апартаменты Самый центр у Площади Победы", "address": "Космическая ул., 10, Калининград, Россия", "url": "-", "phone": "+7 (952) 119-64-00", "hours": "-", "longitude": 20.50092, "latitude": 54.71512 }, "geometry": { "type": "Point", "coordinates": [ 20.50092, 54.71512 ] } },
{ "type": "Feature", "properties": { "Name": "Апартаменты High Level на Советском 50", "address": "ул. Памяти Павших в Афганистане, 24, Калининград, Россия", "url": "-", "phone": "+7 (962) 255-66-77", "hours": "-", "longitude": 20.494919, "latitude": 54.73102 }, "geometry": { "type": "Point", "coordinates": [ 20.494919, 54.73102 ] } },
{ "type": "Feature", "properties": { "Name": "Апартаменты Студия на пересечении туристических троп) в самом центре Калининграда", "address": "Серпуховская ул., 22, Калининград, Россия", "url": "-", "phone": "+7 (926) 610-23-22", "hours": "-", "longitude": 20.502304, "latitude": 54.70338 }, "geometry": { "type": "Point", "coordinates": [ 20.502304, 54.70338 ] } },
{ "type": "Feature", "properties": { "Name": "Апартаменты Прекрасные на Москвина", "address": "ул. Москвина, 1, Калининград, Россия", "url": "-", "phone": "+7 (906) 215-55-10", "hours": "-", "longitude": 20.49095, "latitude": 54.728764 }, "geometry": { "type": "Point", "coordinates": [ 20.49095, 54.728764 ] } },
{ "type": "Feature", "properties": { "Name": "Апартаменты Ваша Уютная Квартира в Старом Зеленом Районе Калининграда", "address": "ул. Космонавта Леонова, 28, Калининград, Россия", "url": "-", "phone": "+7 (926) 610-23-22", "hours": "-", "longitude": 20.482012, "latitude": 54.727333 }, "geometry": { "type": "Point", "coordinates": [ 20.482012, 54.727333 ] } },
{ "type": "Feature", "properties": { "Name": "Апартаменты в Самом центре Города", "address": "ул. Кирова, 34, Калининград, Россия", "url": "-", "phone": "-", "hours": "-", "longitude": 20.485514, "latitude": 54.727715 }, "geometry": { "type": "Point", "coordinates": [ 20.485514, 54.727715 ] } },
{ "type": "Feature", "properties": { "Name": "Апартаменты Семейные апартаменты в Амалиенау", "address": "ул. Космонавта Леонова, 47, Калининград, Россия", "url": "-", "phone": "+7 (911) 498-59-46", "hours": "-", "longitude": 20.48015, "latitude": 54.730137 }, "geometry": { "type": "Point", "coordinates": [ 20.48015, 54.730137 ] } },
{ "type": "Feature", "properties": { "Name": "Апартаменты на улице Космическая 36", "address": "Космическая ул., 36, Калининград, Россия", "url": "-", "phone": "+7 (921) 618-06-63", "hours": "-", "longitude": 20.499178, "latitude": 54.713284 }, "geometry": { "type": "Point", "coordinates": [ 20.499178, 54.713284 ] } },
{ "type": "Feature", "properties": { "Name": "Апартаменты на Арсенальной", "address": "Арсенальная ул., 3, Калининград, Россия", "url": "https://ars-apartments.clients.site/", "phone": "+7 (929) 165-25-15", "hours": "ежедневно, круглосуточно", "longitude": 20.543859561470644, "latitude": 54.745193396158626 }, "geometry": { "type": "Point", "coordinates": [ 20.543859561470644, 54.745193396158626 ] } },
{ "type": "Feature", "properties": { "Name": "Апартаменты Европа Парк", "address": "ул. Александра Невского, 218А, Калининград, Россия", "url": "-", "phone": "+7 (911) 484-95-69", "hours": "ежедневно, круглосуточно", "longitude": 20.544791044317396, "latitude": 54.758317524562273 }, "geometry": { "type": "Point", "coordinates": [ 20.544791044317396, 54.758317524562273 ] } },
{ "type": "Feature", "properties": { "Name": "Апарт-отель Калининград", "address": "ул. Генерала Буткова, 20, Калининград, Россия", "url": "-", "phone": "+7 (911) 455-19-88", "hours": "-", "longitude": 20.492372742773465, "latitude": 54.708641566767341 }, "geometry": { "type": "Point", "coordinates": [ 20.492372742773465, 54.708641566767341 ] } },
{ "type": "Feature", "properties": { "Name": "Апартаменты Времена года в центре города", "address": "Октябрьская ул., 12, Калининград, Россия", "url": "-", "phone": "+7 (922) 824-87-70", "hours": "-", "longitude": 20.516161381628752, "latitude": 54.701026549721284 }, "geometry": { "type": "Point", "coordinates": [ 20.516161381628752, 54.701026549721284 ] } },
{ "type": "Feature", "properties": { "Name": "Апартаменты Уютные в центре Калининграда", "address": "ул. Юрия Гагарина, 7, Калининград, Россия", "url": "-", "phone": "+7 (906) 216-59-47", "hours": "-", "longitude": 20.537885532059327, "latitude": 54.716324997007007 }, "geometry": { "type": "Point", "coordinates": [ 20.537885532059327, 54.716324997007007 ] } },
{ "type": "Feature", "properties": { "Name": "Жилое помещение Комфортная квартира в центре", "address": "Ленинский просп., 79, Калининград, Россия", "url": "-", "phone": "-", "hours": "-", "longitude": 20.511011356274178, "latitude": 54.712672315423532 }, "geometry": { "type": "Point", "coordinates": [ 20.511011356274178, 54.712672315423532 ] } },
{ "type": "Feature", "properties": { "Name": "Апартаменты Leon", "address": "ул. Космонавта Леонова, 55к2, Калининград, Россия", "url": "-", "phone": "+7 (924) 303-45-52", "hours": "-", "longitude": 20.480930729920441, "latitude": 54.73155561472548 }, "geometry": { "type": "Point", "coordinates": [ 20.480930729920441, 54.73155561472548 ] } },
{ "type": "Feature", "properties": { "Name": "Апартаменты Калининград на Черняховского 12", "address": "ул. Черняховского, 12, Калининград, Россия", "url": "-", "phone": "+7 (911) 854-82-15", "hours": "-", "longitude": 20.504831325848667, "latitude": 54.71923242049251 }, "geometry": { "type": "Point", "coordinates": [ 20.504831325848667, 54.71923242049251 ] } },
{ "type": "Feature", "properties": { "Name": "Апартаменты у Кафедрального Собора", "address": "Эпроновская ул., 33, Калининград, Россия", "url": "-", "phone": "+7 (921) 851-93-83", "hours": "-", "longitude": 20.513035540152664, "latitude": 54.7016424282237 }, "geometry": { "type": "Point", "coordinates": [ 20.513035540152664, 54.7016424282237 ] } },
{ "type": "Feature", "properties": { "Name": "Апартаменты с Террасой на Острове и Канта", "address": "Эпроновская ул., 1, Калининград, Россия", "url": "-", "phone": "+7 (962) 251-07-42", "hours": "-", "longitude": 20.5136759346098, "latitude": 54.702276411032756 }, "geometry": { "type": "Point", "coordinates": [ 20.5136759346098, 54.702276411032756 ] } },
{ "type": "Feature", "properties": { "Name": "Апартаменты на Энгельса", "address": "ул. Энгельса, 14, Калининград, Россия", "url": "-", "phone": "-", "hours": "-", "longitude": 20.459349884543236, "latitude": 54.71972128172186 }, "geometry": { "type": "Point", "coordinates": [ 20.459349884543236, 54.71972128172186 ] } },
{ "type": "Feature", "properties": { "Name": "Апартаменты Scandy Apartments", "address": "Саратовская ул., 36, Калининград, Россия", "url": "-", "phone": "+7 (981) 450-23-83", "hours": "-", "longitude": 20.444981313803918, "latitude": 54.720616218750379 }, "geometry": { "type": "Point", "coordinates": [ 20.444981313803918, 54.720616218750379 ] } },
{ "type": "Feature", "properties": { "Name": "Апартаменты Rathshof Park", "address": "Красносельская ул., 58, Калининград, Россия", "url": "-", "phone": "+7 (921) 711-10-05", "hours": "-", "longitude": 20.443521393572968, "latitude": 54.716984617596403 }, "geometry": { "type": "Point", "coordinates": [ 20.443521393572968, 54.716984617596403 ] } },
{ "type": "Feature", "properties": { "Name": "Апартаменты Угловая 9", "address": "Угловая ул., 9, Калининград, Россия", "url": "-", "phone": "+7 (911) 495-77-33", "hours": "-", "longitude": 20.527957178832256, "latitude": 54.713572581950757 }, "geometry": { "type": "Point", "coordinates": [ 20.527957178832256, 54.713572581950757 ] } },
{ "type": "Feature", "properties": { "Name": "Апартаменты у Площади Победы", "address": "ул. Черняховского, 30, Калининград, Россия", "url": "-", "phone": "+7 (952) 799-85-56", "hours": "-", "longitude": 20.509237956239033, "latitude": 54.719853195646685 }, "geometry": { "type": "Point", "coordinates": [ 20.509237956239033, 54.719853195646685 ] } },
{ "type": "Feature", "properties": { "Name": "Студия WestRooms в центре у Музея Мирового Океана", "address": "ул. Генерала Буткова, 4/3, Калининград, Россия", "url": "-", "phone": "+7 (969) 967-36-39", "hours": "-", "longitude": 20.49170995690174, "latitude": 54.708434585546897 }, "geometry": { "type": "Point", "coordinates": [ 20.49170995690174, 54.708434585546897 ] } },
{ "type": "Feature", "properties": { "Name": "Апартаменты Адмирал", "address": "Советский просп., 81, корп. 2, Калининград, Россия", "url": "-", "phone": "+7 (952) 113-60-06", "hours": "-", "longitude": 20.483214654208133, "latitude": 54.733613856545709 }, "geometry": { "type": "Point", "coordinates": [ 20.483214654208133, 54.733613856545709 ] } },
{ "type": "Feature", "properties": { "Name": "Апартаменты на набережной", "address": "наб. Генерала Карбышева, 30, Калининград, Россия", "url": "-", "phone": "+7 (921) 005-05-98", "hours": "-", "longitude": 20.500254520707461, "latitude": 54.709045177108798 }, "geometry": { "type": "Point", "coordinates": [ 20.500254520707461, 54.709045177108798 ] } },
{ "type": "Feature", "properties": { "Name": "Апартаменты на Колоскова", "address": "ул. Сержанта Колоскова, 13, Калининград, Россия", "url": "-", "phone": "+7 (981) 475-54-81", "hours": "-", "longitude": 20.485762797187935, "latitude": 54.717724414587238 }, "geometry": { "type": "Point", "coordinates": [ 20.485762797187935, 54.717724414587238 ] } },
{ "type": "Feature", "properties": { "Name": "Апартаменты на Верхнем озере", "address": "Минская ул., 24, Калининград, Россия", "url": "-", "phone": "+7 (911) 460-36-03", "hours": "-", "longitude": 20.510509788587466, "latitude": 54.718197774110749 }, "geometry": { "type": "Point", "coordinates": [ 20.510509788587466, 54.718197774110749 ] } },
{ "type": "Feature", "properties": { "Name": "Апартаменты в центре Калининграда", "address": "ул. Горького, 13, Калининград, Россия", "url": "-", "phone": "+7 (962) 260-57-18", "hours": "-", "longitude": 20.508888650171532, "latitude": 54.724118181232093 }, "geometry": { "type": "Point", "coordinates": [ 20.508888650171532, 54.724118181232093 ] } },
{ "type": "Feature", "properties": { "Name": "Апартаменты Apartburo City Centre", "address": "Малый пер., 3, Калининград, Россия", "url": "-", "phone": "+7 (906) 239-52-69", "hours": "-", "longitude": 20.511839838613817, "latitude": 54.702716311648786 }, "geometry": { "type": "Point", "coordinates": [ 20.511839838613817, 54.702716311648786 ] } },
{ "type": "Feature", "properties": { "Name": "Апартаменты Белая Студия", "address": "Воздушная ул., 64Б, Калининград, Россия", "url": "-", "phone": "+7 (906) 238-23-82", "hours": "-", "longitude": 20.450928473517745, "latitude": 54.715432552069011 }, "geometry": { "type": "Point", "coordinates": [ 20.450928473517745, 54.715432552069011 ] } },
{ "type": "Feature", "properties": { "Name": "Апартаменты Black Cat II", "address": "Бассейная ул., 36, Калининград, Россия", "url": "-", "phone": "+7 (921) 104-78-87", "hours": "-", "longitude": 20.454170750349686, "latitude": 54.718495237650146 }, "geometry": { "type": "Point", "coordinates": [ 20.454170750349686, 54.718495237650146 ] } },
{ "type": "Feature", "properties": { "Name": "Апартаменты на Фрунзе", "address": "ул. Фрунзе, 19, Калининград, Россия", "url": "-", "phone": "+7 (911) 494-38-97", "hours": "-", "longitude": 20.52111436253502, "latitude": 54.71336562589773 }, "geometry": { "type": "Point", "coordinates": [ 20.52111436253502, 54.71336562589773 ] } },
{ "type": "Feature", "properties": { "Name": "Апартаменты Ella", "address": "ул. Багратиона, 128, Калининград, Россия", "url": "-", "phone": "+7 (965) 111-88-63", "hours": "-", "longitude": 20.505628460207884, "latitude": 54.699385886567434 }, "geometry": { "type": "Point", "coordinates": [ 20.505628460207884, 54.699385886567434 ] } },
{ "type": "Feature", "properties": { "Name": "Апартаменты на Богдана Хмельницкого 40", "address": "ул. Богдана Хмельницкого, 40, Калининград, Россия", "url": "-", "phone": "+7 (962) 259-63-45", "hours": "-", "longitude": 20.511378575473362, "latitude": 54.696906651375947 }, "geometry": { "type": "Point", "coordinates": [ 20.511378575473362, 54.696906651375947 ] } },
{ "type": "Feature", "properties": { "Name": "Апартаменты South Park", "address": "просп. Калинина, 11, Калининград, Россия", "url": "-", "phone": "+7 (911) 470-44-35", "hours": "-", "longitude": 20.504723847058646, "latitude": 54.695224411790484 }, "geometry": { "type": "Point", "coordinates": [ 20.504723847058646, 54.695224411790484 ] } }
]
}
