{
"type": "FeatureCollection",
"name": "hotel",
"crs": { "type": "name", "properties": { "name": "urn:ogc:def:crs:OGC:1.3:CRS84" } },
"features": [
{ "type": "Feature", "properties": { "Name": "Holiday Inn Kaliningrad", "address": "ул. Виктора Гюго, 1, Калининград, Россия", "url": "http://www.hi-kaliningrad.com/", "phone": "+7 (4012) 31-34-13", "hours": "ежедневно, круглосуточно", "longitude": 20.505604, "latitude": 54.707893 }, "geometry": { "type": "Point", "coordinates": [ 20.505604, 54.707893 ] } },
{ "type": "Feature", "properties": { "Name": "Ibis", "address": "Московский просп., 52, Калининград, Россия", "url": "https://all.accor.com/hotel/7258/index.ru.shtml", "phone": "+7 (4012) 59-64-30", "hours": "ежедневно, круглосуточно", "longitude": 20.506762, "latitude": 54.709126 }, "geometry": { "type": "Point", "coordinates": [ 20.506762, 54.709126 ] } },
{ "type": "Feature", "properties": { "Name": "Radisson Blu Hotel, Kaliningrad", "address": "площадь Победы, 10, Калининград, Россия", "url": "https://www.radissonhotels.com/ru-ru/", "phone": "+7 (4012) 59-33-44", "hours": "ежедневно, круглосуточно", "longitude": 20.504003, "latitude": 54.719762 }, "geometry": { "type": "Point", "coordinates": [ 20.504003, 54.719762 ] } },
{ "type": "Feature", "properties": { "Name": "Кайзерхоф", "address": "Октябрьская ул., 6А, Калининград, Россия", "url": "https://kaiserhof-hotel.com/", "phone": "+7 (4012) 59-22-22", "hours": "ежедневно, круглосуточно", "longitude": 20.51581, "latitude": 54.702817 }, "geometry": { "type": "Point", "coordinates": [ 20.51581, 54.702817 ] } },
{ "type": "Feature", "properties": { "Name": "Европа", "address": "Театральная ул., 30, Калининград, Россия", "url": "http://www.hoteleuropa.ru/", "phone": "+7 (4012) 31-04-95", "hours": "ежедневно, круглосуточно", "longitude": 20.500149, "latitude": 54.717455 }, "geometry": { "type": "Point", "coordinates": [ 20.500149, 54.717455 ] } },
{ "type": "Feature", "properties": { "Name": "Гостиница Москва", "address": "просп. Мира, 21, Калининград, Россия", "url": "http://www.hotelmoskva.info/", "phone": "+7 (4012) 35-23-00", "hours": "ежедневно, круглосуточно", "longitude": 20.487184, "latitude": 54.719754 }, "geometry": { "type": "Point", "coordinates": [ 20.487184, 54.719754 ] } },
{ "type": "Feature", "properties": { "Name": "Шкиперская", "address": "Октябрьская ул., 4А, Калининград, Россия", "url": "http://www.skipperhotel.ru/", "phone": "+7 (4012) 30-72-37", "hours": "ежедневно, круглосуточно", "longitude": 20.515054, "latitude": 54.704739 }, "geometry": { "type": "Point", "coordinates": [ 20.515054, 54.704739 ] } },
{ "type": "Feature", "properties": { "Name": "Чайка", "address": "ул. Пугачёва, 13, Калининград, Россия", "url": "https://hotelchaika.ru/", "phone": "+7 (4012) 35-22-11", "hours": "ежедневно, круглосуточно", "longitude": 20.472661, "latitude": 54.72326 }, "geometry": { "type": "Point", "coordinates": [ 20.472661, 54.72326 ] } },
{ "type": "Feature", "properties": { "Name": "Параисо", "address": "ул. Тургенева, 32А, Калининград, Россия", "url": "https://ageevgroup.ru/hotels/paraiso", "phone": "+7 (4012) 21-69-69", "hours": "ежедневно, круглосуточно", "longitude": 20.522121, "latitude": 54.7365 }, "geometry": { "type": "Point", "coordinates": [ 20.522121, 54.7365 ] } },
{ "type": "Feature", "properties": { "Name": "Черепаха", "address": "Зоологический тупик, 10, Калининград, Россия", "url": "http://turtle-hotel.ru/", "phone": "+7 (4012) 95-75-00", "hours": "ежедневно, круглосуточно", "longitude": 20.490074, "latitude": 54.723795 }, "geometry": { "type": "Point", "coordinates": [ 20.490074, 54.723795 ] } },
{ "type": "Feature", "properties": { "Name": "Бриз", "address": "ул. Карла Маркса, 10, Калининград, Россия", "url": "http://hotelbriz39.ru/", "phone": "+7 (981) 470-81-18", "hours": "ежедневно, круглосуточно", "longitude": 20.483345, "latitude": 54.728693 }, "geometry": { "type": "Point", "coordinates": [ 20.483345, 54.728693 ] } },
{ "type": "Feature", "properties": { "Name": "Китай-город", "address": "Московский просп., 175, Калининград, Россия", "url": "http://www.chinatown-hotel.ru/", "phone": "+7 (4012) 50-75-05", "hours": "ежедневно, круглосуточно", "longitude": 20.548128, "latitude": 54.710693 }, "geometry": { "type": "Point", "coordinates": [ 20.548128, 54.710693 ] } },
{ "type": "Feature", "properties": { "Name": "Золотая бухта", "address": "ул. Богдана Хмельницкого, 53, Калининград, Россия", "url": "http://z-buhta-slavhotels.ru/", "phone": "+7 (4012) 64-57-77", "hours": "ежедневно, круглосуточно", "longitude": 20.508482, "latitude": 54.697253 }, "geometry": { "type": "Point", "coordinates": [ 20.508482, 54.697253 ] } },
{ "type": "Feature", "properties": { "Name": "Чайковский", "address": "ул. Чайковского, 43, Калининград, Россия", "url": "http://www.tchaikovskyhotel.ru/", "phone": "+7 (4012) 67-44-43", "hours": "ежедневно, круглосуточно", "longitude": 20.483159, "latitude": 54.725886 }, "geometry": { "type": "Point", "coordinates": [ 20.483159, 54.725886 ] } },
{ "type": "Feature", "properties": { "Name": "Коперник", "address": "ул. Коперника, 2, Калининград, Россия", "url": "https://kopernikhotel.com/", "phone": "+7 (911) 487-30-03", "hours": "ежедневно, круглосуточно", "longitude": 20.506166, "latitude": 54.710566 }, "geometry": { "type": "Point", "coordinates": [ 20.506166, 54.710566 ] } },
{ "type": "Feature", "properties": { "Name": "Дона", "address": "площадь Маршала Василевского, 2, Калининград, Россия", "url": "https://ageevgroup.ru/", "phone": "+7 (4012) 35-16-50", "hours": "ежедневно, круглосуточно", "longitude": 20.524207, "latitude": 54.719538 }, "geometry": { "type": "Point", "coordinates": [ 20.524207, 54.719538 ] } },
{ "type": "Feature", "properties": { "Name": "Гламур", "address": "Верхнеозёрная ул., 26, Калининград, Россия", "url": "http://glamour-hotel.ru/", "phone": "+7 (4012) 34-00-00", "hours": "ежедневно, круглосуточно", "longitude": 20.526807, "latitude": 54.732413 }, "geometry": { "type": "Point", "coordinates": [ 20.526807, 54.732413 ] } },
{ "type": "Feature", "properties": { "Name": "Балтика", "address": "Московский просп., 375, Калининград, Россия", "url": "http://baltica-hotel.ru/", "phone": "+7 (4012) 35-34-00", "hours": "ежедневно, круглосуточно", "longitude": 20.616753, "latitude": 54.707356 }, "geometry": { "type": "Point", "coordinates": [ 20.616753, 54.707356 ] } },
{ "type": "Feature", "properties": { "Name": "Стрелецкий", "address": "Стрелецкая ул., 7, Калининград, Россия", "url": "http://streleckaya7.ru/", "phone": "+7 (981) 459-35-01", "hours": "ежедневно, круглосуточно", "longitude": 20.5447, "latitude": 54.71821 }, "geometry": { "type": "Point", "coordinates": [ 20.5447, 54.71821 ] } },
{ "type": "Feature", "properties": { "Name": "Константа", "address": "Северная ул., 12, Калининград, Россия", "url": "https://constanta-hotel.ru/", "phone": "+7 (981) 469-77-79", "hours": "ежедневно, круглосуточно", "longitude": 20.499568, "latitude": 54.753393 }, "geometry": { "type": "Point", "coordinates": [ 20.499568, 54.753393 ] } },
{ "type": "Feature", "properties": { "Name": "Shtenvald", "address": "Монетная ул., 3, Калининград, Россия", "url": "https://shtenvald.ru/", "phone": "+7 (911) 490-88-22", "hours": "ежедневно, 08:30–22:30", "longitude": 20.497623, "latitude": 54.750363 }, "geometry": { "type": "Point", "coordinates": [ 20.497623, 54.750363 ] } },
{ "type": "Feature", "properties": { "Name": "Пруссия", "address": "Коммунистическая ул., 4А, Калининград, Россия", "url": "http://prussia.me/", "phone": "+7 (4012) 65-00-57", "hours": "ежедневно, круглосуточно", "longitude": 20.482939, "latitude": 54.680157 }, "geometry": { "type": "Point", "coordinates": [ 20.482939, 54.680157 ] } },
{ "type": "Feature", "properties": { "Name": "Smile", "address": "Коломенская ул., 27, Калининград, Россия", "url": "https://hotels-smile.ru/", "phone": "+7 (906) 234-88-28", "hours": "ежедневно, круглосуточно", "longitude": 20.472277, "latitude": 54.713219 }, "geometry": { "type": "Point", "coordinates": [ 20.472277, 54.713219 ] } },
{ "type": "Feature", "properties": { "Name": "Академическая", "address": "Артиллерийская ул., 62лит1, Калининград, Россия", "url": "https://zf.ranepa.ru/about/hotel/", "phone": "+7 (4012) 97-23-77", "hours": "ежедневно, круглосуточно", "longitude": 20.553981, "latitude": 54.7327 }, "geometry": { "type": "Point", "coordinates": [ 20.553981, 54.7327 ] } },
{ "type": "Feature", "properties": { "Name": "Тихая Гавань", "address": "Малоярославская ул., 18А, Калининград, Россия", "url": "http://harbor-hotel.ru/", "phone": "+7 (4012) 50-85-00", "hours": "ежедневно, 09:00–21:00", "longitude": 20.549074, "latitude": 54.720175 }, "geometry": { "type": "Point", "coordinates": [ 20.549074, 54.720175 ] } },
{ "type": "Feature", "properties": { "Name": "Friday Center", "address": "просп. Победы, 189Б, Калининград, Россия", "url": "http://www.friday.center/", "phone": "8 (800) 100-39-52", "hours": "ежедневно, круглосуточно", "longitude": 20.433689, "latitude": 54.709971 }, "geometry": { "type": "Point", "coordinates": [ 20.433689, 54.709971 ] } },
{ "type": "Feature", "properties": { "Name": "Crown39", "address": "ул. 1812 года, 126, Калининград, Россия", "url": "http://crown39.ru/", "phone": "+7 (906) 238-18-51", "hours": "ежедневно, 09:00–23:00", "longitude": 20.536395, "latitude": 54.711208 }, "geometry": { "type": "Point", "coordinates": [ 20.536395, 54.711208 ] } },
{ "type": "Feature", "properties": { "Name": "Buen Retiro", "address": "Рабочий пер., 7, Калининград, Россия", "url": "https://buenretiro-kaliningrad.ru/", "phone": "+7 (4012) 50-73-36", "hours": "ежедневно, круглосуточно", "longitude": 20.359813, "latitude": 54.653031 }, "geometry": { "type": "Point", "coordinates": [ 20.359813, 54.653031 ] } },
{ "type": "Feature", "properties": { "Name": "Longin", "address": "Римская ул., 33, корп. 2, Калининград, Россия", "url": "http://www.apartotel-longin39.ru/", "phone": "+7 (906) 234-51-40", "hours": "ежедневно, 08:00–23:00", "longitude": 20.538292, "latitude": 54.723517 }, "geometry": { "type": "Point", "coordinates": [ 20.538292, 54.723517 ] } },
{ "type": "Feature", "properties": { "Name": "Асгард", "address": "ул. 9 Апреля, 88А, Калининград, Россия", "url": "https://asgardotel.ru/", "phone": "+7 (4012) 37-62-76", "hours": "ежедневно, круглосуточно", "longitude": 20.526164, "latitude": 54.718887 }, "geometry": { "type": "Point", "coordinates": [ 20.526164, 54.718887 ] } },
{ "type": "Feature", "properties": { "Name": "Патриот", "address": "Озёрная ул., 25А, Калининград, Россия", "url": "http://hotel-patriot.com/", "phone": "+7 (4012) 32-87-07", "hours": "ежедневно, круглосуточно", "longitude": 20.508794, "latitude": 54.739385 }, "geometry": { "type": "Point", "coordinates": [ 20.508794, 54.739385 ] } },
{ "type": "Feature", "properties": { "Name": "Клавдия", "address": "ул. Павлова, 21, Ленинградский район, микрорайон Северная Гора, Калининград, Россия", "url": "-", "phone": "+7 (4012) 58-43-51", "hours": "ежедневно, круглосуточно", "longitude": 20.533551, "latitude": 54.750527 }, "geometry": { "type": "Point", "coordinates": [ 20.533551, 54.750527 ] } },
{ "type": "Feature", "properties": { "Name": "Алина", "address": "Физкультурная ул., 5, Калининград, Россия", "url": "http://guesthousealina.ru/", "phone": "+7 (906) 237-47-44", "hours": "ежедневно, круглосуточно", "longitude": 20.543881, "latitude": 54.711638 }, "geometry": { "type": "Point", "coordinates": [ 20.543881, 54.711638 ] } },
{ "type": "Feature", "properties": { "Name": "Sofa - boutique apartment's", "address": "Комсомольская ул., 17, Калининград, Россия", "url": "-", "phone": "+7 (909) 780-77-70", "hours": "ежедневно, круглосуточно", "longitude": 20.47862, "latitude": 54.72319 }, "geometry": { "type": "Point", "coordinates": [ 20.47862, 54.72319 ] } },
{ "type": "Feature", "properties": { "Name": "Ганза", "address": "ул. Чайковского, 17, Калининград, Россия", "url": "-", "phone": "+7 (963) 738-53-95", "hours": "ежедневно, круглосуточно", "longitude": 20.494791, "latitude": 54.723759 }, "geometry": { "type": "Point", "coordinates": [ 20.494791, 54.723759 ] } },
{ "type": "Feature", "properties": { "Name": "Вилла Татьяна", "address": "Линейная ул., 11А, Калининград, Россия", "url": "http://www.willa-tatyana.com/hotels/lineynaya", "phone": "+7 (4012) 33-33-35", "hours": "ежедневно, круглосуточно", "longitude": 20.523835, "latitude": 54.726307 }, "geometry": { "type": "Point", "coordinates": [ 20.523835, 54.726307 ] } },
{ "type": "Feature", "properties": { "Name": "Marton Olimpic", "address": "Московский просп., 175, Калининград, Россия", "url": "http://www.hotel-marton.ru/", "phone": "+7 (4012) 58-00-10", "hours": "ежедневно, круглосуточно", "longitude": 20.547171, "latitude": 54.710256 }, "geometry": { "type": "Point", "coordinates": [ 20.547171, 54.710256 ] } },
{ "type": "Feature", "properties": { "Name": "Votre Maison", "address": "ул. Демьяна Бедного, 2Б, Калининград, Россия", "url": "-", "phone": "+7 (4012) 78-00-78", "hours": "ежедневно, круглосуточно", "longitude": 20.513636, "latitude": 54.743118 }, "geometry": { "type": "Point", "coordinates": [ 20.513636, 54.743118 ] } },
{ "type": "Feature", "properties": { "Name": "Villa Art Deco Анна", "address": "ул. Тенистая Аллея, 71, Калининград, Россия", "url": "https://annakaliningrad.ru/", "phone": "+7 (4012) 92-80-88", "hours": "ежедневно, круглосуточно", "longitude": 20.419554, "latitude": 54.72163 }, "geometry": { "type": "Point", "coordinates": [ 20.419554, 54.72163 ] } },
{ "type": "Feature", "properties": { "Name": "Старый Дворик", "address": "Советский просп., 63, Калининград, Россия", "url": "-", "phone": "+7 (900) 563-35-37", "hours": "ежедневно, круглосуточно", "longitude": 20.487228, "latitude": 54.731854 }, "geometry": { "type": "Point", "coordinates": [ 20.487228, 54.731854 ] } },
{ "type": "Feature", "properties": { "Name": "Калининград", "address": "Ленинский просп., 81, Калининград, Россия", "url": "-", "phone": "-", "hours": "-", "longitude": 20.510891, "latitude": 54.711697 }, "geometry": { "type": "Point", "coordinates": [ 20.510891, 54.711697 ] } },
{ "type": "Feature", "properties": { "Name": "Бэсэдэр", "address": "ул. Щорса, 16А, Калининград, Россия", "url": "https://www.dbeseder.ru/", "phone": "+7 (963) 728-38-18", "hours": "ежедневно, круглосуточно", "longitude": 20.473452, "latitude": 54.73056 }, "geometry": { "type": "Point", "coordinates": [ 20.473452, 54.73056 ] } },
{ "type": "Feature", "properties": { "Name": "Статус", "address": "Луговая ул., 9, Калининград, Россия", "url": "http://www.sauna39.ru/", "phone": "+7 (4012) 77-31-19", "hours": "ежедневно, круглосуточно", "longitude": 20.51047, "latitude": 54.74409 }, "geometry": { "type": "Point", "coordinates": [ 20.51047, 54.74409 ] } },
{ "type": "Feature", "properties": { "Name": "Azimut Inn", "address": "ул. Сергея Тюленина, 8, Калининград, Россия", "url": "-", "phone": "+7 (921) 102-32-24", "hours": "-", "longitude": 20.5205, "latitude": 54.71034 }, "geometry": { "type": "Point", "coordinates": [ 20.5205, 54.71034 ] } },
{ "type": "Feature", "properties": { "Name": "Гладиатор", "address": "Красная ул., 136, Калининград, Россия", "url": "-", "phone": "+7 (911) 482-28-22", "hours": "ежедневно, круглосуточно", "longitude": 20.474265, "latitude": 54.734885 }, "geometry": { "type": "Point", "coordinates": [ 20.474265, 54.734885 ] } },
{ "type": "Feature", "properties": { "Name": "Комфорт", "address": "Арсенальная ул., 9, Калининград, Россия", "url": "http://sauna39.ru/gesthous/komfort", "phone": "+7 (4012) 57-36-99", "hours": "ежедневно, круглосуточно", "longitude": 20.544736, "latitude": 54.745716 }, "geometry": { "type": "Point", "coordinates": [ 20.544736, 54.745716 ] } },
{ "type": "Feature", "properties": { "Name": "КенигАвто", "address": "Московский просп., 184, Калининград, Россия", "url": "-", "phone": "+7 (4012) 46-76-52", "hours": "ежедневно, круглосуточно", "longitude": 20.550723, "latitude": 54.709081 }, "geometry": { "type": "Point", "coordinates": [ 20.550723, 54.709081 ] } },
{ "type": "Feature", "properties": { "Name": "Сударь", "address": "Физкультурная ул., 22, Калининград, Россия", "url": "-", "phone": "+7 (4012) 39-19-26", "hours": "ежедневно, круглосуточно", "longitude": 20.544519, "latitude": 54.713001 }, "geometry": { "type": "Point", "coordinates": [ 20.544519, 54.713001 ] } },
{ "type": "Feature", "properties": { "Name": "Островок", "address": "Красносельская ул., 60, Калининград, Россия", "url": "-", "phone": "-", "hours": "ежедневно, круглосуточно", "longitude": 20.443528, "latitude": 54.71726 }, "geometry": { "type": "Point", "coordinates": [ 20.443528, 54.71726 ] } },
{ "type": "Feature", "properties": { "Name": "Калина", "address": "ул. Аллея Смелых, 145, Калининград, Россия", "url": "https://bookonline24.ru/gdkalina", "phone": "+7 (4012) 68-50-70", "hours": "ежедневно, круглосуточно", "longitude": 20.521098, "latitude": 54.67224 }, "geometry": { "type": "Point", "coordinates": [ 20.521098, 54.67224 ] } },
{ "type": "Feature", "properties": { "Name": "Анатолия", "address": "Таганрогская ул., 13, Калининград, Россия", "url": "https://inn-1845.business.site/?utm_medium=referral&utm_source=gmb", "phone": "+7 (906) 230-35-36", "hours": "ежедневно, круглосуточно", "longitude": 20.548675, "latitude": 54.752676 }, "geometry": { "type": "Point", "coordinates": [ 20.548675, 54.752676 ] } },
{ "type": "Feature", "properties": { "Name": "Эрмитаж", "address": "ул. Ивана Сусанина, 46, Калининград, Россия", "url": "http://hermitagehotel39.ru/", "phone": "+7 (4012) 79-11-79", "hours": "ежедневно, круглосуточно", "longitude": 20.491182, "latitude": 54.754277 }, "geometry": { "type": "Point", "coordinates": [ 20.491182, 54.754277 ] } },
{ "type": "Feature", "properties": { "Name": "Ашман Парк", "address": "ул. Герцена, 1, Калининград, Россия", "url": "http://www.otel39.ru/kafe/kafe-ashman-park", "phone": "+7 (4012) 77-02-03", "hours": "ежедневно, круглосуточно", "longitude": 20.52512, "latitude": 54.747541 }, "geometry": { "type": "Point", "coordinates": [ 20.52512, 54.747541 ] } },
{ "type": "Feature", "properties": { "Name": "Ника", "address": "ул. Тельмана, 14Б, Калининград, Россия", "url": "-", "phone": "+7 (952) 798-14-95", "hours": "ежедневно, круглосуточно", "longitude": 20.520378, "latitude": 54.732528 }, "geometry": { "type": "Point", "coordinates": [ 20.520378, 54.732528 ] } },
{ "type": "Feature", "properties": { "Name": "Турист", "address": "ул. Генерал-Лейтенанта Озерова, 40, Калининград, Россия", "url": "https://turist-ulitsa-general-lejtenanta-ozerova.clients.site/", "phone": "+7 (906) 239-42-42", "hours": "ежедневно, круглосуточно", "longitude": 20.513226, "latitude": 54.725487 }, "geometry": { "type": "Point", "coordinates": [ 20.513226, 54.725487 ] } },
{ "type": "Feature", "properties": { "Name": "Максим", "address": "ул. Сержанта Мишина, 56В, Калининград, Россия", "url": "-", "phone": "+7 (4012) 90-00-23", "hours": "ежедневно, круглосуточно", "longitude": 20.433381, "latitude": 54.721862 }, "geometry": { "type": "Point", "coordinates": [ 20.433381, 54.721862 ] } },
{ "type": "Feature", "properties": { "Name": "Crown39 - Strela", "address": "ул. Памяти Павших в Афганистане, 24, Калининград, Россия", "url": "http://crown39.ru/", "phone": "+7 (906) 238-18-51", "hours": "ежедневно, 09:00–23:00", "longitude": 20.494919, "latitude": 54.73102 }, "geometry": { "type": "Point", "coordinates": [ 20.494919, 54.73102 ] } },
{ "type": "Feature", "properties": { "Name": "Holiday Home", "address": "пер. Айвазовского, 8А, Калининград, Россия", "url": "-", "phone": "+7 (906) 237-95-75", "hours": "ежедневно, круглосуточно", "longitude": 20.568636, "latitude": 54.677365 }, "geometry": { "type": "Point", "coordinates": [ 20.568636, 54.677365 ] } },
{ "type": "Feature", "properties": { "Name": "Порт 55", "address": "Портовая ул., 55, Калининград, Россия", "url": "http://www.port55.ru/", "phone": "+7 (962) 255-51-61", "hours": "ежедневно, круглосуточно", "longitude": 20.476947, "latitude": 54.698326 }, "geometry": { "type": "Point", "coordinates": [ 20.476947, 54.698326 ] } },
{ "type": "Feature", "properties": { "Name": "Душевное пространство", "address": "ул. Радистов, 52, Калининград, Россия", "url": "-", "phone": "+7 (906) 235-84-84", "hours": "-", "longitude": 20.43955, "latitude": 54.720128 }, "geometry": { "type": "Point", "coordinates": [ 20.43955, 54.720128 ] } },
{ "type": "Feature", "properties": { "Name": "Гросс Хаус", "address": "ул. 9 Апреля, 88А, Калининград, Россия", "url": "https://asgardotel.ru/grosshouse.html", "phone": "+7 (963) 351-88-42", "hours": "ежедневно, круглосуточно", "longitude": 20.525579, "latitude": 54.719168 }, "geometry": { "type": "Point", "coordinates": [ 20.525579, 54.719168 ] } },
{ "type": "Feature", "properties": { "Name": "Янтарь", "address": "Транспортная ул., 6, Калининград, Россия", "url": "-", "phone": "+7 (4012) 61-30-46", "hours": "ежедневно, круглосуточно", "longitude": 20.447383, "latitude": 54.693491 }, "geometry": { "type": "Point", "coordinates": [ 20.447383, 54.693491 ] } },
{ "type": "Feature", "properties": { "Name": "У Каштана", "address": "ул. Радистов, 52А, Калининград, Россия", "url": "-", "phone": "+7 (906) 237-72-79", "hours": "ежедневно, круглосуточно", "longitude": 20.440108, "latitude": 54.720023 }, "geometry": { "type": "Point", "coordinates": [ 20.440108, 54.720023 ] } },
{ "type": "Feature", "properties": { "Name": "Пушкин Холл", "address": "ул. Достоевского, 19, Калининград, Россия", "url": "-", "phone": "+7 (4012) 36-57-52", "hours": "-", "longitude": 20.530338, "latitude": 54.73751 }, "geometry": { "type": "Point", "coordinates": [ 20.530338, 54.73751 ] } },
{ "type": "Feature", "properties": { "Name": "Верхнее Озеро", "address": "ул. Тельмана, 5, Калининград, Россия", "url": "-", "phone": "+7 (906) 239-42-42", "hours": "ежедневно, круглосуточно", "longitude": 20.517608, "latitude": 54.73141 }, "geometry": { "type": "Point", "coordinates": [ 20.517608, 54.73141 ] } },
{ "type": "Feature", "properties": { "Name": "Поделам", "address": "ул. 9 Апреля, 86А, Калининград, Россия", "url": "http://podelam74.ru/", "phone": "+7 (966) 666-24-67", "hours": "ежедневно, круглосуточно", "longitude": 20.525624, "latitude": 54.718396 }, "geometry": { "type": "Point", "coordinates": [ 20.525624, 54.718396 ] } },
{ "type": "Feature", "properties": { "Name": "KenigDeluxe", "address": "ул. Памяти Павших в Афганистане, 24, Калининград, Россия", "url": "https://kenigdeluxe.ru/", "phone": "+7 (906) 238-78-87", "hours": "-", "longitude": 20.49582, "latitude": 54.731221 }, "geometry": { "type": "Point", "coordinates": [ 20.49582, 54.731221 ] } },
{ "type": "Feature", "properties": { "Name": "Светлана", "address": "ул. Партизана Железняка, 1, Калининград, Россия", "url": "-", "phone": "+7 (905) 248-76-88", "hours": "-", "longitude": 20.538723, "latitude": 54.728455 }, "geometry": { "type": "Point", "coordinates": [ 20.538723, 54.728455 ] } },
{ "type": "Feature", "properties": { "Name": "Гросс Хаус", "address": "Мариупольская ул., 16, Калининград, Россия", "url": "https://asgardotel.ru/grosshouse.html", "phone": "+7 (963) 351-88-42", "hours": "ежедневно, 09:00–21:00", "longitude": 20.49916, "latitude": 54.707718 }, "geometry": { "type": "Point", "coordinates": [ 20.49916, 54.707718 ] } },
{ "type": "Feature", "properties": { "Name": "Wanderlust Inn", "address": "ул. Профессора Севастьянова, 8, Калининград, Россия", "url": "-", "phone": "+7 (995) 303-22-43", "hours": "-", "longitude": 20.50917, "latitude": 54.71482 }, "geometry": { "type": "Point", "coordinates": [ 20.50917, 54.71482 ] } },
{ "type": "Feature", "properties": { "Name": "Cozy Home", "address": "Ленинский просп., 10, Калининград, Россия", "url": "https://realtycalendar.ru/booking-widget/14fde4353ef8c8958a0ef477a0ff6984", "phone": "-", "hours": "ежедневно, круглосуточно", "longitude": 20.504082, "latitude": 54.714781 }, "geometry": { "type": "Point", "coordinates": [ 20.504082, 54.714781 ] } },
{ "type": "Feature", "properties": { "Name": "Elegant", "address": "ул. Горького, 96, Калининград, Россия", "url": "https://euro-apart.ru/", "phone": "+7 (905) 245-09-18", "hours": "ежедневно, круглосуточно", "longitude": 20.511516, "latitude": 54.731582 }, "geometry": { "type": "Point", "coordinates": [ 20.511516, 54.731582 ] } },
{ "type": "Feature", "properties": { "Name": "Crown39 - Gaidara", "address": "ул. Гайдара, 116, Калининград, Россия", "url": "http://crown39.ru/", "phone": "+7 (906) 238-18-51", "hours": "ежедневно, 09:00–23:00", "longitude": 20.50033, "latitude": 54.74257 }, "geometry": { "type": "Point", "coordinates": [ 20.50033, 54.74257 ] } },
{ "type": "Feature", "properties": { "Name": "Country House on Parkhomenko, 8", "address": "ул. Пархоменко, 8, Калининград, Россия", "url": "-", "phone": "+7 (963) 296-30-30", "hours": "ежедневно, круглосуточно", "longitude": 20.57102, "latitude": 54.67432 }, "geometry": { "type": "Point", "coordinates": [ 20.57102, 54.67432 ] } },
{ "type": "Feature", "properties": { "Name": "Мини-отель Vorderhof Rest", "address": "ул. Генерала Челнокова, 38, Калининград, Россия", "url": "-", "phone": "+7 (921) 852-45-35", "hours": "-", "longitude": 20.487344, "latitude": 54.742313 }, "geometry": { "type": "Point", "coordinates": [ 20.487344, 54.742313 ] } },
{ "type": "Feature", "properties": { "Name": "Янтарь", "address": "ул. Олега Кошевого, 34, Калининград, Россия", "url": "-", "phone": "-", "hours": "-", "longitude": 20.509197, "latitude": 54.67302 }, "geometry": { "type": "Point", "coordinates": [ 20.509197, 54.67302 ] } },
{ "type": "Feature", "properties": { "Name": "Без звёзд", "address": "ул. Д. Бедного, 2Б, Калининград, Россия", "url": "-", "phone": "-", "hours": "-", "longitude": 20.51362, "latitude": 54.74314 }, "geometry": { "type": "Point", "coordinates": [ 20.51362, 54.74314 ] } },
{ "type": "Feature", "properties": { "Name": "Янтарь", "address": "Транспортный тупик, 2Г, Калининград, Россия", "url": "-", "phone": "+7 (4012) 61-30-44", "hours": "ежедневно, круглосуточно", "longitude": 20.448673, "latitude": 54.69476 }, "geometry": { "type": "Point", "coordinates": [ 20.448673, 54.69476 ] } },
{ "type": "Feature", "properties": { "Name": "Neuhof Rest", "address": "Орудийная ул., 32Б, Калининград, Россия", "url": "-", "phone": "+7 (921) 852-45-35", "hours": "-", "longitude": 20.56069, "latitude": 54.73182 }, "geometry": { "type": "Point", "coordinates": [ 20.56069, 54.73182 ] } },
{ "type": "Feature", "properties": { "Name": "Kenig Holidays", "address": "Ленинский просп., 56, Калининград, Россия", "url": "https://taplink.cc/kenig.holidays", "phone": "+7 (931) 601-17-50", "hours": "ежедневно, 08:00–22:00", "longitude": 20.503659, "latitude": 54.701232 }, "geometry": { "type": "Point", "coordinates": [ 20.503659, 54.701232 ] } },
{ "type": "Feature", "properties": { "Name": "Мини отель Da Rooms", "address": "ул. Сергея Тюленина, 8, Калининград, Россия", "url": "-", "phone": "+7 (921) 102-32-24", "hours": "-", "longitude": 20.520494, "latitude": 54.710247 }, "geometry": { "type": "Point", "coordinates": [ 20.520494, 54.710247 ] } },
{ "type": "Feature", "properties": { "Name": "Pro. Apart on Aksakov 102", "address": "ул. Аксакова, 102, Калининград, Россия", "url": "-", "phone": "-", "hours": "-", "longitude": 20.579901, "latitude": 54.7108 }, "geometry": { "type": "Point", "coordinates": [ 20.579901, 54.7108 ] } },
{ "type": "Feature", "properties": { "Name": "Отель Ljuchija 17", "address": "Майский пер., 2, Калининград, Россия", "url": "-", "phone": "+7 (903) 539-54-00", "hours": "-", "longitude": 20.532604, "latitude": 54.728504 }, "geometry": { "type": "Point", "coordinates": [ 20.532604, 54.728504 ] } },
{ "type": "Feature", "properties": { "Name": "Мини-отель Hanse", "address": "ул. Чайковского, 17, Калининград, Россия", "url": "-", "phone": "+7 (963) 738-53-95", "hours": "-", "longitude": 20.49475, "latitude": 54.723755 }, "geometry": { "type": "Point", "coordinates": [ 20.49475, 54.723755 ] } },
{ "type": "Feature", "properties": { "Name": "Mercure", "address": "Озёрный пр., 2, Калининград, Россия", "url": "https://all.accor.com/hotel/A336/index.ru.shtml", "phone": "+7 (4012) 55-88-00", "hours": "ежедневно, круглосуточно", "longitude": 20.516591296788825, "latitude": 54.721578383342091 }, "geometry": { "type": "Point", "coordinates": [ 20.516591296788825, 54.721578383342091 ] } },
{ "type": "Feature", "properties": { "Name": "Маяк", "address": "Солдатская ул., 2, Калининград, Россия", "url": "http://www.mayak-slavhotels.ru/", "phone": "+7 (4012) 72-03-71", "hours": "ежедневно, круглосуточно", "longitude": 20.480908338505881, "latitude": 54.738112664307145 }, "geometry": { "type": "Point", "coordinates": [ 20.480908338505881, 54.738112664307145 ] } },
{ "type": "Feature", "properties": { "Name": "Берлин", "address": "Киевская ул., 17Б, Калининград, Россия", "url": "http://www.hotel-berlin.su/", "phone": "+7 (4012) 56-97-00", "hours": "ежедневно, круглосуточно", "longitude": 20.497854161063927, "latitude": 54.689499098510872 }, "geometry": { "type": "Point", "coordinates": [ 20.497854161063927, 54.689499098510872 ] } },
{ "type": "Feature", "properties": { "Name": "Crystal House Suite Hotel&SPA", "address": "ул. Сергеева, 4, Калининград, Россия", "url": "http://crystalhousehotel.ru/", "phone": "+7 (4012) 69-26-00", "hours": "ежедневно, круглосуточно", "longitude": 20.51575833616624, "latitude": 54.714948812834869 }, "geometry": { "type": "Point", "coordinates": [ 20.51575833616624, 54.714948812834869 ] } },
{ "type": "Feature", "properties": { "Name": "Турист", "address": "ул. Александра Невского, 53, Калининград, Россия", "url": "http://tourist39.com/", "phone": "+7 (4012) 35-45-08", "hours": "ежедневно, круглосуточно", "longitude": 20.530939715255013, "latitude": 54.731736620083467 }, "geometry": { "type": "Point", "coordinates": [ 20.530939715255013, 54.731736620083467 ] } },
{ "type": "Feature", "properties": { "Name": "Витязь", "address": "наб. Петра Великого, 1, Калининград, Россия", "url": "-", "phone": "+7 (4012) 34-02-33", "hours": "ежедневно, круглосуточно", "longitude": 20.499663387362393, "latitude": 54.706680377289423 }, "geometry": { "type": "Point", "coordinates": [ 20.499663387362393, 54.706680377289423 ] } },
{ "type": "Feature", "properties": { "Name": "У Медового моста", "address": "Октябрьская ул., 2, Калининград, Россия", "url": "http://honeybridge.ru/", "phone": "+7 (909) 788-90-25", "hours": "ежедневно, круглосуточно", "longitude": 20.514495460383621, "latitude": 54.705208129204159 }, "geometry": { "type": "Point", "coordinates": [ 20.514495460383621, 54.705208129204159 ] } },
{ "type": "Feature", "properties": { "Name": "Обертайх Люкс", "address": "ул. Гоголя, 17, Калининград, Россия", "url": "https://oberteich.ru/", "phone": "+7 (4012) 33-22-44", "hours": "ежедневно, круглосуточно", "longitude": 20.522654891858505, "latitude": 54.732067599218531 }, "geometry": { "type": "Point", "coordinates": [ 20.522654891858505, 54.732067599218531 ] } },
{ "type": "Feature", "properties": { "Name": "Обертайх", "address": "Верхнеозёрная ул., 11, Калининград, Россия", "url": "https://oberteich.ru/", "phone": "+7 (4012) 36-50-20", "hours": "ежедневно, круглосуточно", "longitude": 20.519726094830755, "latitude": 54.730423019984421 }, "geometry": { "type": "Point", "coordinates": [ 20.519726094830755, 54.730423019984421 ] } },
{ "type": "Feature", "properties": { "Name": "Мартон Пелас", "address": "Большевистский пер., 3, Калининград, Россия", "url": "http://www.hotel-marton.ru/", "phone": "8 (800) 777-21-55", "hours": "ежедневно, круглосуточно", "longitude": 20.505117935955344, "latitude": 54.696849715176548 }, "geometry": { "type": "Point", "coordinates": [ 20.505117935955344, 54.696849715176548 ] } },
{ "type": "Feature", "properties": { "Name": "Орион", "address": "ул. Подполковника Иванникова, 8, Калининград, Россия", "url": "http://orion39.ru/", "phone": "+7 (906) 238-88-32", "hours": "ежедневно, круглосуточно", "longitude": 20.506103158197099, "latitude": 54.71789772172076 }, "geometry": { "type": "Point", "coordinates": [ 20.506103158197099, 54.71789772172076 ] } },
{ "type": "Feature", "properties": { "Name": "Фридрихсхофф", "address": "ул. Чкалова, 31А, Калининград, Россия", "url": "http://www.fridrihotel.ru/", "phone": "+7 (4012) 93-33-00", "hours": "ежедневно, круглосуточно", "longitude": 20.459166274943644, "latitude": 54.726564719946154 }, "geometry": { "type": "Point", "coordinates": [ 20.459166274943644, 54.726564719946154 ] } },
{ "type": "Feature", "properties": { "Name": "Вилла Тоскана", "address": "ул. Пушкина, 15, Калининград, Россия", "url": "http://villatoscana.ru/", "phone": "+7 (909) 781-41-99", "hours": "ежедневно, круглосуточно", "longitude": 20.473756520687349, "latitude": 54.716926416211393 }, "geometry": { "type": "Point", "coordinates": [ 20.473756520687349, 54.716926416211393 ] } },
{ "type": "Feature", "properties": { "Name": "Навигатор", "address": "Советский просп., 285, Калининград, Россия", "url": "http://navigator-group.ru/", "phone": "+7 (4012) 56-62-22", "hours": "ежедневно, круглосуточно", "longitude": 20.440679923062117, "latitude": 54.76083951638725 }, "geometry": { "type": "Point", "coordinates": [ 20.440679923062117, 54.76083951638725 ] } },
{ "type": "Feature", "properties": { "Name": "На Каштановой", "address": "ул. Каштановая Аллея, 1В, Калининград, Россия", "url": "https://kashtanotel.ru/", "phone": "+7 (911) 476-50-50", "hours": "ежедневно, круглосуточно", "longitude": 20.464694715204729, "latitude": 54.712550726170896 }, "geometry": { "type": "Point", "coordinates": [ 20.464694715204729, 54.712550726170896 ] } },
{ "type": "Feature", "properties": { "Name": "Шерлок", "address": "ул. Генерал-Лейтенанта Озерова, 24А, Калининград, Россия", "url": "-", "phone": "+7 (4012) 33-62-42", "hours": "ежедневно, круглосуточно", "longitude": 20.5081452552073, "latitude": 54.724521637531382 }, "geometry": { "type": "Point", "coordinates": [ 20.5081452552073, 54.724521637531382 ] } },
{ "type": "Feature", "properties": { "Name": "Салвэ", "address": "ул. Тенистая Аллея, 21А, Калининград, Россия", "url": "http://salve-boutique-hotel.ru/", "phone": "+7 (911) 857-22-25", "hours": "ежедневно, круглосуточно", "longitude": 20.430337328665232, "latitude": 54.713893361745505 }, "geometry": { "type": "Point", "coordinates": [ 20.430337328665232, 54.713893361745505 ] } },
{ "type": "Feature", "properties": { "Name": "Maziiz", "address": "Советский просп., 230, Калининград, Россия", "url": "http://maziiz-hotel.ru/", "phone": "+7 (4012) 39-87-33", "hours": "ежедневно, круглосуточно", "longitude": 20.459864887078702, "latitude": 54.748393408412404 }, "geometry": { "type": "Point", "coordinates": [ 20.459864887078702, 54.748393408412404 ] } },
{ "type": "Feature", "properties": { "Name": "Quokka", "address": "ул. Генделя, 10, Калининград, Россия", "url": "-", "phone": "+7 (981) 453-80-21", "hours": "ежедневно, круглосуточно", "longitude": 20.496586806998426, "latitude": 54.722031006635618 }, "geometry": { "type": "Point", "coordinates": [ 20.496586806998426, 54.722031006635618 ] } },
{ "type": "Feature", "properties": { "Name": "Вилла Татьяна", "address": "ул. Тургенева, 12, Калининград, Россия", "url": "http://willa-tatyana.com/", "phone": "+7 (4012) 96-50-06", "hours": "ежедневно, круглосуточно", "longitude": 20.517366039733467, "latitude": 54.733463887683293 }, "geometry": { "type": "Point", "coordinates": [ 20.517366039733467, 54.733463887683293 ] } },
{ "type": "Feature", "properties": { "Name": "Ластадие", "address": "ул. Виктора Гюго, 1, Калининград, Россия", "url": "http://www.aparts.lastadie.com/", "phone": "+7 (4012) 30-03-73", "hours": "ежедневно, круглосуточно", "longitude": 20.505915070314575, "latitude": 54.708377665526072 }, "geometry": { "type": "Point", "coordinates": [ 20.505915070314575, 54.708377665526072 ] } },
{ "type": "Feature", "properties": { "Name": "Робинзон", "address": "ул. Достоевского, 22А, Калининград, Россия", "url": "http://www.robinzon39.ru/", "phone": "+7 (4012) 36-53-67", "hours": "ежедневно, круглосуточно", "longitude": 20.530903888991674, "latitude": 54.738035102888375 }, "geometry": { "type": "Point", "coordinates": [ 20.530903888991674, 54.738035102888375 ] } },
{ "type": "Feature", "properties": { "Name": "Вилла Надежда", "address": "ул. Лескова, 36А, Калининград, Россия", "url": "https://ambertour.ru/", "phone": "+7 (4012) 38-53-85", "hours": "ежедневно, круглосуточно", "longitude": 20.52827961520228, "latitude": 54.736964740144693 }, "geometry": { "type": "Point", "coordinates": [ 20.52827961520228, 54.736964740144693 ] } },
{ "type": "Feature", "properties": { "Name": "Вилла Татьяна", "address": "Верхнеозёрная ул., 16А, Калининград, Россия", "url": "http://www.willa-tatyana.com/hotels/verhneozernaya", "phone": "+7 (4012) 36-36-44", "hours": "ежедневно, круглосуточно", "longitude": 20.521956279723447, "latitude": 54.730247180519072 }, "geometry": { "type": "Point", "coordinates": [ 20.521956279723447, 54.730247180519072 ] } },
{ "type": "Feature", "properties": { "Name": "Парк Отель", "address": "ул. Аллея Смелых, 187, Калининград, Россия", "url": "https://bookonline24.ru/gostinicza-park-otel", "phone": "+7 (952) 111-88-55", "hours": "ежедневно, круглосуточно", "longitude": 20.519305136236543, "latitude": 54.66921070214223 }, "geometry": { "type": "Point", "coordinates": [ 20.519305136236543, 54.66921070214223 ] } },
{ "type": "Feature", "properties": { "Name": "Ратсхоф", "address": "ул. Белинского, 3, Калининград, Россия", "url": "-", "phone": "+7 (911) 460-57-77", "hours": "ежедневно, круглосуточно", "longitude": 20.452773526079561, "latitude": 54.717067392755609 }, "geometry": { "type": "Point", "coordinates": [ 20.452773526079561, 54.717067392755609 ] } },
{ "type": "Feature", "properties": { "Name": "Отель в центре города на Уральской", "address": "Уральская ул., 20, Калининград, Россия", "url": "https://nauralskoy-hotel.ru/", "phone": "+7 (909) 796-35-77", "hours": "ежедневно, круглосуточно", "longitude": 20.501741310635932, "latitude": 54.724221631948105 }, "geometry": { "type": "Point", "coordinates": [ 20.501741310635932, 54.724221631948105 ] } },
{ "type": "Feature", "properties": { "Name": "Вилла Татьяна", "address": "ул. Сурикова, 17А, Калининград, Россия", "url": "http://www.willa-tatyana.com/", "phone": "+7 (4012) 37-66-67", "hours": "ежедневно, круглосуточно", "longitude": 20.554853746031981, "latitude": 54.737047474505346 }, "geometry": { "type": "Point", "coordinates": [ 20.554853746031981, 54.737047474505346 ] } },
{ "type": "Feature", "properties": { "Name": "Альтхоф", "address": "Харьковская ул., 83, Калининград, Россия", "url": "https://bookonline24.ru/otel-althof", "phone": "+7 (906) 237-47-07", "hours": "ежедневно, круглосуточно", "longitude": 20.4471308896041, "latitude": 54.710263745498523 }, "geometry": { "type": "Point", "coordinates": [ 20.4471308896041, 54.710263745498523 ] } },
{ "type": "Feature", "properties": { "Name": "Феникс", "address": "ул. Генерал-Фельдмаршала Румянцева, 3, корп. 1, Калининград, Россия", "url": "https://hotelfenix39.ru/", "phone": "+7 (921) 100-99-94", "hours": "ежедневно, круглосуточно", "longitude": 20.486996564131584, "latitude": 54.713153494847219 }, "geometry": { "type": "Point", "coordinates": [ 20.486996564131584, 54.713153494847219 ] } },
{ "type": "Feature", "properties": { "Name": "Гостиница Университетская 11", "address": "Университетская ул., 11, Калининград, Россия", "url": "-", "phone": "-", "hours": "ежедневно, 09:00–18:00, перерыв 13:00–14:00", "longitude": 20.507957167324768, "latitude": 54.714033055378884 }, "geometry": { "type": "Point", "coordinates": [ 20.507957167324768, 54.714033055378884 ] } },
{ "type": "Feature", "properties": { "Name": "Весна 1", "address": "площадь Калинина, 28, Калининград, Россия", "url": "-", "phone": "-", "hours": "-", "longitude": 20.501033741935004, "latitude": 54.695752383724255 }, "geometry": { "type": "Point", "coordinates": [ 20.501033741935004, 54.695752383724255 ] } },
{ "type": "Feature", "properties": { "Name": "Life for Funny Konig", "address": "ул. Генерала Соммера, 19, Калининград, Россия", "url": "-", "phone": "+7 (911) 864-35-04", "hours": "-", "longitude": 20.507715340047238, "latitude": 54.716366385281127 }, "geometry": { "type": "Point", "coordinates": [ 20.507715340047238, 54.716366385281127 ] } },
{ "type": "Feature", "properties": { "Name": "Котбус", "address": "Колхозная ул., 6, Калининград, Россия", "url": "https://hotel-cotbus.ru/", "phone": "+7 (4012) 58-58-88", "hours": "ежедневно, круглосуточно", "longitude": 20.52750487225763, "latitude": 54.744924562937598 }, "geometry": { "type": "Point", "coordinates": [ 20.52750487225763, 54.744924562937598 ] } },
{ "type": "Feature", "properties": { "Name": "Альтхоф", "address": "Харьковская ул., 83, Калининград, Россия", "url": "https://bookonline24.ru/otel-althof", "phone": "+7 (906) 237-47-07", "hours": "ежедневно, круглосуточно", "longitude": 20.4471308896041, "latitude": 54.710263745498523 }, "geometry": { "type": "Point", "coordinates": [ 20.4471308896041, 54.710263745498523 ] } }
]
}
