{
"type": "FeatureCollection",
"name": "fitness_centre",
"features": [
{ "type": "Feature", "properties": { "Name": "World Class", "address": "—É–ª. –î–º–∏—Ç—Ä–∏—è –î–æ–Ω—Å–∫–æ–≥–æ, 19", "latitude": 54.715080016625997, "longitude": 20.486490009579001 }, "geometry": { "type": "Point", "coordinates": [ 20.486490009579001, 54.715080016625997 ] } },
{ "type": "Feature", "properties": { "Name": "–í–ò–í–ê", "address": "—É–ª. –û–ª–µ–≥–∞ –ö–æ—à–µ–≤–æ–≥–æ, 33", "latitude": 54.670789998337, "longitude": 20.513379993156001 }, "geometry": { "type": "Point", "coordinates": [ 20.513379993156001, 54.670789998337 ] } },
{ "type": "Feature", "properties": { "Name": "Re-—Ñ–æ—Ä–º–∞", "address": "—É–ª. –£–ª—å—è–Ω—ã –ì—Ä–æ–º–æ–≤–æ–π, 66, –£–ª—å—è–Ω—ã –ì—Ä–æ–º–æ–≤–æ–π, 66 (–≤—Ö–æ–¥ —Å–ª–µ–≤–∞ —Å —Ç–æ—Ä—Ü–∞, ), —ç—Ç–∞–∂ 2", "latitude": 54.666210000713001, "longitude": 20.499439966166001 }, "geometry": { "type": "Point", "coordinates": [ 20.499439966166001, 54.666210000713001 ] } },
{ "type": "Feature", "properties": { "Name": "–ì–µ—Ä–∫—É–ª–µ—Å Max", "address": "—É–ª. –ê–∫—Å–∞–∫–æ–≤–∞, 137, —ç—Ç–∞–∂ —Ü–æ–∫–æ–ª—å–Ω—ã–π", "latitude": 54.711559994478002, "longitude": 20.585699975762999 }, "geometry": { "type": "Point", "coordinates": [ 20.585699975762999, 54.711559994478002 ] } },
{ "type": "Feature", "properties": { "Name": "NEWFitness", "address": "—É–ª. –ì–µ–Ω–µ—Ä–∞–ª–∞ –ß–µ–ª–Ω–æ–∫–æ–≤–∞, 25, —ç—Ç–∞–∂ 3", "latitude": 54.739720978712, "longitude": 20.485853831579998 }, "geometry": { "type": "Point", "coordinates": [ 20.485532373754996, 54.739643655782764 ] } },
{ "type": "Feature", "properties": { "Name": "Xfit", "address": "–ë–∞—Å—Å–µ–π–Ω–∞—è —É–ª., 46", "latitude": 54.720318229482999, "longitude": 20.453037558813001 }, "geometry": { "type": "Point", "coordinates": [ 20.453251864029671, 54.720318229482999 ] } },
{ "type": "Feature", "properties": { "Name": "–¢–∏—Ç–∞–Ω", "address": "–ú–æ—Å–∫–æ–≤—Å–∫–∏–π –ø—Ä–æ—Å–ø., 48–ê, —ç—Ç–∞–∂ 6", "latitude": 54.709190011354998, "longitude": 20.503720017385 }, "geometry": { "type": "Point", "coordinates": [ 20.503720017385, 54.709190011354998 ] } },
{ "type": "Feature", "properties": { "Name": "–ü–æ–±–µ–¥–∞ 33", "address": "–ø—Ä–æ—Å–ø. –ü–æ–±–µ–¥—ã, 33", "latitude": 54.715890001839, "longitude": 20.467949994125998 }, "geometry": { "type": "Point", "coordinates": [ 20.467949994125998, 54.715890001839 ] } },
{ "type": "Feature", "properties": { "Name": "Egoiste", "address": "—É–ª. 9 –ê–ø—Ä–µ–ª—è, 88–ê, —ç—Ç–∞–∂ 2", "latitude": 54.719140000975997, "longitude": 20.525719998648999 }, "geometry": { "type": "Point", "coordinates": [ 20.525719998648999, 54.719140000975997 ] } },
{ "type": "Feature", "properties": { "Name": "State of Fitness", "address": "–ê—Ä—Ç–∏–ª–ª–µ—Ä–∏–π—Å–∫–∞—è —É–ª., 34", "latitude": 54.730310018513997, "longitude": 20.542299989863 }, "geometry": { "type": "Point", "coordinates": [ 20.542299989863, 54.730310018513997 ] } },
{ "type": "Feature", "properties": { "Name": "Grif", "address": "—É–ª. 1812 –≥–æ–¥–∞, 126, —ç—Ç–∞–∂ —Ü–æ–∫–æ–ª—å–Ω—ã–π", "latitude": 54.711149993684003, "longitude": 20.536749996495001 }, "geometry": { "type": "Point", "coordinates": [ 20.536749996495001, 54.711149993684003 ] } },
{ "type": "Feature", "properties": { "Name": "–ê–ª—å–±–∞—Ç—Ä–æ—Å –í–æ—Å—Ç–æ–∫", "address": "–ú–æ—Å–∫–æ–≤—Å–∫–∏–π –ø—Ä–æ—Å–ø., 273", "latitude": 54.705998367376999, "longitude": 20.589564479309999 }, "geometry": { "type": "Point", "coordinates": [ 20.589564479309999, 54.705998367376999 ] } },
{ "type": "Feature", "properties": { "Name": "Ufit", "address": "—É–ª. –§—Ä—É–Ω–∑–µ, 51, —ç—Ç–∞–∂ 2", "latitude": 54.712839994911, "longitude": 20.526430029667001 }, "geometry": { "type": "Point", "coordinates": [ 20.526430029667001, 54.712839994911 ] } },
{ "type": "Feature", "properties": { "Name": "–ê—Ç–ª–µ—Ç–∏–∫–∞", "address": "—É–ª. –î–∑–µ—Ä–∂–∏–Ω—Å–∫–æ–≥–æ, 168–ï", "latitude": 54.670520017236001, "longitude": 20.544869965196 }, "geometry": { "type": "Point", "coordinates": [ 20.544869965196, 54.670520017236001 ] } },
{ "type": "Feature", "properties": { "Name": "–ß–µ–º–ø–∏–æ–Ω", "address": "—É–ª. –Æ—Ä–∏—è –ì–∞–≥–∞—Ä–∏–Ω–∞, 1, —ç—Ç–∞–∂ 2", "latitude": 54.715260017996002, "longitude": 20.536670033139 }, "geometry": { "type": "Point", "coordinates": [ 20.536670033139, 54.715260017996002 ] } },
{ "type": "Feature", "properties": { "Name": "Profitness", "address": "—É–ª. –ü—Ä–æ—Ñ–µ—Å—Å–æ—Ä–∞ –ë–∞—Ä–∞–Ω–æ–≤–∞, 36, —ç—Ç–∞–∂ 1, 2", "latitude": 54.720780004151997, "longitude": 20.504700029504001 }, "geometry": { "type": "Point", "coordinates": [ 20.504700029504001, 54.720780004151997 ] } },
{ "type": "Feature", "properties": { "Name": "–°–∏—Ä–∏—É—Å", "address": "—É–ª. –õ–∏—Ç–æ–≤—Å–∫–∏–π –í–∞–ª, 36", "latitude": 54.718209986909002, "longitude": 20.530170034864 }, "geometry": { "type": "Point", "coordinates": [ 20.530170034864, 54.718209986909002 ] } },
{ "type": "Feature", "properties": { "Name": "Oberteich", "address": "—É–ª. –ì–æ–≥–æ–ª—è, 17", "latitude": 54.732020010581003, "longitude": 20.52260000283 }, "geometry": { "type": "Point", "coordinates": [ 20.52260000283, 54.732020010581003 ] } },
{ "type": "Feature", "properties": { "Name": "Lift Gym", "address": "–ù–∞—Ä–≤—Å–∫–∞—è —É–ª., 54, –∫–æ—Ä–ø. 5, —ç—Ç–∞–∂ 3", "latitude": 54.731380010363999, "longitude": 20.500500025461001 }, "geometry": { "type": "Point", "coordinates": [ 20.500500025461001, 54.731380010363999 ] } },
{ "type": "Feature", "properties": { "Name": "–ê–ª—å–±–∞—Ç—Ä–æ—Å-–°–µ–≤–µ—Ä", "address": "—É–ª. –ì–∞–π–¥–∞—Ä–∞, 136", "latitude": 54.743820011962001, "longitude": 20.509530017389999 }, "geometry": { "type": "Point", "coordinates": [ 20.509530017389999, 54.743820011962001 ] } },
{ "type": "Feature", "properties": { "Name": "–û–∞–∑–∏—Å", "address": "–ú–∞–ª—ã–π –ø–µ—Ä., 15", "latitude": 54.702159983432999, "longitude": 20.511979963868999 }, "geometry": { "type": "Point", "coordinates": [ 20.511979963868999, 54.702159983432999 ] } },
{ "type": "Feature", "properties": { "Name": "Profitness", "address": "—É–ª. –°–æ–≥–ª–∞—Å–∏—è, 44–ê, —ç—Ç–∞–∂ 2", "latitude": 54.749480017810001, "longitude": 20.488529997173998 }, "geometry": { "type": "Point", "coordinates": [ 20.488529997173998, 54.749480017810001 ] } },
{ "type": "Feature", "properties": { "Name": "–ê–¥—Ä–µ–Ω–∞–ª–∏–Ω", "address": "—É–ª. –Æ—Ä–∏—è –ì–∞–≥–∞—Ä–∏–Ω–∞, 55–ê", "latitude": 54.722760019229, "longitude": 20.544149959713 }, "geometry": { "type": "Point", "coordinates": [ 20.544149959713, 54.722760019229 ] } },
{ "type": "Feature", "properties": { "Name": "–ß–µ–º–ø–∏–æ–Ω", "address": "—É–ª. –ê–ª–µ–∫—Å–∞–Ω–¥—Ä–∞ –°—É–≤–æ—Ä–æ–≤–∞, 46–ê", "latitude": 54.692949990133002, "longitude": 20.469459993983001 }, "geometry": { "type": "Point", "coordinates": [ 20.469459993983001, 54.692949990133002 ] } },
{ "type": "Feature", "properties": { "Name": "Profitness", "address": "—É–ª. –ú–µ–Ω–¥–µ–ª–µ–µ–≤–∞, 61–ê, —ç—Ç–∞–∂ 1", "latitude": 54.722849998960001, "longitude": 20.437880000303 }, "geometry": { "type": "Point", "coordinates": [ 20.437880000303, 54.722849998960001 ] } },
{ "type": "Feature", "properties": { "Name": "Plachinta Gym", "address": "—É–ª. –ê–ª–ª–µ—è –°–º–µ–ª—ã—Ö, 20–í", "latitude": 54.691295515701, "longitude": 20.523591444933999 }, "geometry": { "type": "Point", "coordinates": [ 20.523591444933999, 54.691295515701 ] } },
{ "type": "Feature", "properties": { "Name": "–ê–ª—å–±–∞—Ç—Ä–æ—Å-–ó–∞–ø–∞–¥", "address": "—É–ª. –ß–µ–∫–∏—Å—Ç–æ–≤, 81–ê", "latitude": 54.731350003151, "longitude": 20.46699998922 }, "geometry": { "type": "Point", "coordinates": [ 20.46699998922, 54.731350003151 ] } },
{ "type": "Feature", "properties": { "Name": "–ê–ª—å–±–∞—Ç—Ä–æ—Å-–Æ–≥", "address": "–¢–æ–≤–∞—Ä–Ω—ã–π –ø–µ—Ä., 5", "latitude": 54.681129997912997, "longitude": 20.498890029499002 }, "geometry": { "type": "Point", "coordinates": [ 20.498890029499002, 54.681129997912997 ] } },
{ "type": "Feature", "properties": { "Name": "Non Stop", "address": "—É–ª. –§—Ä—É–Ω–∑–µ, 6, —ç—Ç–∞–∂ 2", "latitude": 54.711559994478002, "longitude": 20.521659972388999 }, "geometry": { "type": "Point", "coordinates": [ 20.521659972388999, 54.711559994478002 ] } },
{ "type": "Feature", "properties": { "Name": "Kalina Fit", "address": "–õ–µ–Ω–∏–Ω—Å–∫–∏–π –ø—Ä–æ—Å–ø., 155–ê, —ç—Ç–∞–∂ —Ü–æ–∫–æ–ª—å–Ω—ã–π", "latitude": 54.696060011486999, "longitude": 20.502549987519998 }, "geometry": { "type": "Point", "coordinates": [ 20.502549987519998, 54.696060011486999 ] } },
{ "type": "Feature", "properties": { "Name": "–ò–Ω—Ñ–∏–Ω–∏—Ç–∏", "address": "–õ–µ–Ω–∏–Ω—Å–∫–∏–π –ø—Ä–æ—Å–ø., 67–ë, –¢–¶ –ú–µ—Ä–∫—É—Ä–∏–π, —ç—Ç–∞–∂ 3, –æ—Ñ–∏—Å 301", "latitude": 54.712909983803002, "longitude": 20.507939970357 }, "geometry": { "type": "Point", "coordinates": [ 20.507939970357, 54.712909983803002 ] } },
{ "type": "Feature", "properties": { "Name": "Art Jungle", "address": "—É–ª. –ú–æ–ª–æ—á–∏–Ω—Å–∫–æ–≥–æ, 4", "latitude": 54.734569995074999, "longitude": 20.479439990818001 }, "geometry": { "type": "Point", "coordinates": [ 20.479439990818001, 54.734569995074999 ] } },
{ "type": "Feature", "properties": { "Name": "Profitness Plus - –ê—Ä—Ç–∏–ª–ª–µ—Ä–∏–π—Å–∫–∞—è", "address": "–ê—Ä—Ç–∏–ª–ª–µ—Ä–∏–π—Å–∫–∞—è —É–ª., 22", "latitude": 54.732100015847003, "longitude": 20.539899999527002 }, "geometry": { "type": "Point", "coordinates": [ 20.539899999527002, 54.732100015847003 ] } },
{ "type": "Feature", "properties": { "Name": "Ufit", "address": "—É–ª. –°–æ–≥–ª–∞—Å–∏—è, 15–ê", "latitude": 54.743096095936998, "longitude": 20.492087070568001 }, "geometry": { "type": "Point", "coordinates": [ 20.491872765351332, 54.743003316232524 ] } },
{ "type": "Feature", "properties": { "Name": "Rock Gym", "address": "—É–ª. –ü–µ—Ç—Ä–∞ –ü–∞–Ω–∏–Ω–∞, 8, –õ–µ–Ω–∏–Ω–≥—Ä–∞–¥—Å–∫–∏–π —Ä–∞–π–æ–Ω, –º–∏–∫—Ä–æ—Ä–∞–π–æ–Ω –°–µ–ª—å–º–∞, —ç—Ç–∞–∂ -1", "latitude": 54.746749990036001, "longitude": 20.493819983906 }, "geometry": { "type": "Point", "coordinates": [ 20.493819983906, 54.746749990036001 ] } },
{ "type": "Feature", "properties": { "Name": "Women Zone", "address": "—É–ª. –ü–∞—Ä—Ç–∏–∑–∞–Ω–∞ –ñ–µ–ª–µ–∑–Ω—è–∫–∞, 3–ê, —ç—Ç–∞–∂ 2", "latitude": 54.728796929799003, "longitude": 20.539435844301 }, "geometry": { "type": "Point", "coordinates": [ 20.539435844301, 54.728796929799003 ] } },
{ "type": "Feature", "properties": { "Name": "My gym", "address": "–ø–ª–æ—â–∞–¥—å –ü–æ–±–µ–¥—ã, 10, —ç—Ç–∞–∂ 8", "latitude": 54.719599999822002, "longitude": 20.503890002380999 }, "geometry": { "type": "Point", "coordinates": [ 20.503890002380999, 54.719599999822002 ] } },
{ "type": "Feature", "properties": { "Name": "Rock Gym", "address": "–°–æ–≤–µ—Ç—Å–∫–∏–π –ø—Ä–æ—Å–ø., 81, –∫–æ—Ä–ø. 4", "latitude": 54.734109996229002, "longitude": 20.482729971634001 }, "geometry": { "type": "Point", "coordinates": [ 20.482729971634001, 54.734109996229002 ] } },
{ "type": "Feature", "properties": { "Name": "–≠—Ä–∞ –≤–æ–¥–æ–ª–µ—è", "address": "–ö—Ä–∞—Å–Ω–æ–æ–∫—Ç—è–±—Ä—å—Å–∫–∞—è —É–ª., 17, –î–¶ –ü–∞—Ä—É—Å, —ç—Ç–∞–∂ 2", "latitude": 54.702009989276, "longitude": 20.508659975840001 }, "geometry": { "type": "Point", "coordinates": [ 20.508659975840001, 54.702009989276 ] } },
{ "type": "Feature", "properties": { "Name": "Energy", "address": "–ö–∏—Ä–ø–∏—á–Ω–∞—è —É–ª., 9, —ç—Ç–∞–∂ 1", "latitude": 54.711410000320001, "longitude": 20.524019981047001 }, "geometry": { "type": "Point", "coordinates": [ 20.523859252134493, 54.711456426442133 ] } },
{ "type": "Feature", "properties": { "Name": "Hipness club", "address": "–ì–∞—Ä–∞–∂–Ω–∞—è —É–ª., 2–ê, –æ—Ñ–∏—Å 205 –ë, —ç—Ç–∞–∂ 2", "latitude": 54.724479985761, "longitude": 20.505349962276 }, "geometry": { "type": "Point", "coordinates": [ 20.505349962276, 54.724479985761 ] } },
{ "type": "Feature", "properties": { "Name": "–õ–∞–ª–∞—Ñ–∏—Ç", "address": "—É–ª. –ì–µ–Ω–µ—Ä–∞–ª–∞ –ß–µ–ª–Ω–æ–∫–æ–≤–∞, 48", "latitude": 54.746059991766998, "longitude": 20.482520004958999 }, "geometry": { "type": "Point", "coordinates": [ 20.482520004958999, 54.746059991766998 ] } },
{ "type": "Feature", "properties": { "Name": "Evolution", "address": "–ù–∞—Ä–≤—Å–∫–∞—è —É–ª., 54, –∫–æ—Ä–ø. 5, —ç—Ç–∞–∂ 3", "latitude": 54.731380010363999, "longitude": 20.500500025461001 }, "geometry": { "type": "Point", "coordinates": [ 20.500500025461001, 54.731380010363999 ] } },
{ "type": "Feature", "properties": { "Name": "Carrot Fitness", "address": "—É–ª. –ì–æ—Ä—å–∫–æ–≥–æ, 98, —ç—Ç–∞–∂ 2", "latitude": 54.732760006903, "longitude": 20.511029958963 }, "geometry": { "type": "Point", "coordinates": [ 20.511029958963, 54.732760006903 ] } },
{ "type": "Feature", "properties": { "Name": "–≠—Ñ—Ñ–µ–∫—Ç –±–∞–±–æ—á–∫–∏", "address": "–ú–æ—Å–∫–æ–≤—Å–∫–∏–π –ø—Ä–æ—Å–ø., 40, –∫–æ–º–Ω–∞—Ç–∞ 620, —ç—Ç–∞–∂ 6", "latitude": 54.709370012725003, "longitude": 20.502689965302999 }, "geometry": { "type": "Point", "coordinates": [ 20.502689965302999, 54.709370012725003 ] } },
{ "type": "Feature", "properties": { "Name": "–ì–∞—Ä–º–æ–Ω–∏—è", "address": "—É–ª. –ü—Ä–æ—Ñ–µ—Å—Å–æ—Ä–∞ –ë–∞—Ä–∞–Ω–æ–≤–∞, 6, –†–∞–π–æ–Ω –õ–µ–Ω–∏–Ω–≥—Ä–∞–¥—Å–∫–∏–π, –ø–æ–º–µ—â–µ–Ω–∏–µ 311, —ç—Ç–∞–∂ 3", "latitude": 54.721450855886999, "longitude": 20.511667429428002 }, "geometry": { "type": "Point", "coordinates": [ 20.511667429428002, 54.721450855886999 ] } },
{ "type": "Feature", "properties": { "Name": "–¢–æ–Ω—É—Å", "address": "–ù–∞—Ä–≤—Å–∫–∞—è —É–ª., 112, —ç—Ç–∞–∂ —Ü–æ–∫–æ–ª—å–Ω—ã–π", "latitude": 54.743200980354999, "longitude": 20.499180091776001 }, "geometry": { "type": "Point", "coordinates": [ 20.499528337753091, 54.743030884262616 ] } },
{ "type": "Feature", "properties": { "Name": "–Ø—Å—Ç—Ä–æ–π–Ω–∞–Ø", "address": "–°–æ–≤–µ—Ç—Å–∫–∏–π –ø—Ä–æ—Å–ø., 81, –∫–æ—Ä–ø. 4, –æ—Ñ–∏—Å 15–ë, —ç—Ç–∞–∂ 2", "latitude": 54.734109996229002, "longitude": 20.482729971634001 }, "geometry": { "type": "Point", "coordinates": [ 20.482729971634001, 54.734109996229002 ] } },
{ "type": "Feature", "properties": { "Name": "Delta Fit", "address": "–ò—Ä—Ç—ã—à—Å–∫–∏–π –ø–µ—Ä., 2, –†–æ—Å—Å–∏—è, –ö–∞–ª–∏–Ω–∏–Ω–≥—Ä–∞–¥, –õ–µ—Ç–Ω—è—è —É–ª–∏—Ü–∞, 63", "latitude": 54.672108812255999, "longitude": 20.486986398172 }, "geometry": { "type": "Point", "coordinates": [ 20.487227491540754, 54.672275333485132 ] } },
{ "type": "Feature", "properties": { "Name": "Total Body", "address": "—É–ª. –ö–∏—Ä–æ–≤–∞, 1, —ç—Ç–∞–∂ 3", "latitude": 54.724359998817, "longitude": 20.496990019687001 }, "geometry": { "type": "Point", "coordinates": [ 20.496990019687001, 54.724282646542889 ] } },
{ "type": "Feature", "properties": { "Name": "–§–∏—Ç–Ω–µ—Å-—Å—Ç—É–¥–∏—è –Æ—Ä–∏—è –ú–∏—Ö–∞–π–ª–æ–≤–∞", "address": "–ö—Ä–∞—Å–Ω–æ—Å–µ–ª—å—Å–∫–∞—è —É–ª., 82, –∫–æ—Ä–ø. 1, —ç—Ç–∞–∂ —Ü–æ–∫–æ–ª—å–Ω—ã–π", "latitude": 54.719129984601999, "longitude": 20.447409972757001 }, "geometry": { "type": "Point", "coordinates": [ 20.447463549061169, 54.719160929497633 ] } },
{ "type": "Feature", "properties": { "Name": "Ellementa", "address": "–¢–µ–∞—Ç—Ä–∞–ª—å–Ω–∞—è —É–ª., 35, —ç—Ç–∞–∂ 3, –æ—Ñ–∏—Å 311", "latitude": 54.717749988062998, "longitude": 20.497260000788 }, "geometry": { "type": "Point", "coordinates": [ 20.497260000788, 54.717749988062998 ] } },
{ "type": "Feature", "properties": { "Name": "–¢–æ–Ω—É—Å", "address": "—É–ª. 1812 –≥–æ–¥–∞, 126, —ç—Ç–∞–∂ 2", "latitude": 54.711149993684003, "longitude": 20.536749996495001 }, "geometry": { "type": "Point", "coordinates": [ 20.536749996495001, 54.711149993684003 ] } },
{ "type": "Feature", "properties": { "Name": "ZeusGYM", "address": "—É–ª. –ß–µ–∫–∏—Å—Ç–æ–≤, 109", "latitude": 54.731979986993998, "longitude": 20.467369966427 }, "geometry": { "type": "Point", "coordinates": [ 20.467369966427, 54.731979986993998 ] } },
{ "type": "Feature", "properties": { "Name": "Zal", "address": "—É–ª. –ë–∞–≥—Ä–∞—Ç–∏–æ–Ω–∞, 49, —ç—Ç–∞–∂ 3", "latitude": 54.69892000067, "longitude": 20.509500010176001 }, "geometry": { "type": "Point", "coordinates": [ 20.509500010176001, 54.69892000067 ] } },
{ "type": "Feature", "properties": { "Name": "–û–∑–¥–æ—Ä–æ–≤–∏—Ç–µ–ª—å–Ω—ã–π —Ñ–∏—Ç–Ω–µ—Å", "address": "—É–ª. –ì–æ—Ä—å–∫–æ–≥–æ, 176–ì, –∫–æ—Ä–ø. 2, —ç—Ç–∞–∂ —Ü–æ–∫–æ–ª—å–Ω—ã–π", "latitude": 54.751860017307003, "longitude": 20.501100002089998 }, "geometry": { "type": "Point", "coordinates": [ 20.501100002089998, 54.751860017307003 ] } },
{ "type": "Feature", "properties": { "Name": "Spotfitness", "address": "–û–∫—Ç—è–±—Ä—å—Å–∫–∞—è —É–ª., 6, –°–ø–∞-—Å–∞–ª–æ–Ω –ê–º–±–µ—Ä –°–ü–ê, —ç—Ç–∞–∂ 2", "latitude": 54.70354, "longitude": 20.51586 }, "geometry": { "type": "Point", "coordinates": [ 20.515592118479162, 54.703447129594196 ] } },
{ "type": "Feature", "properties": { "Name": "–§–∏—Ç–Ω–µ—Å–∞—Ä–º–∏—è", "address": "–°–æ–≤–µ—Ç—Å–∫–∏–π –ø—Ä–æ—Å–ø., 12, —ç—Ç–∞–∂ 7, –ø–æ–º–µ—â–µ–Ω–∏–µ 702", "latitude": 54.723459991962997, "longitude": 20.499539962271001 }, "geometry": { "type": "Point", "coordinates": [ 20.499539962271001, 54.723459991962997 ] } },
{ "type": "Feature", "properties": { "Name": "Vumlife", "address": "—É–ª. –Æ—Ä–∏—è –ì–∞–≥–∞—Ä–∏–Ω–∞, 99, –æ—Ñ–∏—Å 5, —ç—Ç–∞–∂ 2", "latitude": 54.724939984606998, "longitude": 20.549649996938999 }, "geometry": { "type": "Point", "coordinates": [ 20.549649996938999, 54.724939984606998 ] } },
{ "type": "Feature", "properties": { "Name": "–ü–ª–∞–Ω–µ—Ç–∞ —Ñ–∏—Ç–Ω–µ—Å", "address": "—É–ª. –ì–æ—Ä—å–∫–æ–≥–æ, 170–í, –í—Ö–æ–¥ —Å —Ç–æ—Ä—Ü–∞ üòé", "latitude": 54.750869988813001, "longitude": 20.503130015219998 }, "geometry": { "type": "Point", "coordinates": [ 20.503130015219998, 54.750869988813001 ] } },
{ "type": "Feature", "properties": { "Name": "–ö—Ä–æ—Å—Å—Ñ–∏—Ç –∫–ª—É–± Axon", "address": "—É–ª. –ì–µ–Ω–µ—Ä–∞–ª–∞ –ß–µ–ª–Ω–æ–∫–æ–≤–∞, 1, —ç—Ç–∞–∂ 1", "latitude": 54.735910009934997, "longitude": 20.496400017521999 }, "geometry": { "type": "Point", "coordinates": [ 20.49653395828242, 54.736002806075788 ] } },
{ "type": "Feature", "properties": { "Name": "–°—Ç—Ä–µ–π—á —Ö–∞—É—Å", "address": "–ø—Ä–æ—Å–ø. –ú–∏—Ä–∞, 136, —ç—Ç–∞–∂ 1", "latitude": 54.721619996577999, "longitude": 20.451260032341999 }, "geometry": { "type": "Point", "coordinates": [ 20.451286820494083, 54.721527167524741 ] } },
{ "type": "Feature", "properties": { "Name": "BodyWise", "address": "—É–ª. –ì–µ–Ω–µ—Ä–∞–ª-–õ–µ–π—Ç–µ–Ω–∞–Ω—Ç–∞ –û–∑–µ—Ä–æ–≤–∞, 19, –∫–æ–º–Ω–∞—Ç–∞ 8, —ç—Ç–∞–∂ 5-–π", "latitude": 54.725290012884003, "longitude": 20.502979979153 }, "geometry": { "type": "Point", "coordinates": [ 20.502979979153, 54.725290012884003 ] } },
{ "type": "Feature", "properties": { "Name": "–ê–∫—Ç–∏–≤–õ–µ–¥–∏", "address": "—É–ª. –§—Ä—É–Ω–∑–µ, 6–í, –∫–æ–º–Ω–∞—Ç–∞ 806, —ç—Ç–∞–∂ 8", "latitude": 54.711909980845, "longitude": 20.521529969071 }, "geometry": { "type": "Point", "coordinates": [ 20.521529969071, 54.711909980845 ] } },
{ "type": "Feature", "properties": { "Name": "Diamond", "address": "—É–ª. –ö–∏—Ä–æ–≤–∞, 1, –∫–æ–º–Ω–∞—Ç–∞ 17, —ç—Ç–∞–∂ 4", "latitude": 54.724359998817, "longitude": 20.496990019687001 }, "geometry": { "type": "Point", "coordinates": [ 20.496909655230748, 54.724329057913266 ] } },
{ "type": "Feature", "properties": { "Name": "Okfit", "address": "–¢–∏—Ö–∞—è —É–ª., 1, —Ü–æ–∫–æ–ª—å —Å–æ —Å—Ç–æ—Ä–æ–Ω—ã —É–ª. –ö–∞–ª—è–∑–∏–Ω—Å–∫–æ–π, –æ—Ñ–∏—Å 19", "latitude": 54.727900011804003, "longitude": 20.507650040325998 }, "geometry": { "type": "Point", "coordinates": [ 20.507650040325998, 54.727900011804003 ] } },
{ "type": "Feature", "properties": { "Name": "–í–∞–º —Å—é–¥–∞!", "address": "–¢–µ–∞—Ç—Ä–∞–ª—å–Ω–∞—è —É–ª., 35, —ç—Ç–∞–∂ 4, –æ—Ñ–∏—Å 418", "latitude": 54.717749988062998, "longitude": 20.497260000788 }, "geometry": { "type": "Point", "coordinates": [ 20.497260000788, 54.717749988062998 ] } },
{ "type": "Feature", "properties": { "Name": "–ì–∞—Ä–º–æ–Ω–∏—è", "address": "—É–ª. –ì–æ—Ä—å–∫–æ–≥–æ, 168", "latitude": 54.750290003022997, "longitude": 20.503729991848999 }, "geometry": { "type": "Point", "coordinates": [ 20.503729991848999, 54.750290003022997 ] } },
{ "type": "Feature", "properties": { "Name": "33 –®–ø–∞–≥–∞—Ç–∞", "address": "—É–ª. –ö–∞—Ä–ª–∞ –ú–∞—Ä–∫—Å–∞, 18, –æ—Ñ–∏—Å 425, —ç—Ç–∞–∂ 4", "latitude": 54.729219993915997, "longitude": 20.480840020106001 }, "geometry": { "type": "Point", "coordinates": [ 20.480840020106001, 54.729219993915997 ] } },
{ "type": "Feature", "properties": { "Name": "MamaDance", "address": "—É–ª. –ë–µ–ª–∏–Ω—Å–∫–æ–≥–æ, 40, —ç—Ç–∞–∂ 2", "latitude": 54.716000014317999, "longitude": 20.442249989343001 }, "geometry": { "type": "Point", "coordinates": [ 20.442249989343001, 54.716000014317999 ] } },
{ "type": "Feature", "properties": { "Name": "–ú–∏—Ä–∏–¥–∞–Ω—Å", "address": "–ö—Ä–∞—Å–Ω–∞—è —É–ª., 63–ê", "latitude": 54.730089993556, "longitude": 20.473049963112999 }, "geometry": { "type": "Point", "coordinates": [ 20.473317844633836, 54.729950779045716 ] } },
{ "type": "Feature", "properties": { "Name": "BlagFit", "address": "—É–ª. –Æ—Ä–∏—è –ì–∞–≥–∞—Ä–∏–Ω–∞, 1, —ç—Ç–∞–∂ 2", "latitude": 54.715260017996002, "longitude": 20.536670033139 }, "geometry": { "type": "Point", "coordinates": [ 20.536670033139, 54.715260017996002 ] } },
{ "type": "Feature", "properties": { "Name": "–§–∏—Ç–Ω–µ—Å —Å—Ç—É–¥–∏—è Alice", "address": "—É–ª. –ì–æ—Ä—å–∫–æ–≥–æ, 170–í", "latitude": 54.750869988813001, "longitude": 20.503130015219998 }, "geometry": { "type": "Point", "coordinates": [ 20.503130015219998, 54.750869988813001 ] } },
{ "type": "Feature", "properties": { "Name": "–ú–æ—Ä–æ—à–∫–∞", "address": "—É–ª. –Æ—Ä–∏—è –ì–∞–≥–∞—Ä–∏–Ω–∞, 99, –î–° –°–æ–∑–≤–µ–∑–¥–∏–µ", "latitude": 54.72494, "longitude": 20.54965 }, "geometry": { "type": "Point", "coordinates": [ 20.54965, 54.72494 ] } },
{ "type": "Feature", "properties": { "Name": "Rage", "address": "—É–ª. –ë–∞–≥—Ä–∞—Ç–∏–æ–Ω–∞, 49–í, —ç—Ç–∞–∂ 2", "latitude": 54.699014080829002, "longitude": 20.509425608318001 }, "geometry": { "type": "Point", "coordinates": [ 20.509425608318001, 54.699014080829002 ] } },
{ "type": "Feature", "properties": { "Name": "–ö—Ä–µ–π–∑–∏ –¥–∂–∞–º–ø–∏–Ω–≥", "address": "–°–æ–≤–µ—Ç—Å–∫–∏–π –ø—Ä–æ—Å–ø., 230, —ç—Ç–∞–∂ 1", "latitude": 54.748380018747, "longitude": 20.459890039851999 }, "geometry": { "type": "Point", "coordinates": [ 20.459890039851999, 54.748380018747 ] } },
{ "type": "Feature", "properties": { "Name": "EMS-–§–∏—Ç–Ω–µ—Å", "address": "—É–ª. –í–∏–∫—Ç–æ—Ä–∞ –ì–∞–∫—É–Ω–∞, 9", "latitude": 54.748480014851999, "longitude": 20.530860033132999 }, "geometry": { "type": "Point", "coordinates": [ 20.530860033132999, 54.748480014851999 ] } },
{ "type": "Feature", "properties": { "Name": "–ö–≤–∞–¥—Ä–∞—Ç", "address": "–ë–∞—Ç–∞–ª—å–Ω–∞—è —É–ª., 18, —ç—Ç–∞–∂ 2", "latitude": 54.678179987090999, "longitude": 20.495440038152001 }, "geometry": { "type": "Point", "coordinates": [ 20.495440038152001, 54.678179987090999 ] } },
{ "type": "Feature", "properties": { "Name": "Sport DeLux", "address": "—É–ª. –§—Ä—É–Ω–∑–µ, 28, —ç—Ç–∞–∂ 3, –æ—Ñ–∏—Å 23", "latitude": 54.712341591475003, "longitude": 20.523994855899002 }, "geometry": { "type": "Point", "coordinates": [ 20.524235949267759, 54.712635615895401 ] } },
{ "type": "Feature", "properties": { "Name": "Step Up", "address": "—É–ª. –ö–∞—Ä–ª–∞ –ú–∞—Ä–∫—Å–∞, 6, —ç—Ç–∞–∂ 2", "latitude": 54.729189986702998, "longitude": 20.485530030208 }, "geometry": { "type": "Point", "coordinates": [ 20.485530030208, 54.729189986702998 ] } },
{ "type": "Feature", "properties": { "Name": "–ó—É–º–±–∞ –î–æ–º", "address": "–Ø—Ä–æ—Å–ª–∞–≤—Å–∫–∞—è —É–ª., 2–í, —ç—Ç–∞–∂ –¶–æ–∫–æ–ª—å–Ω—ã–π", "latitude": 54.713230004865999, "longitude": 20.524660023174 }, "geometry": { "type": "Point", "coordinates": [ 20.524660023174, 54.713230004865999 ] } },
{ "type": "Feature", "properties": { "Name": "–ü–ª–∞–Ω–µ—Ç–∞ –§–∏—Ç–Ω–µ—Å", "address": "—É–ª. –î–∑–µ—Ä–∂–∏–Ω—Å–∫–æ–≥–æ, 168–ï", "latitude": 54.670520017236001, "longitude": 20.544869965196 }, "geometry": { "type": "Point", "coordinates": [ 20.544869965196, 54.670520017236001 ] } },
{ "type": "Feature", "properties": { "Name": "–§–µ–Ω–∏–∫—Å", "address": "—É–ª. –ö–∞—Ä–ª–∞ –ú–∞—Ä–∫—Å–∞, 6, –∫–æ–º–Ω–∞—Ç–∞ 34, —ç—Ç–∞–∂ 3", "latitude": 54.729189986702998, "longitude": 20.485530030208 }, "geometry": { "type": "Point", "coordinates": [ 20.485530030208, 54.729189986702998 ] } },
{ "type": "Feature", "properties": { "Name": "Projumping", "address": "—É–ª. –°–µ—Ä–≥–µ–µ–≤–∞, 4, –æ—Ç–µ–ª—å Crystal House Suite HotelSPA, —ç—Ç–∞–∂ 1", "latitude": 54.715100007464997, "longitude": 20.515740001813999 }, "geometry": { "type": "Point", "coordinates": [ 20.515740001813999, 54.715100007464997 ] } },
{ "type": "Feature", "properties": { "Name": "–°—Ç—Ä–æ–π–Ω–æ—Ñ—Ñ", "address": "–ö–ª–∏–Ω–∏—á–µ—Å–∫–∞—è —É–ª., 14–ê", "latitude": 54.713646573889001, "longitude": 20.519617258528001 }, "geometry": { "type": "Point", "coordinates": [ 20.519617258528001, 54.713646573889001 ] } },
{ "type": "Feature", "properties": { "Name": "–¶–µ–Ω—Ç—Ä –∂–µ–Ω—Å–∫–æ–≥–æ –∑–¥–æ—Ä–æ–≤—å—è –û–ª—å–≥–∏ –ï—Ä–æ—Ö–∏–Ω–æ–π", "address": "—É–ª. –ú—É—Å–æ—Ä–≥—Å–∫–æ–≥–æ, 10, –∫–æ—Ä–ø. 16–ê, —ç—Ç–∞–∂ 4", "latitude": 54.726900008846002, "longitude": 20.501959985355999 }, "geometry": { "type": "Point", "coordinates": [ 20.501959985355999, 54.726900008846002 ] } },
{ "type": "Feature", "properties": { "Name": "Morion", "address": "–ù–∞—Ä–≤—Å–∫–∞—è —É–ª., 54, –∫–æ—Ä–ø. 5, —ç—Ç–∞–∂ 3", "latitude": 54.731380010363999, "longitude": 20.500500025461001 }, "geometry": { "type": "Point", "coordinates": [ 20.500500025461001, 54.731380010363999 ] } },
{ "type": "Feature", "properties": { "Name": "–í–∏–Ω—Å", "address": "—É–ª. –ì–µ–Ω–µ—Ä–∞–ª-–õ–µ–π—Ç–µ–Ω–∞–Ω—Ç–∞ –û–∑–µ—Ä–æ–≤–∞, 17–í, —ç—Ç–∞–∂ 2", "latitude": 54.725299987348002, "longitude": 20.502600027482 }, "geometry": { "type": "Point", "coordinates": [ 20.502439298569495, 54.7254546879104 ] } },
{ "type": "Feature", "properties": { "Name": "Zotovcycling one", "address": "–ê—Ä—Ç–∏–ª–ª–µ—Ä–∏–π—Å–∫–∞—è —É–ª., 22", "latitude": 54.732100015847003, "longitude": 20.539899999527002 }, "geometry": { "type": "Point", "coordinates": [ 20.539899999527002, 54.732100015847003 ] } },
{ "type": "Feature", "properties": { "Name": "–ì—Ä–∞–≤–∏—Ç–∞—Ü–∏—è", "address": "–°–æ–≤–µ—Ç—Å–∫–∏–π –ø—Ä–æ—Å–ø., 105–ë", "latitude": 54.736769993201001, "longitude": 20.480220010728001 }, "geometry": { "type": "Point", "coordinates": [ 20.480220010728001, 54.736769993201001 ] } },
{ "type": "Feature", "properties": { "Name": "Pro Fitness", "address": "–°—É–¥–æ—Å—Ç—Ä–æ–∏—Ç–µ–ª—å–Ω–∞—è —É–ª., 17–ì, —Ü–æ–∫–æ–ª—å", "latitude": 54.680919989328999, "longitude": 20.494319964430002 }, "geometry": { "type": "Point", "coordinates": [ 20.494319964430002, 54.680919989328999 ] } },
{ "type": "Feature", "properties": { "Name": "–£–º–Ω—ã–π —Ñ–∏—Ç–Ω–µ—Å", "address": "–ü–æ–ª–æ—Ü–∫–∞—è —É–ª., 28, —ç—Ç–∞–∂ —Ü–æ–∫–æ–ª—å–Ω—ã–π", "latitude": 54.703649992450998, "longitude": 20.500089982757 }, "geometry": { "type": "Point", "coordinates": [ 20.500089982757, 54.703649992450998 ] } },
{ "type": "Feature", "properties": { "Name": "–ë–æ–¥–∏—Ñ–ª–µ–∫—Å", "address": "–ø—Ä–æ—Å–ø. –ö–∞–ª–∏–Ω–∏–Ω–∞, 2, –∫–æ–º–Ω–∞—Ç–∞ 40, —ç—Ç–∞–∂ 2", "latitude": 54.694359993885001, "longitude": 20.504800025609001 }, "geometry": { "type": "Point", "coordinates": [ 20.504800025609001, 54.694359993885001 ] } },
{ "type": "Feature", "properties": { "Name": "–¢–µ—Ä—Ä–∏—Ç–æ—Ä–∏—è –ó—É–º–±–∞", "address": "–ö–ª–∏–Ω–∏—á–µ—Å–∫–∞—è —É–ª., 77, —ç—Ç–∞–∂ 1", "latitude": 54.717344153505003, "longitude": 20.521384277469 }, "geometry": { "type": "Point", "coordinates": [ 20.521384277469, 54.717344153505003 ] } },
{ "type": "Feature", "properties": { "Name": "–¢—Ä–∞–Ω—Å—Ñ–æ—Ä–º–∞—Ü–∏—è", "address": "—É–ª. –ö–∞—Ä–ª–∞ –ú–∞—Ä–∫—Å–∞, 18, –∫–æ–º–Ω–∞—Ç–∞ 424, —ç—Ç–∞–∂ 4", "latitude": 54.729219993915997, "longitude": 20.480840020106001 }, "geometry": { "type": "Point", "coordinates": [ 20.480840020106001, 54.729219993915997 ] } },
{ "type": "Feature", "properties": { "Name": "Lady Stretch", "address": "–ö—Ä–∞—Å–Ω–∞—è —É–ª., 115, —ç—Ç–∞–∂ 3, –∫–æ–º–Ω–∞—Ç–∞ 307", "latitude": 54.735470001928, "longitude": 20.473079970326999 }, "geometry": { "type": "Point", "coordinates": [ 20.473079970326999, 54.735470001928 ] } },
{ "type": "Feature", "properties": { "Name": "–°—Ç—Ä–µ–π—á –•–∞—É—Å", "address": "–ê—Ä—Ç–∏–ª–ª–µ—Ä–∏–π—Å–∫–∞—è —É–ª., 22", "latitude": 54.732100015847003, "longitude": 20.539899999527002 }, "geometry": { "type": "Point", "coordinates": [ 20.539899999527002, 54.732100015847003 ] } },
{ "type": "Feature", "properties": { "Name": "Jumping 39", "address": "–ë–∞—Ç–∞–ª—å–Ω–∞—è —É–ª., 18", "latitude": 54.678179987090999, "longitude": 20.495440038152001 }, "geometry": { "type": "Point", "coordinates": [ 20.495440038152001, 54.678179987090999 ] } },
{ "type": "Feature", "properties": { "Name": "–ë–∞–ª–∞–Ω—Å", "address": "–ø—Ä–æ—Å–ø. –ö–∞–ª–∏–Ω–∏–Ω–∞, 2, –∫–æ–º–Ω–∞—Ç–∞ 25, —ç—Ç–∞–∂ 1", "latitude": 54.694359993885001, "longitude": 20.504800025609001 }, "geometry": { "type": "Point", "coordinates": [ 20.504800025609001, 54.694359993885001 ] } },
{ "type": "Feature", "properties": { "Name": "–ú–∏—Ä–Ω—ã–π –≤–æ–∏–Ω", "address": "—É–ª. –°–µ—Ä–∂–∞–Ω—Ç–∞ –ö–æ–ª–æ—Å–∫–æ–≤–∞, 2–ê", "latitude": 54.718929992391999, "longitude": 20.48472997755 }, "geometry": { "type": "Point", "coordinates": [ 20.48472997755, 54.718929992391999 ] } },
{ "type": "Feature", "properties": { "Name": "–¢–µ—Ä—Ä–∏—Ç–æ—Ä–∏—è –ó—É–º–±–∞", "address": "—É–ª. –õ–∏—Ç–æ–≤—Å–∫–∏–π –í–∞–ª, 36", "latitude": 54.718209986909002, "longitude": 20.530170034864 }, "geometry": { "type": "Point", "coordinates": [ 20.530170034864, 54.718209986909002 ] } },
{ "type": "Feature", "properties": { "Name": "Jumping 39", "address": "—É–ª. –ú–µ–Ω–¥–µ–ª–µ–µ–≤–∞, 61–ê, —ç—Ç–∞–∂ 2", "latitude": 54.722849998960001, "longitude": 20.437880000303 }, "geometry": { "type": "Point", "coordinates": [ 20.437880000303, 54.722849998960001 ] } },
{ "type": "Feature", "properties": { "Name": "–°–ø–∞-—Ü–µ–Ω—Ç—Ä", "address": "—É–ª. –°–æ–≥–ª–∞—Å–∏—è, 39, –ó–∞–ª ¬´–ò–≥—Ä–∞¬ª", "latitude": 54.749309990904003, "longitude": 20.48531000525 }, "geometry": { "type": "Point", "coordinates": [ 20.48531000525, 54.749309990904003 ] } },
{ "type": "Feature", "properties": { "Name": "–°–ø–æ—Ä—Ç–∏–≤–Ω—ã–π –∑–∞–ª", "address": "–Æ–±–∏–ª–µ–π–Ω–∞—è —É–ª., 10, –æ—Ñ–∏—Å 313, —ç—Ç–∞–∂ 3", "latitude": 54.718940008765998, "longitude": 20.539809977887 }, "geometry": { "type": "Point", "coordinates": [ 20.539809977887, 54.718940008765998 ] } },
{ "type": "Feature", "properties": { "Name": "–®–∫–æ–ª–∞ —Å–∞–º–±–æ –∏ –¥–∑—é–¥–æ", "address": "—É–ª. –û–ª–µ–≥–∞ –ö–æ—à–µ–≤–æ–≥–æ, 34–ê", "latitude": 54.673330008366001, "longitude": 20.508919982477 }, "geometry": { "type": "Point", "coordinates": [ 20.508919982477, 54.673330008366001 ] } }
]
}
