{
"type": "FeatureCollection",
"name": "social_services",
"features": [
{ "type": "Feature", "properties": { "Name": "Центр социальной поддержки населения", "address": "Геологическая ул., 1, Калининград, этаж 1", "latitude": 54.714385796255002, "longitude": 20.500676288661001 }, "geometry": { "type": "Point", "coordinates": [ 20.50067230186438, 54.714325918624802 ] } },
{ "type": "Feature", "properties": { "Name": "Комплексный центр социального обслуживания населения в Светловском городском округе", "address": "Молодёжная ул., 12, г. Светлый", "latitude": 54.738869776667002, "longitude": 20.516269807223999 }, "geometry": { "type": "Point", "coordinates": [ 20.516260836931608, 54.739025133922503 ] } },
{ "type": "Feature", "properties": { "Name": "ОГКУ Ко центр социальной поддержки населения", "address": "Геологическая ул., 1, Калининград, комната 41, этаж 2", "latitude": 54.714385796255002, "longitude": 20.500676288661001 }, "geometry": { "type": "Point", "coordinates": [ 20.500831773729125, 54.714305191727632 ] } },
{ "type": "Feature", "properties": { "Name": "Клиентская служба Социального фонда РФ", "address": "ул. 9 Апреля, 32А, Калининград", "latitude": 54.713970001188002, "longitude": 20.523090008890001 }, "geometry": { "type": "Point", "coordinates": [ 20.522957115669385, 54.713957718482952 ] } },
{ "type": "Feature", "properties": { "Name": "Комплексный центр социального обслуживания населения на дому", "address": "Ольштынская ул., 20, Калининград, Россия, Калининград, Загорская улица, 1, Россия, Калининград, Победы проспект, 48", "latitude": 54.714380001982001, "longitude": 20.455370014745 }, "geometry": { "type": "Point", "coordinates": [ 20.455370014745, 54.714380001982001 ] } },
{ "type": "Feature", "properties": { "Name": "Отдел семьи, материнства и детства Управления социальной поддержки населения", "address": "просп. Победы, 42, Калининград, этаж 3", "latitude": 54.714469981713002, "longitude": 20.45750002398 }, "geometry": { "type": "Point", "coordinates": [ 20.45750002398, 54.714469981713002 ] } },
{ "type": "Feature", "properties": { "Name": "Отделение профилактики безнадзорности и социализации несовершеннолетних", "address": "Тихорецкая ул., 43, Калининград", "latitude": 54.683689998780999, "longitude": 20.478510018661002 }, "geometry": { "type": "Point", "coordinates": [ 20.478510018661002, 54.683689998780999 ] } },
{ "type": "Feature", "properties": { "Name": "Центр социальной поддержки населения", "address": "Советская ул., 4А, Гурьевск", "latitude": 54.716421447121, "longitude": 20.594628517074 }, "geometry": { "type": "Point", "coordinates": [ 20.592592260701149, 54.716620932573171 ] } },
{ "type": "Feature", "properties": { "Name": "Отдел организации социальных выплат", "address": "Клиническая ул., 63, Калининград, офис 204, этаж 2", "latitude": 54.715770014895, "longitude": 20.521010039617 }, "geometry": { "type": "Point", "coordinates": [ 20.521010039617, 54.715770014895 ] } },
{ "type": "Feature", "properties": { "Name": "Управление социальной поддержки населения", "address": "просп. Победы, 42, Калининград, этаж 2", "latitude": 54.714469981713002, "longitude": 20.45750002398 }, "geometry": { "type": "Point", "coordinates": [ 20.45750002398, 54.714469981713002 ] } },
{ "type": "Feature", "properties": { "Name": "Центр социальной помощи семье и детям", "address": "Коммунальная ул., 6, Калининград, этаж 2", "latitude": 54.722279987634003, "longitude": 20.470110010574999 }, "geometry": { "type": "Point", "coordinates": [ 20.470110010574999, 54.722279987634003 ] } },
{ "type": "Feature", "properties": { "Name": "Отдел по делам ветеранов", "address": "просп. Победы, 42, Калининград, комната 2, этаж 2", "latitude": 54.714469981713002, "longitude": 20.45750002398 }, "geometry": { "type": "Point", "coordinates": [ 20.45750002398, 54.714469981713002 ] } },
{ "type": "Feature", "properties": { "Name": "Отделение социальной службы и профилактики социального сиротства", "address": "ул. Тельмана, 30, Калининград", "latitude": 54.734830001711003, "longitude": 20.522669991722001 }, "geometry": { "type": "Point", "coordinates": [ 20.522669991722001, 54.734830001711003 ] } },
{ "type": "Feature", "properties": { "Name": "Комплексный центр Социального Обслуживания Населения", "address": "ул. Победы, 18, Ладушкин", "latitude": 54.717180018646999, "longitude": 20.469180038417001 }, "geometry": { "type": "Point", "coordinates": [ 20.469180038417001, 54.717180018646999 ] } },
{ "type": "Feature", "properties": { "Name": "ОГКУ Цспн города Светлого, фронт офис", "address": "Парковая ул., 4, г. Светлый", "latitude": 54.649949988652999, "longitude": 20.339059960255 }, "geometry": null },
{ "type": "Feature", "properties": { "Name": "Отделение Светловского городского округа", "address": "Парковая ул., 4, г. Светлый", "latitude": 54.649949988652999, "longitude": 20.339059960255 }, "geometry": null },
{ "type": "Feature", "properties": { "Name": "Центр обслуживания граждан", "address": "ул. Дмитрия Донского, 1, Калининград, этаж цокольный", "latitude": 54.717760004436997, "longitude": 20.493919980011 }, "geometry": { "type": "Point", "coordinates": [ 20.493919980011, 54.717760004436997 ] } },
{ "type": "Feature", "properties": { "Name": "Автономная некоммерческая организация Региональный центр социального обслуживания населения", "address": "Комсомольская ул., 91В, Калининград", "latitude": 54.733810007914002, "longitude": 20.476359976676999 }, "geometry": { "type": "Point", "coordinates": [ 20.476359976676999, 54.733810007914002 ] } },
{ "type": "Feature", "properties": { "Name": "Альтернатива", "address": "ул. Подполковника Емельянова, 144, Калининград", "latitude": 54.682290011402998, "longitude": 20.554930009206 }, "geometry": { "type": "Point", "coordinates": [ 20.554930009206, 54.682290011402998 ] } },
{ "type": "Feature", "properties": { "Name": "Надежда", "address": "Камская ул., 2, Калининград", "latitude": 55.91417, "longitude": 37.82556 }, "geometry": { "type": "Point", "coordinates": [ 37.82556, 55.91417 ] } },
{ "type": "Feature", "properties": { "Name": "Сопричастность", "address": "ул. Маршала Новикова, 26, Калининград", "latitude": 54.678270008730998, "longitude": 20.479699997455 }, "geometry": { "type": "Point", "coordinates": [ 20.479699997455, 54.678270008730998 ] } },
{ "type": "Feature", "properties": { "Name": "Центр социальной поддержки населения", "address": "просп. Ленина, 33А, Балтийск", "latitude": 54.649730005603999, "longitude": 19.904089979782999 }, "geometry": null },
{ "type": "Feature", "properties": { "Name": "Отдел социальной поддержки ветеранов", "address": "Клиническая ул., 63, Калининград, офис 205,206, этаж 2", "latitude": 54.715770014895, "longitude": 20.521010039617 }, "geometry": { "type": "Point", "coordinates": [ 20.521010039617, 54.715770014895 ] } },
{ "type": "Feature", "properties": { "Name": "Центр социальной помощи семье и детям", "address": "ул. Левитана, 58, корп. 1, Калининград, этаж 1", "latitude": 54.675460017600997, "longitude": 20.580790024521001 }, "geometry": { "type": "Point", "coordinates": [ 20.580790024521001, 54.675460017600997 ] } },
{ "type": "Feature", "properties": { "Name": "Центр социального обслуживания пожилых людей и инвалидов Гармония", "address": "ул. В. Егорова, 1, Балтийск", "latitude": 54.660669981810003, "longitude": 19.914129991044 }, "geometry": null },
{ "type": "Feature", "properties": { "Name": "Рука Помощи", "address": "просп. Победы, 48, Калининград", "latitude": 54.714380001982001, "longitude": 20.455370014745 }, "geometry": { "type": "Point", "coordinates": [ 20.455370014745, 54.714380001982001 ] } },
{ "type": "Feature", "properties": { "Name": "Комплексный центр по социальному обслуживанию в городе Калининграде", "address": "Загорская ул., 1, Калининград", "latitude": 54.710597651387999, "longitude": 20.497973440068002 }, "geometry": { "type": "Point", "coordinates": [ 20.498376106526475, 54.71201639731332 ] } },
{ "type": "Feature", "properties": { "Name": "Центр социальной адаптации для лиц без определенного места жительства и занятий", "address": "Ялтинская ул., 67, Калининград", "latitude": 54.705120010629997, "longitude": 20.553369969386999 }, "geometry": { "type": "Point", "coordinates": [ 20.553369969386999, 54.705120010629997 ] } },
{ "type": "Feature", "properties": { "Name": "Комитет Социальной Поддержки Населения Комплекса по Социальным Вопросам Администрации Городского Округа Город Калининград, отдел социальной поддержки населения", "address": "ул. Фрунзе, 71, Калининград", "latitude": 54.713160015974999, "longitude": 20.528579987832 }, "geometry": { "type": "Point", "coordinates": [ 20.528579987832, 54.713160015974999 ] } },
{ "type": "Feature", "properties": { "Name": "Социальный приют для детей и подростков", "address": "ул. Тургенева, 53, Калининград", "latitude": 54.736930003733001, "longitude": 20.522089964022001 }, "geometry": { "type": "Point", "coordinates": [ 20.522089964022001, 54.736930003733001 ] } },
{ "type": "Feature", "properties": { "Name": "Отдел опеки и попечительства над несовершеннолетними", "address": "просп. Победы, 42, Калининград, этаж 2", "latitude": 54.714469981713002, "longitude": 20.45750002398 }, "geometry": { "type": "Point", "coordinates": [ 20.45750002398, 54.714469981713002 ] } },
{ "type": "Feature", "properties": { "Name": "Милосердие", "address": "Октябрьская ул., 4, Калининград, офис 205, этаж 2", "latitude": 54.704899985670998, "longitude": 20.514859985800001 }, "geometry": { "type": "Point", "coordinates": [ 20.514859985800001, 54.704899985670998 ] } },
{ "type": "Feature", "properties": { "Name": "Отделение постинтернатного сопровождения и социальной адаптации лиц из числа сирот и детей, оставшихся без попечения родителей", "address": "ул. Левитана, 58, корп. 1, Калининград, Квара 39", "latitude": 54.675460017600997, "longitude": 20.580790024521001 }, "geometry": { "type": "Point", "coordinates": [ 20.580790024521001, 54.675460017600997 ] } },
{ "type": "Feature", "properties": { "Name": "Финансово-инженерная служба комитета по социальной политике города Калининграда", "address": "ул. Чайковского, 52, Калининград, офис 101, этаж 1", "latitude": 54.725820000620999, "longitude": 20.485249990823 }, "geometry": { "type": "Point", "coordinates": [ 20.485249990823, 54.725820000620999 ] } },
{ "type": "Feature", "properties": { "Name": "Гбсоу Ко Госпиталь для ветеранов войн Калининградской области", "address": "Комсомольская ул., 91, лит.А, Калининград", "latitude": 54.733960002071001, "longitude": 20.475639971195001 }, "geometry": { "type": "Point", "coordinates": [ 20.475639971195001, 54.733960002071001 ] } },
{ "type": "Feature", "properties": { "Name": "Центр выдачи вещей Danke-Shop Фонда Милость к ближнему", "address": "Ялтинская ул., 66Б, Калининград", "latitude": 54.704783335268999, "longitude": 20.554265226241998 }, "geometry": { "type": "Point", "coordinates": [ 20.55437154081849, 54.704485411114902 ] } },
{ "type": "Feature", "properties": { "Name": "Центр социальной поддержки населения Отдел Мамоновский", "address": "Таможняя ул., 8А, Мамоново", "latitude": 54.460457616981003, "longitude": 19.935491050214999 }, "geometry": null },
{ "type": "Feature", "properties": { "Name": "Бюджетное учреждение социального обслуживания Комплексный центр в Янтарном", "address": "Береговая ул., 2, п. г. т. Янтарный, этаж 1", "latitude": 54.651609982666997, "longitude": 20.33624003657 }, "geometry": null },
{ "type": "Feature", "properties": { "Name": "Отделение социальной помощи семье и детям", "address": "ул. Ленина, 5, Гурьевск", "latitude": 54.772900019201003, "longitude": 20.610600011708001 }, "geometry": null },
{ "type": "Feature", "properties": { "Name": "ОГУ центр социальной поддержки населения, Светлогорский отдел", "address": "Советская ул., 40, п. г. т. Янтарный", "latitude": 54.716968706918003, "longitude": 20.588555732835001 }, "geometry": { "type": "Point", "coordinates": [ 20.588612544686818, 54.717013612214984 ] } },
{ "type": "Feature", "properties": { "Name": "Благотворительная барахолка", "address": "ул. Маршала Новикова, 26, Калининград", "latitude": 54.678270008730998, "longitude": 20.479699997455 }, "geometry": { "type": "Point", "coordinates": [ 20.479699997455, 54.678270008730998 ] } },
{ "type": "Feature", "properties": { "Name": "Фонд поддержки участников СВО Защитники Отечества", "address": "Комсомольская ул., 91В, Калининград", "latitude": 54.733810007914002, "longitude": 20.476359976676999 }, "geometry": { "type": "Point", "coordinates": [ 20.476359976676999, 54.733810007914002 ] } },
{ "type": "Feature", "properties": { "Name": "Центр социальной помощи семье и детям", "address": "Береговая ул., 2, п. г. т. Янтарный", "latitude": 54.651609982666997, "longitude": 20.33624003657 }, "geometry": null },
{ "type": "Feature", "properties": { "Name": "Комплекс по Социальным Вопросам Отделы организации работы комиссий по делам несовершеннолетних: Ленинградский", "address": "ул. Фрунзе, 71, Калининград", "latitude": 54.713160015974999, "longitude": 20.528579987832 }, "geometry": { "type": "Point", "coordinates": [ 20.528579987832, 54.713160015974999 ] } },
{ "type": "Feature", "properties": { "Name": "Контейнер для сбора одежды Danke-shop", "address": "Звёздная ул., 13, Калининград", "latitude": 54.699790000310003, "longitude": 20.588860037079002 }, "geometry": { "type": "Point", "coordinates": [ 20.588806215324652, 54.69981073461858 ] } },
{ "type": "Feature", "properties": { "Name": "Отдел государственного контроля", "address": "ул. Александра Суворова, 45, Калининград", "latitude": 54.691830000231, "longitude": 20.469020027886 }, "geometry": { "type": "Point", "coordinates": [ 20.469020027886, 54.691830000231 ] } },
{ "type": "Feature", "properties": { "Name": "Социальная гостиница", "address": "Ялтинская ул., 67, Калининград", "latitude": 54.705120010629997, "longitude": 20.553369969386999 }, "geometry": { "type": "Point", "coordinates": [ 20.553369969386999, 54.705120010629997 ] } },
{ "type": "Feature", "properties": { "Name": "Danke-shop", "address": "Ленинский просп., 64, Калининград", "latitude": 54.71219, "longitude": 20.50964 }, "geometry": { "type": "Point", "coordinates": [ 20.50964, 54.71219 ] } },
{ "type": "Feature", "properties": { "Name": "Пункт Первичного Приема и Учета Бездомных Граждан", "address": "Лесопильная ул., 72, Калининград", "latitude": 54.707149981850002, "longitude": 20.535260029385999 }, "geometry": { "type": "Point", "coordinates": [ 20.535260029385999, 54.707149981850002 ] } },
{ "type": "Feature", "properties": { "Name": "Центр Социального Обслуживания Населения в Мамоновском Городском Округе", "address": "Шоссейная ул., 1, Мамоново", "latitude": 54.463840012654998, "longitude": 19.943830007660999 }, "geometry": null },
{ "type": "Feature", "properties": { "Name": "Близкие люди", "address": "ул. Сергеева, 14, Калининград, комната 340", "latitude": 54.719660014249001, "longitude": 20.518910037594999 }, "geometry": { "type": "Point", "coordinates": [ 20.518910037594999, 54.719660014249001 ] } },
{ "type": "Feature", "properties": { "Name": "Калининградская Региональная Общественная Организация Новороссия", "address": "ул. Подполковника Емельянова, 228, Калининград", "latitude": 54.681550015081001, "longitude": 20.576880034327999 }, "geometry": { "type": "Point", "coordinates": [ 20.576880034327999, 54.681550015081001 ] } }
]
}
