{
"type": "FeatureCollection",
"name": "cafe",
"features": [
{ "type": "Feature", "properties": { "Name": "Хлеб и горчица", "address": "площадь Победы, 10, этаж 1", "latitude": 54.719599999822002, "longitude": 20.503890002380999 }, "geometry": { "type": "Point", "coordinates": [ 20.503890002380999, 54.719599999822002 ] } },
{ "type": "Feature", "properties": { "Name": "Cult Bar & Kitchen", "address": "Советский просп., 8", "latitude": 54.722549487047999, "longitude": 20.499263322135999 }, "geometry": { "type": "Point", "coordinates": [ 20.499864054294566, 54.722560501162178 ] } },
{ "type": "Feature", "properties": { "Name": "Моряна", "address": "ул. Виктора Гюго, 1, Калининград", "latitude": 55.91417, "longitude": 37.82556 }, "geometry": { "type": "Point", "coordinates": [ 37.82556, 55.91417 ] } },
{ "type": "Feature", "properties": { "Name": "Мандарин", "address": "ул. Профессора Баранова, 1, Калининград, этаж 1", "latitude": 54.721635198698998, "longitude": 20.512596672718999 }, "geometry": { "type": "Point", "coordinates": [ 20.513051194934214, 54.721473654379714 ] } },
{ "type": "Feature", "properties": { "Name": "Мамин сибиряк", "address": "Озёрная ул., 1А", "latitude": 54.735839979133999, "longitude": 20.508889975262999 }, "geometry": { "type": "Point", "coordinates": [ 20.508889975262999, 54.735839979133999 ] } },
{ "type": "Feature", "properties": { "Name": "Штолле", "address": "Барнаульская ул., 2Б, этаж 1", "latitude": 54.714759995561998, "longitude": 20.503000011901999 }, "geometry": { "type": "Point", "coordinates": [ 20.503000011901999, 54.714759995561998 ] } },
{ "type": "Feature", "properties": { "Name": "Готово", "address": "ул. 9 Апреля, 9", "latitude": 54.715920009051999, "longitude": 20.522300014515999 }, "geometry": { "type": "Point", "coordinates": [ 20.522300014515999, 54.715920009051999 ] } },
{ "type": "Feature", "properties": { "Name": "Дредноут", "address": "ул. Генделя, 5, этаж цокольный", "latitude": 54.721810014322998, "longitude": 20.496100029208002 }, "geometry": { "type": "Point", "coordinates": [ 20.496100029208002, 54.721810014322998 ] } },
{ "type": "Feature", "properties": { "Name": "Yummy garden", "address": "Озёрная ул., 1А", "latitude": 54.735839979133999, "longitude": 20.508889975262999 }, "geometry": { "type": "Point", "coordinates": [ 20.508889975262999, 54.735839979133999 ] } },
{ "type": "Feature", "properties": { "Name": "Помним любим", "address": "ул. Багратиона, 113", "latitude": 54.698139980759997, "longitude": 20.499269981169999 }, "geometry": { "type": "Point", "coordinates": [ 20.499269981169999, 54.698139980759997 ] } },
{ "type": "Feature", "properties": { "Name": "Круассан", "address": "площадь Победы, 4А", "latitude": 54.721149981358003, "longitude": 20.501139983767999 }, "geometry": { "type": "Point", "coordinates": [ 20.501139983767999, 54.721149981358003 ] } },
{ "type": "Feature", "properties": { "Name": "Желатерия Италия", "address": "Театральная ул., 30, этаж 2", "latitude": 54.717749988062998, "longitude": 20.498990025604002 }, "geometry": { "type": "Point", "coordinates": [ 20.498990025604002, 54.717749988062998 ] } },
{ "type": "Feature", "properties": { "Name": "Патиссон Markt", "address": "просп. Мира, 26", "latitude": 54.722040013746003, "longitude": 20.486290017369001 }, "geometry": { "type": "Point", "coordinates": [ 20.486290017369001, 54.722040013746003 ] } },
{ "type": "Feature", "properties": { "Name": "Поварёшка", "address": "Ленинский просп., 8", "latitude": 54.715499991884002, "longitude": 20.503290025752001 }, "geometry": { "type": "Point", "coordinates": [ 20.503290025752001, 54.715499991884002 ] } },
{ "type": "Feature", "properties": { "Name": "Бранч & Боул", "address": "Театральная ул., 23", "latitude": 54.717029982580002, "longitude": 20.499610034981998 }, "geometry": { "type": "Point", "coordinates": [ 20.499610034981998, 54.717029982580002 ] } },
{ "type": "Feature", "properties": { "Name": "Гриль-кафе Огонёк", "address": "просп. Победы, 2Б, Калининград", "latitude": 54.719999984242001, "longitude": 20.475120041741 }, "geometry": { "type": "Point", "coordinates": [ 20.475120041741, 54.719999984242001 ] } },
{ "type": "Feature", "properties": { "Name": "Вы достойны настоящего хлеба", "address": "Ленинский просп., 2, Калининград", "latitude": 54.71219, "longitude": 20.50964 }, "geometry": { "type": "Point", "coordinates": [ 20.50964, 54.71219 ] } },
{ "type": "Feature", "properties": { "Name": "Фьюжн экспресс", "address": "ул. Канта, 1А", "latitude": 54.706027517720997, "longitude": 20.512034050332002 }, "geometry": { "type": "Point", "coordinates": [ 20.512034050332002, 54.706027517720997 ] } },
{ "type": "Feature", "properties": { "Name": "Булочки Канта", "address": "Театральная ул., 21, ТЦ Маяк", "latitude": 54.71656, "longitude": 20.50038 }, "geometry": { "type": "Point", "coordinates": [ 20.50038, 54.71656 ] } },
{ "type": "Feature", "properties": { "Name": "Калининград-Ташкент", "address": "Октябрьская ул., 2А, Калининград, этаж 1, 2, 3", "latitude": 54.705090003415997, "longitude": 20.514469975845 }, "geometry": { "type": "Point", "coordinates": [ 20.514469975845, 54.705090003415997 ] } },
{ "type": "Feature", "properties": { "Name": "Мадам Буше", "address": "ул. Горького, 23А", "latitude": 54.726609994995997, "longitude": 20.509130032969999 }, "geometry": { "type": "Point", "coordinates": [ 20.509130032969999, 54.726609994995997 ] } },
{ "type": "Feature", "properties": { "Name": "Фьюжн экспресс", "address": "Ленинский просп., 67", "latitude": 54.713089985174001, "longitude": 20.507779959825999 }, "geometry": { "type": "Point", "coordinates": [ 20.507779959825999, 54.713089985174001 ] } },
{ "type": "Feature", "properties": { "Name": "Круассан", "address": "Гвардейский просп., 10", "latitude": 54.717660008332999, "longitude": 20.496170018099001 }, "geometry": { "type": "Point", "coordinates": [ 20.496170018099001, 54.717660008332999 ] } },
{ "type": "Feature", "properties": { "Name": "На углях", "address": "просп. Мира, 56А", "latitude": 54.721220012159002, "longitude": 20.482929963842999 }, "geometry": { "type": "Point", "coordinates": [ 20.482929963842999, 54.721220012159002 ] } },
{ "type": "Feature", "properties": { "Name": "Лепим и Варим", "address": "ул. Грекова, 3, Калининград, район Центральный, этаж 1, помещение 1", "latitude": 54.720289998091999, "longitude": 20.491210026895001 }, "geometry": { "type": "Point", "coordinates": [ 20.491210026895001, 54.720289998091999 ] } },
{ "type": "Feature", "properties": { "Name": "Trip", "address": "ул. Черняховского, 6А, Калининград, Port-o-Coffee", "latitude": 54.718910001552999, "longitude": 20.503580039601999 }, "geometry": { "type": "Point", "coordinates": [ 20.503580039601999, 54.718910001552999 ] } },
{ "type": "Feature", "properties": { "Name": "Port-o-Coffee", "address": "Театральная ул., 30, Калининград, этаж 2", "latitude": 54.717749988062998, "longitude": 20.498990025604002 }, "geometry": { "type": "Point", "coordinates": [ 20.498990025604002, 54.717749988062998 ] } },
{ "type": "Feature", "properties": { "Name": "Брикас", "address": "Ленинский просп., 81", "latitude": 54.712190020229997, "longitude": 20.509639987959002 }, "geometry": { "type": "Point", "coordinates": [ 20.509639987959002, 54.712190020229997 ] } },
{ "type": "Feature", "properties": { "Name": "Поварёшка", "address": "Гвардейский просп., 3, этаж 3", "latitude": 54.715892059867002, "longitude": 20.49416874524 }, "geometry": { "type": "Point", "coordinates": [ 20.49416874524, 54.715892059867002 ] } },
{ "type": "Feature", "properties": { "Name": "Кукси Moon", "address": "Советский просп., 16, этаж цокольный", "latitude": 54.723989979701003, "longitude": 20.498830015071999 }, "geometry": { "type": "Point", "coordinates": [ 20.498830015071999, 54.723989979701003 ] } },
{ "type": "Feature", "properties": { "Name": "Господа офицеры", "address": "Ленинский просп., 7, этаж 1", "latitude": 54.717810002489998, "longitude": 20.502570020269001 }, "geometry": { "type": "Point", "coordinates": [ 20.502570020269001, 54.717810002489998 ] } },
{ "type": "Feature", "properties": { "Name": "Премьер-министр", "address": "площадь Победы, 10, этаж 1", "latitude": 54.719599999822002, "longitude": 20.503890002380999 }, "geometry": { "type": "Point", "coordinates": [ 20.503890002380999, 54.719599999822002 ] } },
{ "type": "Feature", "properties": { "Name": "TastyLab Green", "address": "ул. Тельмана, 3", "latitude": 54.728970003653998, "longitude": 20.515990033986 }, "geometry": { "type": "Point", "coordinates": [ 20.515990033986, 54.728970003653998 ] } },
{ "type": "Feature", "properties": { "Name": "Эй, Джованни!", "address": "просп. Мира, 31", "latitude": 54.719749993980003, "longitude": 20.484819999190002 }, "geometry": { "type": "Point", "coordinates": [ 20.484819999190002, 54.719749993980003 ] } },
{ "type": "Feature", "properties": { "Name": "Фьюжн экспресс", "address": "просп. Мира, 23", "latitude": 54.719769984819003, "longitude": 20.486250035691 }, "geometry": { "type": "Point", "coordinates": [ 20.486250035691, 54.719769984819003 ] } },
{ "type": "Feature", "properties": { "Name": "Круассан", "address": "ул. Черняховского, 19", "latitude": 54.721070018001001, "longitude": 20.518409973251998 }, "geometry": { "type": "Point", "coordinates": [ 20.518409973251998, 54.721070018001001 ] } },
{ "type": "Feature", "properties": { "Name": "Кафе Июль", "address": "ул. Черняховского, 15А, этаж 1", "latitude": 54.720159994774001, "longitude": 20.508389994739002 }, "geometry": { "type": "Point", "coordinates": [ 20.508389994739002, 54.720159994774001 ] } },
{ "type": "Feature", "properties": { "Name": "Kirin", "address": "ул. Профессора Баранова, 34, этаж 7", "latitude": 54.721149981358003, "longitude": 20.506389988822001 }, "geometry": { "type": "Point", "coordinates": [ 20.506389988822001, 54.721149981358003 ] } },
{ "type": "Feature", "properties": { "Name": "Пышка", "address": "ул. Сержанта Колоскова, 1Б", "latitude": 54.719530010931003, "longitude": 20.485709989669999 }, "geometry": { "type": "Point", "coordinates": [ 20.485709989669999, 54.719530010931003 ] } },
{ "type": "Feature", "properties": { "Name": "Delimeal", "address": "ул. Шевченко, 11А", "latitude": 54.711700014169999, "longitude": 20.511100031672999 }, "geometry": { "type": "Point", "coordinates": [ 20.511100031672999, 54.711700014169999 ] } },
{ "type": "Feature", "properties": { "Name": "Бруклин", "address": "просп. Мира, 41-43", "latitude": 54.720619993619998, "longitude": 20.483140014337 }, "geometry": { "type": "Point", "coordinates": [ 20.483140014337, 54.720619993619998 ] } },
{ "type": "Feature", "properties": { "Name": "Заря", "address": "ул. Генерала Буткова, 16А", "latitude": 54.709819995197002, "longitude": 20.494669992706999 }, "geometry": { "type": "Point", "coordinates": [ 20.494669992706999, 54.709819995197002 ] } },
{ "type": "Feature", "properties": { "Name": "Броzzес", "address": "просп. Мира, 59, Калининград", "latitude": 54.719910004511, "longitude": 20.478849988654002 }, "geometry": { "type": "Point", "coordinates": [ 20.478849988654002, 54.719910004511 ] } },
{ "type": "Feature", "properties": { "Name": "Бранч & Боул", "address": "Каштановый пер., 3", "latitude": 54.718660011291, "longitude": 20.464290036105002 }, "geometry": { "type": "Point", "coordinates": [ 20.464290036105002, 54.718660011291 ] } },
{ "type": "Feature", "properties": { "Name": "Amalienau breakfast", "address": "Октябрьская ул., 8, Калининград, этаж 1", "latitude": 54.702200007020998, "longitude": 20.515790041776 }, "geometry": { "type": "Point", "coordinates": [ 20.515790041776, 54.702200007020998 ] } },
{ "type": "Feature", "properties": { "Name": "Tastylab", "address": "ул. Генерала Челнокова, 11, этаж 3", "latitude": 54.738030002796002, "longitude": 20.486049959662001 }, "geometry": { "type": "Point", "coordinates": [ 20.486049959662001, 54.738030002796002 ] } },
{ "type": "Feature", "properties": { "Name": "Да", "address": "ул. Космонавта Леонова, 34Б", "latitude": 54.729250001129003, "longitude": 20.482480023280999 }, "geometry": { "type": "Point", "coordinates": [ 20.482480023280999, 54.729250001129003 ] } },
{ "type": "Feature", "properties": { "Name": "Калининград Ташкент лаунж", "address": "просп. Мира, 84, этаж 1", "latitude": 54.720650000832997, "longitude": 20.475769974513 }, "geometry": { "type": "Point", "coordinates": [ 20.475769974513, 54.720650000832997 ] } },
{ "type": "Feature", "properties": { "Name": "Фьюжн экспресс", "address": "площадь Победы, 4, этаж 1", "latitude": 54.720830002204004, "longitude": 20.499880016083001 }, "geometry": { "type": "Point", "coordinates": [ 20.499880016083001, 54.720830002204004 ] } },
{ "type": "Feature", "properties": { "Name": "Круассан", "address": "Ленинский просп., 6", "latitude": 54.715660002416001, "longitude": 20.503070000792999 }, "geometry": { "type": "Point", "coordinates": [ 20.503070000792999, 54.715660002416001 ] } },
{ "type": "Feature", "properties": { "Name": "Патиссон Markt", "address": "просп. Мира, 13", "latitude": 54.719090002923998, "longitude": 20.490349959810001 }, "geometry": { "type": "Point", "coordinates": [ 20.490349959810001, 54.719090002923998 ] } },
{ "type": "Feature", "properties": { "Name": "Шаурхолл", "address": "ул. Генделя, 6", "latitude": 54.721719992682999, "longitude": 20.497209960826002 }, "geometry": { "type": "Point", "coordinates": [ 20.497209960826002, 54.721719992682999 ] } },
{ "type": "Feature", "properties": { "Name": "Остановка театр", "address": "просп. Мира, 19", "latitude": 54.719450005665003, "longitude": 20.487479996163 }, "geometry": { "type": "Point", "coordinates": [ 20.487479996163, 54.719450005665003 ] } },
{ "type": "Feature", "properties": { "Name": "Пельменная", "address": "площадь Победы, 10, Калининград, ТРЦ Кловер", "latitude": 54.719599999822002, "longitude": 20.503890002380999 }, "geometry": { "type": "Point", "coordinates": [ 20.503890002380999, 54.719599999822002 ] } },
{ "type": "Feature", "properties": { "Name": "Old brick", "address": "ул. Профессора Баранова, 40", "latitude": 54.718599996864, "longitude": 20.499109970637999 }, "geometry": { "type": "Point", "coordinates": [ 20.499109970637999, 54.718599996864 ] } },
{ "type": "Feature", "properties": { "Name": "Строганина", "address": "ул. Черняховского, 15, лит.Б", "latitude": 54.721700001843999, "longitude": 20.513440007583 }, "geometry": { "type": "Point", "coordinates": [ 20.513494041692503, 54.721635751423968 ] } },
{ "type": "Feature", "properties": { "Name": "Avo Kitchen & Bar", "address": "Верхнеозёрная ул., 16А", "latitude": 54.730310018513997, "longitude": 20.522030033414001 }, "geometry": { "type": "Point", "coordinates": [ 20.522030033414001, 54.730310018513997 ] } },
{ "type": "Feature", "properties": { "Name": "Шашлычная № 1", "address": "Театральная ул., 30, Калининград, этаж 1", "latitude": 54.717749988062998, "longitude": 20.498990025604002 }, "geometry": { "type": "Point", "coordinates": [ 20.498990025604002, 54.717749988062998 ] } },
{ "type": "Feature", "properties": { "Name": "Чайка у озера", "address": "Гаражная ул., 2, этаж 1", "latitude": 54.720890016631003, "longitude": 20.502819968621999 }, "geometry": { "type": "Point", "coordinates": [ 20.502819968621999, 54.720890016631003 ] } },
{ "type": "Feature", "properties": { "Name": "Port-o-Manufaktura", "address": "ул. Тельмана, 3, корп. 1", "latitude": 54.727779982949997, "longitude": 20.516320029513999 }, "geometry": { "type": "Point", "coordinates": [ 20.516320029513999, 54.727779982949997 ] } },
{ "type": "Feature", "properties": { "Name": "Форма", "address": "просп. Мира, 89, Калининград", "latitude": 55.91417, "longitude": 37.82556 }, "geometry": { "type": "Point", "coordinates": [ 37.82556, 55.91417 ] } },
{ "type": "Feature", "properties": { "Name": "Waffles House", "address": "ул. 9 Апреля, 86А", "latitude": 54.713054200888003, "longitude": 20.522501688184001 }, "geometry": { "type": "Point", "coordinates": [ 20.522501688184001, 54.713054200888003 ] } },
{ "type": "Feature", "properties": { "Name": "Naked Baker", "address": "Эпроновская ул., 6", "latitude": 54.700000008894001, "longitude": 20.513990028068999 }, "geometry": { "type": "Point", "coordinates": [ 20.513990028068999, 54.700000008894001 ] } },
{ "type": "Feature", "properties": { "Name": "Самарканд", "address": "Октябрьская ул., 2, этаж 1", "latitude": 54.705229981198997, "longitude": 20.514420019702001 }, "geometry": { "type": "Point", "coordinates": [ 20.514420019702001, 54.705229981198997 ] } },
{ "type": "Feature", "properties": { "Name": "Bo-Bo", "address": "Правая наб., 9, корп. 2", "latitude": 54.706409985529, "longitude": 20.472180005382999 }, "geometry": { "type": "Point", "coordinates": [ 20.472180005382999, 54.706409985529 ] } },
{ "type": "Feature", "properties": { "Name": "Феррум", "address": "Нарвская ул., 47А", "latitude": 54.732749990529001, "longitude": 20.496760020263999 }, "geometry": { "type": "Point", "coordinates": [ 20.496760020263999, 54.732749990529001 ] } },
{ "type": "Feature", "properties": { "Name": "Bravo Italia", "address": "ул. Фестивальная Аллея, 20", "latitude": 54.726180003362998, "longitude": 20.469880011152 }, "geometry": { "type": "Point", "coordinates": [ 20.469880011152, 54.726180003362998 ] } },
{ "type": "Feature", "properties": { "Name": "Руно", "address": "ул. Лейтенанта Яналова, 2", "latitude": 54.730070002717, "longitude": 20.486360006260998 }, "geometry": { "type": "Point", "coordinates": [ 20.486360006260998, 54.730070002717 ] } },
{ "type": "Feature", "properties": { "Name": "Сова", "address": "Ленинский просп., 30, ТРЦ Калининград Плаза, этаж 3", "latitude": 54.711210008110001, "longitude": 20.508229984206999 }, "geometry": { "type": "Point", "coordinates": [ 20.508229984206999, 54.711210008110001 ] } },
{ "type": "Feature", "properties": { "Name": "Мархамат", "address": "Эпроновская ул., 20", "latitude": 54.704369997934002, "longitude": 20.513479989261 }, "geometry": { "type": "Point", "coordinates": [ 20.513479989261, 54.704369997934002 ] } },
{ "type": "Feature", "properties": { "Name": "Bravo Italia", "address": "ул. Генерала Буткова, 19", "latitude": 54.709170020515998, "longitude": 20.495670037575 }, "geometry": { "type": "Point", "coordinates": [ 20.495670037575, 54.709170020515998 ] } },
{ "type": "Feature", "properties": { "Name": "Наше cafe", "address": "ул. Александра Невского, 30", "latitude": 54.726870001632001, "longitude": 20.528170028946999 }, "geometry": { "type": "Point", "coordinates": [ 20.528170028946999, 54.726870001632001 ] } },
{ "type": "Feature", "properties": { "Name": "Бухта", "address": "Советский просп., 125, этаж 3", "latitude": 54.740930015566001, "longitude": 20.472740000333999 }, "geometry": { "type": "Point", "coordinates": [ 20.472740000333999, 54.740930015566001 ] } },
{ "type": "Feature", "properties": { "Name": "Круассан", "address": "ул. 9 Апреля, 1", "latitude": 54.716968282876003, "longitude": 20.523714513893999 }, "geometry": { "type": "Point", "coordinates": [ 20.523714513893999, 54.716968282876003 ] } },
{ "type": "Feature", "properties": { "Name": "Бистро № 1", "address": "Советский просп., 8, Калининград", "latitude": 54.722810017282001, "longitude": 20.496630016946 }, "geometry": { "type": "Point", "coordinates": [ 20.496630016946, 54.722810017282001 ] } },
{ "type": "Feature", "properties": { "Name": "Königsbäcker", "address": "Советский просп., 1", "latitude": 54.720630009993997, "longitude": 20.497949999058001 }, "geometry": { "type": "Point", "coordinates": [ 20.497949999058001, 54.720630009993997 ] } },
{ "type": "Feature", "properties": { "Name": "Mark Craft Burgers", "address": "Юношеская ул., 6, точка самовывоза, подъезд 1", "latitude": 54.723349979483999, "longitude": 20.506859962132999 }, "geometry": { "type": "Point", "coordinates": [ 20.506859962132999, 54.723349979483999 ] } },
{ "type": "Feature", "properties": { "Name": "У быков", "address": "просп. Мира, 31, Калининград", "latitude": 54.719749993980003, "longitude": 20.484819999190002 }, "geometry": { "type": "Point", "coordinates": [ 20.484819999190002, 54.719749993980003 ] } },
{ "type": "Feature", "properties": { "Name": "Золотой Жук", "address": "Минская ул., 24", "latitude": 54.719710012302002, "longitude": 20.511519965022998 }, "geometry": { "type": "Point", "coordinates": [ 20.511519965022998, 54.719710012302002 ] } },
{ "type": "Feature", "properties": { "Name": "Skazka", "address": "ул. Черняховского, 7", "latitude": 54.72012998756, "longitude": 20.507230023158002 }, "geometry": { "type": "Point", "coordinates": [ 20.507230023158002, 54.72012998756 ] } },
{ "type": "Feature", "properties": { "Name": "Plov Sity", "address": "ул. Чайковского, 43", "latitude": 54.725939987564999, "longitude": 20.483100032658999 }, "geometry": { "type": "Point", "coordinates": [ 20.483100032658999, 54.725939987564999 ] } },
{ "type": "Feature", "properties": { "Name": "Фламинго", "address": "Житомирская ул., 12", "latitude": 54.711499980051002, "longitude": 20.506529966605001 }, "geometry": { "type": "Point", "coordinates": [ 20.506529966605001, 54.711499980051002 ] } },
{ "type": "Feature", "properties": { "Name": "Чайковский", "address": "просп. Мира, 31, Port-o-Coffee", "latitude": 54.71975, "longitude": 20.48482 }, "geometry": { "type": "Point", "coordinates": [ 20.48482, 54.71975 ] } },
{ "type": "Feature", "properties": { "Name": "TastyLab", "address": "ул. Горького, 123, Калининград", "latitude": 54.736969985411001, "longitude": 20.507049979878001 }, "geometry": { "type": "Point", "coordinates": [ 20.507049979878001, 54.736969985411001 ] } },
{ "type": "Feature", "properties": { "Name": "Фьюжн экспресс", "address": "ул. Карла Маркса, 18, Калининград, этаж 2", "latitude": 54.729219993915997, "longitude": 20.480840020106001 }, "geometry": { "type": "Point", "coordinates": [ 20.480840020106001, 54.729219993915997 ] } },
{ "type": "Feature", "properties": { "Name": "Port-o-Coffee", "address": "Беломорская ул., 2", "latitude": 54.735090008348003, "longitude": 20.511049991711999 }, "geometry": { "type": "Point", "coordinates": [ 20.511049991711999, 54.735090008348003 ] } },
{ "type": "Feature", "properties": { "Name": "Котокафе Котомания", "address": "ул. Черняховского, 15А, павильон б-03", "latitude": 54.720159994774001, "longitude": 20.508389994739002 }, "geometry": { "type": "Point", "coordinates": [ 20.508389994739002, 54.720159994774001 ] } },
{ "type": "Feature", "properties": { "Name": "Gameforce", "address": "ул. Профессора Баранова, 1, Калининград, подъезд 2, этаж 1", "latitude": 54.721635198698998, "longitude": 20.512596672718999 }, "geometry": { "type": "Point", "coordinates": [ 20.512793738294825, 54.721526890622442 ] } },
{ "type": "Feature", "properties": { "Name": "Хачапури Хаус", "address": "Солдатская ул., 2", "latitude": 54.738140015275, "longitude": 20.481030037850999 }, "geometry": { "type": "Point", "coordinates": [ 20.481030037850999, 54.738140015275 ] } },
{ "type": "Feature", "properties": { "Name": "Чайхана", "address": "ул. 9 Апреля, 86А, Калининград", "latitude": 54.713054200888003, "longitude": 20.522501688184001 }, "geometry": { "type": "Point", "coordinates": [ 20.522501688184001, 54.713054200888003 ] } },
{ "type": "Feature", "properties": { "Name": "Блин да Кофе", "address": "ул. Грига, 58А", "latitude": 54.715260017996002, "longitude": 20.529739959412002 }, "geometry": { "type": "Point", "coordinates": [ 20.529739959412002, 54.715260017996002 ] } },
{ "type": "Feature", "properties": { "Name": "Маяк", "address": "ул. Богдана Хмельницкого, 37", "latitude": 54.697349986386001, "longitude": 20.507630007578001 }, "geometry": { "type": "Point", "coordinates": [ 20.507630007578001, 54.697349986386001 ] } },
{ "type": "Feature", "properties": { "Name": "Порт-Брю", "address": "ул. Чкалова, 2А, Калининград", "latitude": 54.723311946267998, "longitude": 20.459739158409 }, "geometry": { "type": "Point", "coordinates": [ 20.459739158409, 54.723311946267998 ] } },
{ "type": "Feature", "properties": { "Name": "История в архитектуре", "address": "ул. Горького, 150А", "latitude": 54.740210010083999, "longitude": 20.505509972807999 }, "geometry": { "type": "Point", "coordinates": [ 20.505509972807999, 54.740210010083999 ] } },
{ "type": "Feature", "properties": { "Name": "Уралочка", "address": "ул. Багратиона, 91", "latitude": 54.698950007882999, "longitude": 20.505109988388 }, "geometry": { "type": "Point", "coordinates": [ 20.505109988388, 54.698950007882999 ] } },
{ "type": "Feature", "properties": { "Name": "Булочная", "address": "Московский просп., 40, павильон 112, этаж 1", "latitude": 54.709370012725003, "longitude": 20.502689965302999 }, "geometry": { "type": "Point", "coordinates": [ 20.502689965302999, 54.709370012725003 ] } },
{ "type": "Feature", "properties": { "Name": "Amalienau bakery", "address": "Советский просп., 8, Калининград", "latitude": 54.722810017282001, "longitude": 20.496630016946 }, "geometry": { "type": "Point", "coordinates": [ 20.496630016946, 54.722810017282001 ] } },
{ "type": "Feature", "properties": { "Name": "Königsbäcker", "address": "ул. Генделя, 6", "latitude": 54.721719992682999, "longitude": 20.497209960826002 }, "geometry": { "type": "Point", "coordinates": [ 20.497209960826002, 54.721719992682999 ] } },
{ "type": "Feature", "properties": { "Name": "Круассан", "address": "просп. Мира, 2А", "latitude": 54.720300014465998, "longitude": 20.497390004107 }, "geometry": { "type": "Point", "coordinates": [ 20.497390004107, 54.720300014465998 ] } },
{ "type": "Feature", "properties": { "Name": "Авеню", "address": "площадь Победы, 10, этаж 1", "latitude": 54.719599999822002, "longitude": 20.503890002380999 }, "geometry": { "type": "Point", "coordinates": [ 20.503890002380999, 54.719599999822002 ] } },
{ "type": "Feature", "properties": { "Name": "Кофе блин", "address": "Ленинский просп., 18, Калининград, этаж 1", "latitude": 54.713740001764997, "longitude": 20.505400002238002 }, "geometry": { "type": "Point", "coordinates": [ 20.505400002238002, 54.713740001764997 ] } },
{ "type": "Feature", "properties": { "Name": "Карл", "address": "Пролетарская ул., 87", "latitude": 54.720170011147999, "longitude": 20.513690039755001 }, "geometry": { "type": "Point", "coordinates": [ 20.513690039755001, 54.720170011147999 ] } },
{ "type": "Feature", "properties": { "Name": "Циндао", "address": "ул. Карла Маркса, 18, этаж 2", "latitude": 54.729219993915997, "longitude": 20.480840020106001 }, "geometry": { "type": "Point", "coordinates": [ 20.480840020106001, 54.729219993915997 ] } },
{ "type": "Feature", "properties": { "Name": "Ростерхит", "address": "ул. Профессора Баранова, 34, этаж 1", "latitude": 54.721149981358003, "longitude": 20.506389988822001 }, "geometry": { "type": "Point", "coordinates": [ 20.506389988822001, 54.721149981358003 ] } },
{ "type": "Feature", "properties": { "Name": "Дело в Рыбе", "address": "Советский просп., 16", "latitude": 54.723989979701003, "longitude": 20.498830015071999 }, "geometry": { "type": "Point", "coordinates": [ 20.498830015071999, 54.723989979701003 ] } },
{ "type": "Feature", "properties": { "Name": "Konigsbacker", "address": "Елизаветинская ул., 4, Калининград", "latitude": 54.747487826083002, "longitude": 20.484493342012001 }, "geometry": { "type": "Point", "coordinates": [ 20.484493342012001, 54.747487826083002 ] } },
{ "type": "Feature", "properties": { "Name": "Батька Блин", "address": "ул. Профессора Баранова, 1, этаж 1", "latitude": 54.721635198698998, "longitude": 20.512596672718999 }, "geometry": { "type": "Point", "coordinates": [ 20.51314337076807, 54.721493847442026 ] } },
{ "type": "Feature", "properties": { "Name": "Tastylab", "address": "ул. Рокоссовского, 16/18", "latitude": 54.718500000759001, "longitude": 20.50924000354 }, "geometry": { "type": "Point", "coordinates": [ 20.50924000354, 54.718500000759001 ] } },
{ "type": "Feature", "properties": { "Name": "Ужин в темноте", "address": "ул. Горького, 2А", "latitude": 54.721969982944998, "longitude": 20.50740998262 }, "geometry": { "type": "Point", "coordinates": [ 20.50740998262, 54.721969982944998 ] } },
{ "type": "Feature", "properties": { "Name": "Смокер Мит", "address": "ул. Горького, 87, этаж 1", "latitude": 54.732619987211002, "longitude": 20.508919982477 }, "geometry": { "type": "Point", "coordinates": [ 20.508919982477, 54.732619987211002 ] } },
{ "type": "Feature", "properties": { "Name": "Кунжут", "address": "Солнечный бул., 1, этаж 1", "latitude": 54.704580006518, "longitude": 20.517649986091001 }, "geometry": { "type": "Point", "coordinates": [ 20.517649986091001, 54.704580006518 ] } },
{ "type": "Feature", "properties": { "Name": "Soul Garden", "address": "ул. Сергеева, 2, 1", "latitude": 54.714840000827998, "longitude": 20.514659993590001 }, "geometry": { "type": "Point", "coordinates": [ 20.514659993590001, 54.714840000827998 ] } },
{ "type": "Feature", "properties": { "Name": "TTcoffee", "address": "наб. Петра Великого, 1, этаж 1", "latitude": 54.706630010486997, "longitude": 20.500570014352 }, "geometry": { "type": "Point", "coordinates": [ 20.500570014352, 54.706630010486997 ] } },
{ "type": "Feature", "properties": { "Name": "У Руслана", "address": "Елизаветинская ул., 3", "latitude": 54.746419994508003, "longitude": 20.488079972792001 }, "geometry": { "type": "Point", "coordinates": [ 20.488079972792001, 54.746419994508003 ] } },
{ "type": "Feature", "properties": { "Name": "Олимп", "address": "Ленинский просп., 30, этаж 3", "latitude": 54.711210008110001, "longitude": 20.508229984206999 }, "geometry": { "type": "Point", "coordinates": [ 20.508229984206999, 54.711210008110001 ] } },
{ "type": "Feature", "properties": { "Name": "Villa Ченто", "address": "ул. Петра Панина, 2А, корп. 1, Ленинградский район, микрорайон Сельма", "latitude": 54.746374611272998, "longitude": 20.495284654887001 }, "geometry": { "type": "Point", "coordinates": [ 20.495284654887001, 54.746374611272998 ] } },
{ "type": "Feature", "properties": { "Name": "Морека", "address": "Ленинский просп., 60", "latitude": 54.700920006586998, "longitude": 20.50323998579 }, "geometry": { "type": "Point", "coordinates": [ 20.50323998579, 54.700920006586998 ] } },
{ "type": "Feature", "properties": { "Name": "Блинский", "address": "ул. Согласия, 2", "latitude": 54.741340016359999, "longitude": 20.495740026465999 }, "geometry": { "type": "Point", "coordinates": [ 20.495740026465999, 54.741340016359999 ] } },
{ "type": "Feature", "properties": { "Name": "День Селедки", "address": "Советский просп., 2А, этаж 1", "latitude": 54.721600005738999, "longitude": 20.499320021132 }, "geometry": { "type": "Point", "coordinates": [ 20.499320021132, 54.721600005738999 ] } },
{ "type": "Feature", "properties": { "Name": "Кимчи", "address": "Гвардейский просп., 3, Калининград", "latitude": 54.715892059867002, "longitude": 20.49416874524 }, "geometry": { "type": "Point", "coordinates": [ 20.49416874524, 54.715892059867002 ] } },
{ "type": "Feature", "properties": { "Name": "Китайский вкус", "address": "ул. Горького, 96, этаж 1", "latitude": 54.732089999472997, "longitude": 20.512220021575999 }, "geometry": { "type": "Point", "coordinates": [ 20.512220021575999, 54.732089999472997 ] } },
{ "type": "Feature", "properties": { "Name": "Meat grill", "address": "Театральная ул., 30, этаж 1", "latitude": 54.717749988062998, "longitude": 20.498990025604002 }, "geometry": { "type": "Point", "coordinates": [ 20.498990025604002, 54.717749988062998 ] } },
{ "type": "Feature", "properties": { "Name": "FeelDeFish", "address": "ул. Фестивальная Аллея, 8", "latitude": 54.724570007400999, "longitude": 20.414760029137 }, "geometry": { "type": "Point", "coordinates": [ 20.414760029137, 54.724570007400999 ] } },
{ "type": "Feature", "properties": { "Name": "Есть Еда", "address": "Ленинский просп., 23", "latitude": 54.716350000684997, "longitude": 20.503350040177999 }, "geometry": { "type": "Point", "coordinates": [ 20.503350040177999, 54.716350000684997 ] } },
{ "type": "Feature", "properties": { "Name": "Трдельник", "address": "Ленинский просп., 18", "latitude": 54.713740001764997, "longitude": 20.505400002238002 }, "geometry": { "type": "Point", "coordinates": [ 20.505400002238002, 54.713740001764997 ] } },
{ "type": "Feature", "properties": { "Name": "Пан пончик", "address": "площадь Маршала Василевского, 2", "latitude": 54.719849990085002, "longitude": 20.523610022162998 }, "geometry": { "type": "Point", "coordinates": [ 20.523610022162998, 54.719849990085002 ] } },
{ "type": "Feature", "properties": { "Name": "Cheezy Doner & Burgers", "address": "ул. Профессора Баранова, 1, Калининград, этаж 1", "latitude": 54.721635198698998, "longitude": 20.512596672718999 }, "geometry": { "type": "Point", "coordinates": [ 20.512873200220564, 54.72145713273305 ] } },
{ "type": "Feature", "properties": { "Name": "Food тут", "address": "ул. Горького, 2, подъезд 1, этаж 3", "latitude": 54.721559982152002, "longitude": 20.509249978004998 }, "geometry": { "type": "Point", "coordinates": [ 20.509249978004998, 54.721559982152002 ] } },
{ "type": "Feature", "properties": { "Name": "Marzipan", "address": "Октябрьская ул., 2А, этаж 6", "latitude": 54.705090003415997, "longitude": 20.514469975845 }, "geometry": { "type": "Point", "coordinates": [ 20.514469975845, 54.705090003415997 ] } },
{ "type": "Feature", "properties": { "Name": "Шотыгде?", "address": "ул. Некрасова, 21, этаж цокольный", "latitude": 54.735400013037001, "longitude": 20.526549974702 }, "geometry": { "type": "Point", "coordinates": [ 20.526549974702, 54.735400013037001 ] } },
{ "type": "Feature", "properties": { "Name": "Opera", "address": "просп. Мира, 61, этаж 1", "latitude": 54.720439992248998, "longitude": 20.4735999836 }, "geometry": { "type": "Point", "coordinates": [ 20.4735999836, 54.720439992248998 ] } },
{ "type": "Feature", "properties": { "Name": "Шауroom", "address": "ул. Карла Маркса, 18, Port-o-coffee", "latitude": 54.729219993915997, "longitude": 20.480840020106001 }, "geometry": { "type": "Point", "coordinates": [ 20.480840020106001, 54.729219993915997 ] } },
{ "type": "Feature", "properties": { "Name": "Taj Mahal", "address": "ул. Герцена, 50, Калининград", "latitude": 54.750650005765003, "longitude": 20.531299999230999 }, "geometry": { "type": "Point", "coordinates": [ 20.531299999230999, 54.750650005765003 ] } },
{ "type": "Feature", "properties": { "Name": "Королевский трдельник", "address": "ул. Профессора Баранова, 1, этаж 1", "latitude": 54.721635198698998, "longitude": 20.512596672718999 }, "geometry": { "type": "Point", "coordinates": [ 20.513111585997777, 54.721576455371348 ] } },
{ "type": "Feature", "properties": { "Name": "Кит-Чен", "address": "ул. Чекистов, 14", "latitude": 54.732109990311997, "longitude": 20.480989972353001 }, "geometry": { "type": "Point", "coordinates": [ 20.480989972353001, 54.732109990311997 ] } },
{ "type": "Feature", "properties": { "Name": "Свидание на Маяке", "address": "ул. Согласия, 44А", "latitude": 54.749480017810001, "longitude": 20.488529997173998 }, "geometry": { "type": "Point", "coordinates": [ 20.488529997173998, 54.749480017810001 ] } },
{ "type": "Feature", "properties": { "Name": "NEкрасOFF", "address": "ул. Герцена, 28В", "latitude": 54.748730005113998, "longitude": 20.528340013944 }, "geometry": { "type": "Point", "coordinates": [ 20.528340013944, 54.748730005113998 ] } },
{ "type": "Feature", "properties": { "Name": "Königsbäcker", "address": "Малый пер., 32, этаж -1", "latitude": 54.700490014953999, "longitude": 20.511100031672999 }, "geometry": { "type": "Point", "coordinates": [ 20.511100031672999, 54.700490014953999 ] } },
{ "type": "Feature", "properties": { "Name": "Port-o-coffee", "address": "Полоцкая ул., 45В", "latitude": 54.703210386993, "longitude": 20.499260415548999 }, "geometry": { "type": "Point", "coordinates": [ 20.499260415548999, 54.703210386993 ] } },
{ "type": "Feature", "properties": { "Name": "Doner house", "address": "ул. Фрунзе, 15А, ТЦ Виктория, этаж 2", "latitude": 54.7127, "longitude": 20.52113 }, "geometry": { "type": "Point", "coordinates": [ 20.52113, 54.7127 ] } },
{ "type": "Feature", "properties": { "Name": "Sweet & Salty", "address": "ул. Фрунзе, 35", "latitude": 54.712900009338, "longitude": 20.523829963301999 }, "geometry": { "type": "Point", "coordinates": [ 20.523829963301999, 54.712900009338 ] } },
{ "type": "Feature", "properties": { "Name": "Наутилус", "address": "ул. Горького, 2, подъезд 1, этаж 4", "latitude": 54.721559982152002, "longitude": 20.509249978004998 }, "geometry": { "type": "Point", "coordinates": [ 20.509249978004998, 54.721559982152002 ] } },
{ "type": "Feature", "properties": { "Name": "Другое Место", "address": "Советский просп., 8", "latitude": 54.722549487047999, "longitude": 20.499263322135999 }, "geometry": { "type": "Point", "coordinates": [ 20.49969241653498, 54.722632092691491 ] } },
{ "type": "Feature", "properties": { "Name": "Угли$мясо", "address": "пер. Кирова, 1А", "latitude": 54.724761039463999, "longitude": 20.494762100932999 }, "geometry": { "type": "Point", "coordinates": [ 20.494762100932999, 54.724761039463999 ] } },
{ "type": "Feature", "properties": { "Name": "Кафе-столовая", "address": "Житомирская ул., 2", "latitude": 54.712690000754002, "longitude": 20.506410021571 }, "geometry": { "type": "Point", "coordinates": [ 20.506410021571, 54.712690000754002 ] } },
{ "type": "Feature", "properties": { "Name": "Как дома", "address": "пер. Чернышевского, 2", "latitude": 54.726650018583001, "longitude": 20.468219975227999 }, "geometry": { "type": "Point", "coordinates": [ 20.468219975227999, 54.726650018583001 ] } },
{ "type": "Feature", "properties": { "Name": "Высший вкус", "address": "ул. Черняховского, 15, лит.Б, за остановкой, этаж 1", "latitude": 54.721700001843999, "longitude": 20.513440007583 }, "geometry": { "type": "Point", "coordinates": [ 20.513395508904587, 54.721628408512323 ] } },
{ "type": "Feature", "properties": { "Name": "Абажур", "address": "Московский просп., 1А", "latitude": 54.711449981998001, "longitude": 20.494769988811999 }, "geometry": { "type": "Point", "coordinates": [ 20.494769988811999, 54.711449981998001 ] } },
{ "type": "Feature", "properties": { "Name": "China street wok", "address": "Верхнеозёрная ул., 2А", "latitude": 54.730200006034998, "longitude": 20.519299963731001 }, "geometry": { "type": "Point", "coordinates": [ 20.519299963731001, 54.730200006034998 ] } },
{ "type": "Feature", "properties": { "Name": "Микс ФУД", "address": "ул. Черняховского, 15, лит.Б", "latitude": 54.721700001843999, "longitude": 20.513440007583 }, "geometry": { "type": "Point", "coordinates": [ 20.513706999653483, 54.721666958792532 ] } },
{ "type": "Feature", "properties": { "Name": "Блинчик", "address": "ул. Сержанта Колоскова, 1Б", "latitude": 54.719530010931003, "longitude": 20.485709989669999 }, "geometry": { "type": "Point", "coordinates": [ 20.485709989669999, 54.719530010931003 ] } },
{ "type": "Feature", "properties": { "Name": "Пиросмани", "address": "ул. Тельмана, 48А", "latitude": 54.736739985988002, "longitude": 20.525030000379999 }, "geometry": { "type": "Point", "coordinates": [ 20.525030000379999, 54.736739985988002 ] } },
{ "type": "Feature", "properties": { "Name": "Столовая № 1", "address": "ул. Дмитрия Донского, 1", "latitude": 54.717760004436997, "longitude": 20.493919980011 }, "geometry": { "type": "Point", "coordinates": [ 20.493919980011, 54.717760004436997 ] } },
{ "type": "Feature", "properties": { "Name": "Готово", "address": "ул. 9 Апреля, 9", "latitude": 54.715920009051999, "longitude": 20.522300014515999 }, "geometry": { "type": "Point", "coordinates": [ 20.522300014515999, 54.715920009051999 ] } },
{ "type": "Feature", "properties": { "Name": "Хлеб и горчица", "address": "площадь Победы, 10, этаж 1", "latitude": 54.719599999822002, "longitude": 20.503890002380999 }, "geometry": { "type": "Point", "coordinates": [ 20.503890002380999, 54.719599999822002 ] } },
{ "type": "Feature", "properties": { "Name": "Столовка", "address": "Ленинский просп., 18, этаж 1", "latitude": 54.713740001764997, "longitude": 20.505400002238002 }, "geometry": { "type": "Point", "coordinates": [ 20.505400002238002, 54.713740001764997 ] } },
{ "type": "Feature", "properties": { "Name": "Поварёшка", "address": "Ленинский просп., 81", "latitude": 54.712190020229997, "longitude": 20.509639987959002 }, "geometry": { "type": "Point", "coordinates": [ 20.509639987959002, 54.712190020229997 ] } },
{ "type": "Feature", "properties": { "Name": "Поварёшка", "address": "просп. Мира, 61, ТЦ Спутник, этаж 1", "latitude": 54.72044, "longitude": 20.4736 }, "geometry": { "type": "Point", "coordinates": [ 20.4736, 54.72044 ] } },
{ "type": "Feature", "properties": { "Name": "А компот?", "address": "Советский просп., 68", "latitude": 54.731439982882002, "longitude": 20.488989996019999 }, "geometry": { "type": "Point", "coordinates": [ 20.488989996019999, 54.731439982882002 ] } },
{ "type": "Feature", "properties": { "Name": "Ялта", "address": "Московский просп., 164", "latitude": 54.709470008830003, "longitude": 20.542320022612 }, "geometry": { "type": "Point", "coordinates": [ 20.542320022612, 54.709470008830003 ] } },
{ "type": "Feature", "properties": { "Name": "Ложка", "address": "Московский просп., 83", "latitude": 54.709379987189998, "longitude": 20.517510008308001 }, "geometry": { "type": "Point", "coordinates": [ 20.517510008308001, 54.709379987189998 ] } },
{ "type": "Feature", "properties": { "Name": "Кошерная столовая", "address": "Октябрьская ул., 1А", "latitude": 54.705819983364002, "longitude": 20.514999963583001 }, "geometry": { "type": "Point", "coordinates": [ 20.514999963583001, 54.705819983364002 ] } },
{ "type": "Feature", "properties": { "Name": "Хюгге", "address": "Гаражная ул., 2А", "latitude": 54.724479985761, "longitude": 20.505349962276 }, "geometry": { "type": "Point", "coordinates": [ 20.505349962276, 54.724479985761 ] } },
{ "type": "Feature", "properties": { "Name": "Пышка", "address": "ул. Профессора Баранова, 34, этаж 7", "latitude": 54.721149981358003, "longitude": 20.506389988822001 }, "geometry": { "type": "Point", "coordinates": [ 20.506389988822001, 54.721149981358003 ] } },
{ "type": "Feature", "properties": { "Name": "Кафе-столовая", "address": "Малый пер., 32, этаж -1", "latitude": 54.700490014953999, "longitude": 20.511100031672999 }, "geometry": { "type": "Point", "coordinates": [ 20.511100031672999, 54.700490014953999 ] } },
{ "type": "Feature", "properties": { "Name": "Столовая", "address": "Солдатская ул., 7А", "latitude": 54.738527236557999, "longitude": 20.482135107975999 }, "geometry": { "type": "Point", "coordinates": [ 20.482135107975999, 54.738527236557999 ] } },
{ "type": "Feature", "properties": { "Name": "Бистро № 1", "address": "Советский просп., 125, этаж 3", "latitude": 54.740930015566001, "longitude": 20.472740000333999 }, "geometry": { "type": "Point", "coordinates": [ 20.472740000333999, 54.740930015566001 ] } },
{ "type": "Feature", "properties": { "Name": "Блинчик", "address": "Житомирская ул., 2", "latitude": 54.712690000754002, "longitude": 20.506410021571 }, "geometry": { "type": "Point", "coordinates": [ 20.506410021571, 54.712690000754002 ] } },
{ "type": "Feature", "properties": { "Name": "Заводская столовая", "address": "Гвардейский просп., 15, этаж 2", "latitude": 54.716619736482997, "longitude": 20.495129390267 }, "geometry": { "type": "Point", "coordinates": [ 20.495129390267, 54.716619736482997 ] } },
{ "type": "Feature", "properties": { "Name": "Янтарьэнерго", "address": "Театральная ул., 34", "latitude": 54.718139998018003, "longitude": 20.498389965154999 }, "geometry": { "type": "Point", "coordinates": [ 20.498389965154999, 54.718139998018003 ] } },
{ "type": "Feature", "properties": { "Name": "Столовая", "address": "ул. Сергеева, 10, этаж 2", "latitude": 54.717590019440998, "longitude": 20.518169999364002 }, "geometry": { "type": "Point", "coordinates": [ 20.518169999364002, 54.717590019440998 ] } },
{ "type": "Feature", "properties": { "Name": "Тарелочка", "address": "просп. Мира, 98, этаж цокольный", "latitude": 54.721680011004999, "longitude": 20.470519969459001 }, "geometry": { "type": "Point", "coordinates": [ 20.470519969459001, 54.721680011004999 ] } },
{ "type": "Feature", "properties": { "Name": "Симбад", "address": "Советский просп., 107, этаж 1", "latitude": 54.738049993635002, "longitude": 20.478159990384 }, "geometry": { "type": "Point", "coordinates": [ 20.478159990384, 54.738049993635002 ] } },
{ "type": "Feature", "properties": { "Name": "Столовая", "address": "ул. Черняховского, 15А, этаж 2", "latitude": 54.720159994774001, "longitude": 20.508389994739002 }, "geometry": { "type": "Point", "coordinates": [ 20.508389994739002, 54.720159994774001 ] } },
{ "type": "Feature", "properties": { "Name": "Кушать подано", "address": "ул. Дзержинского, 73А", "latitude": 54.686909990704997, "longitude": 20.533420034001001 }, "geometry": { "type": "Point", "coordinates": [ 20.533420034001001, 54.686909990704997 ] } },
{ "type": "Feature", "properties": { "Name": "Лимонад", "address": "ул. Горького, 166", "latitude": 54.748129986575002, "longitude": 20.502300039167999 }, "geometry": { "type": "Point", "coordinates": [ 20.502300039167999, 54.748129986575002 ] } },
{ "type": "Feature", "properties": { "Name": "Столовая", "address": "Киевская ул., 80, корп. 5", "latitude": 54.681910017823, "longitude": 20.473940037412 }, "geometry": { "type": "Point", "coordinates": [ 20.474435879828601, 54.681865917155648 ] } },
{ "type": "Feature", "properties": { "Name": "Василек", "address": "ул. Нансена, 68", "latitude": 54.694700005788, "longitude": 20.476580001635998 }, "geometry": { "type": "Point", "coordinates": [ 20.476580001635998, 54.694700005788 ] } },
{ "type": "Feature", "properties": { "Name": "СССР", "address": "Портовая ул., 55", "latitude": 54.698280000453003, "longitude": 20.476749986632001 }, "geometry": { "type": "Point", "coordinates": [ 20.476749986632001, 54.698280000453003 ] } },
{ "type": "Feature", "properties": { "Name": "Причал", "address": "Молодёжная ул., 6", "latitude": 54.738739991905, "longitude": 20.515010021866999 }, "geometry": { "type": "Point", "coordinates": [ 20.515010021866999, 54.738739991905 ] } },
{ "type": "Feature", "properties": { "Name": "Столовая", "address": "Тихорецкий тупик, 2А, этаж 1", "latitude": 54.683839992937997, "longitude": 20.495440038152001 }, "geometry": { "type": "Point", "coordinates": [ 20.495440038152001, 54.683839992937997 ] } },
{ "type": "Feature", "properties": { "Name": "Столовая", "address": "ул. Маршала Баграмяна, 2", "latitude": 54.707450012075, "longitude": 20.504089994590998 }, "geometry": { "type": "Point", "coordinates": [ 20.504089994590998, 54.707450012075 ] } },
{ "type": "Feature", "properties": { "Name": "Юность", "address": "ул. Дзержинского, 167Б", "latitude": 54.670850012763999, "longitude": 20.545970006169 }, "geometry": { "type": "Point", "coordinates": [ 20.545970006169, 54.670850012763999 ] } },
{ "type": "Feature", "properties": { "Name": "Буффетная", "address": "ул. 9 Апреля, 100", "latitude": 54.719819982871002, "longitude": 20.526949959121001 }, "geometry": { "type": "Point", "coordinates": [ 20.526949959121001, 54.719819982871002 ] } },
{ "type": "Feature", "properties": { "Name": "Глория", "address": "ул. Дзержинского, 73А, этаж 1", "latitude": 54.686909990704997, "longitude": 20.533420034001001 }, "geometry": { "type": "Point", "coordinates": [ 20.533420034001001, 54.686909990704997 ] } },
{ "type": "Feature", "properties": { "Name": "Столовая № 73", "address": "Железнодорожная ул., 7", "latitude": 54.713249995704999, "longitude": 20.566910011958001 }, "geometry": { "type": "Point", "coordinates": [ 20.566910011958001, 54.713249995704999 ] } },
{ "type": "Feature", "properties": { "Name": "Столовая-Буфет", "address": "ул. Согласия, 2", "latitude": 54.741340016359999, "longitude": 20.495740026465999 }, "geometry": { "type": "Point", "coordinates": [ 20.495740026465999, 54.741340016359999 ] } },
{ "type": "Feature", "properties": { "Name": "Есть Еда", "address": "Озёрная ул., 31А", "latitude": 54.739550019027, "longitude": 20.509930001809 }, "geometry": { "type": "Point", "coordinates": [ 20.509930001809, 54.739550019027 ] } },
{ "type": "Feature", "properties": { "Name": "Весёлая ложка", "address": "ул. Черняховского, 78А", "latitude": 54.720409985036, "longitude": 20.517740007731 }, "geometry": { "type": "Point", "coordinates": [ 20.517740007731, 54.720409985036 ] } },
{ "type": "Feature", "properties": { "Name": "39 Bistro", "address": "Транспортная ул., 17А, этаж 1", "latitude": 54.692979997347003, "longitude": 20.462460015184 }, "geometry": { "type": "Point", "coordinates": [ 20.462460015184, 54.692979997347003 ] } },
{ "type": "Feature", "properties": { "Name": "Столовая", "address": "Клиническая ул., 83А", "latitude": 54.719599999822002, "longitude": 20.52240001062 }, "geometry": { "type": "Point", "coordinates": [ 20.52240001062, 54.719599999822002 ] } },
{ "type": "Feature", "properties": { "Name": "Пышка", "address": "ул. Дзержинского, 244", "latitude": 54.653910018807998, "longitude": 20.541389966636 }, "geometry": { "type": "Point", "coordinates": [ 20.541389966636, 54.653910018807998 ] } },
{ "type": "Feature", "properties": { "Name": "Буфет", "address": "Ялтинская ул., 44, корп. 1", "latitude": 54.704270001829002, "longitude": 20.547129977749002 }, "geometry": { "type": "Point", "coordinates": [ 20.547129977749002, 54.704270001829002 ] } },
{ "type": "Feature", "properties": { "Name": "Столовая", "address": "Камская ул., 80", "latitude": 54.663140002947003, "longitude": 20.453739986035 }, "geometry": { "type": "Point", "coordinates": [ 20.453739986035, 54.663140002947003 ] } },
{ "type": "Feature", "properties": { "Name": "Столовая", "address": "Московский просп., 121А, этаж цокольный", "latitude": 54.709939982141002, "longitude": 20.528370021156999 }, "geometry": { "type": "Point", "coordinates": [ 20.528370021156999, 54.709939982141002 ] } },
{ "type": "Feature", "properties": { "Name": "Кафе-столовая на Камской", "address": "Туруханская ул., 1А", "latitude": 54.754420018174997, "longitude": 20.555380033588001 }, "geometry": { "type": "Point", "coordinates": [ 20.555380033588001, 54.754420018174997 ] } },
{ "type": "Feature", "properties": { "Name": "Сытый Папа", "address": "Судостроительная ул., 75, стр. 5", "latitude": 54.680880007650998, "longitude": 20.504219997909001 }, "geometry": { "type": "Point", "coordinates": [ 20.504219997909001, 54.680880007650998 ] } },
{ "type": "Feature", "properties": { "Name": "Татьяна", "address": "ул. Герцена, 2/1", "latitude": 54.744439979429998, "longitude": 20.520270001385001 }, "geometry": { "type": "Point", "coordinates": [ 20.520270001385001, 54.744439979429998 ] } },
{ "type": "Feature", "properties": { "Name": "Буфет", "address": "ул. Юрия Гагарина, 225кВ1", "latitude": 54.721813373449997, "longitude": 20.544436365961001 }, "geometry": { "type": "Point", "coordinates": [ 20.544436365961001, 54.721813373449997 ] } },
{ "type": "Feature", "properties": { "Name": "Столовая", "address": "Транспортная ул., 17А", "latitude": 54.692979997347003, "longitude": 20.462460015184 }, "geometry": { "type": "Point", "coordinates": [ 20.462460015184, 54.692979997347003 ] } },
{ "type": "Feature", "properties": { "Name": "Столовая", "address": "ул. Маршала Борзова, 65А", "latitude": 54.735979998826998, "longitude": 20.472530033659002 }, "geometry": { "type": "Point", "coordinates": [ 20.472530033659002, 54.735979998826998 ] } },
{ "type": "Feature", "properties": { "Name": "Столовая", "address": "Судостроительная ул., 6", "latitude": 54.681099990699998, "longitude": 20.487129967887 }, "geometry": { "type": "Point", "coordinates": [ 20.487129967887, 54.681099990699998 ] } },
{ "type": "Feature", "properties": { "Name": "Пышка", "address": "ул. Ермака, 3, этаж цокольный", "latitude": 54.721250019372, "longitude": 20.477860002069999 }, "geometry": { "type": "Point", "coordinates": [ 20.477860002069999, 54.721250019372 ] } }
]
}
