{
"type": "FeatureCollection",
"name": "fire_station",
"features": [
{ "type": "Feature", "properties": { "Name": "Специализированная Пожарно-спасательная часть", "address": "Нарвская ул., 52", "latitude": 54.732170004738997, "longitude": 20.497750006848001 }, "geometry": { "type": "Point", "coordinates": [ 20.497750006848001, 54.732170004738997 ] } },
{ "type": "Feature", "properties": { "Name": "Пожарная часть № 1 Ленинградского района", "address": "ул. 1812 года, 59", "latitude": 54.711269980628003, "longitude": 20.532549992452001 }, "geometry": { "type": "Point", "coordinates": [ 20.532549992452001, 54.711269980628003 ] } },
{ "type": "Feature", "properties": { "Name": "Пожарно-спасательная часть № 3 по охране Московского района городского округа города Калининград А. В. Гернера", "address": "ул. Дзержинского, 39", "latitude": 54.693159998717, "longitude": 20.527919996775999 }, "geometry": { "type": "Point", "coordinates": [ 20.527919996775999, 54.693159998717 ] } },
{ "type": "Feature", "properties": { "Name": "Пожарно-спасательная часть № 5 Центрального района", "address": "Бассейная ул., 35А", "latitude": 54.718710009342999, "longitude": 20.452680010559 }, "geometry": { "type": "Point", "coordinates": [ 20.452680010559, 54.718710009342999 ] } },
{ "type": "Feature", "properties": { "Name": "Отдел надзорной деятельности и профилактической работы по городскому округу г. Калининград", "address": "ул. 1812 года, 59", "latitude": 54.711269980628003, "longitude": 20.532549992452001 }, "geometry": { "type": "Point", "coordinates": [ 20.532549992452001, 54.711269980628003 ] } },
{ "type": "Feature", "properties": { "Name": "Пожарная часть № 4", "address": "Камская ул., 4", "latitude": 54.681179995965998, "longitude": 20.460390020376 }, "geometry": { "type": "Point", "coordinates": [ 20.460390020376, 54.681179995965998 ] } },
{ "type": "Feature", "properties": { "Name": "Главное управление МЧС России по Калининградской области", "address": "Озёрная ул., 31", "latitude": 54.741970000202997, "longitude": 20.428520012846 }, "geometry": { "type": "Point", "coordinates": [ 20.428646240328714, 54.741944777336698 ] } },
{ "type": "Feature", "properties": { "Name": "Пожарная часть № 20 города Гурьевска", "address": "Калининградское ш., 10, Гурьевск", "latitude": 54.667999998046, "longitude": 20.424129991057999 }, "geometry": { "type": "Point", "coordinates": [ 20.424129991057999, 54.667999998046 ] } },
{ "type": "Feature", "properties": { "Name": "Пожарная часть № 8", "address": "пер. Энергетиков, 2А, Калининград", "latitude": 54.662897420661999, "longitude": 20.577776592944002 }, "geometry": { "type": "Point", "coordinates": [ 20.578167862178169, 54.663010572826046 ] } },
{ "type": "Feature", "properties": { "Name": "Пожарная часть № 7", "address": "Петрозаводская ул., 11", "latitude": 54.688280012779003, "longitude": 20.442349985448001 }, "geometry": { "type": "Point", "coordinates": [ 20.442349985448001, 54.688280012779003 ] } },
{ "type": "Feature", "properties": { "Name": "Центр материального обеспечения Федеральной противопожарной службы", "address": "Бассейная ул., 35", "latitude": 54.719140000975997, "longitude": 20.452559981705999 }, "geometry": { "type": "Point", "coordinates": [ 20.452559981705999, 54.719140000975997 ] } },
{ "type": "Feature", "properties": { "Name": "Судебно-экспертное Учреждение Федеральной Противопожарной Службы Испытательная Пожарная Лаборатория по Калининградской области", "address": "Бассейная ул., 35А", "latitude": 54.718710009342999, "longitude": 20.452680010559 }, "geometry": { "type": "Point", "coordinates": [ 20.452680010559, 54.718710009342999 ] } },
{ "type": "Feature", "properties": { "Name": "ГУ МЧС России по Калининградской области", "address": "Озёрная ул., 29", "latitude": 54.741800015206003, "longitude": 20.428450023955001 }, "geometry": { "type": "Point", "coordinates": [ 20.428292239601614, 54.741812626685615 ] } },
{ "type": "Feature", "properties": { "Name": "Центр Управления в Кризисных Ситуациях Главного Управления МЧС России по Калининградской области", "address": "Лужская ул., 5, этаж 2", "latitude": 54.726919999685002, "longitude": 20.35648996027 }, "geometry": { "type": "Point", "coordinates": [ 20.35648996027, 54.726919999685002 ] } }
]
}
