{
"type": "FeatureCollection",
"name": "government",
"crs": { "type": "name", "properties": { "name": "urn:ogc:def:crs:OGC:1.3:CRS84" } },
"features": [
{ "type": "Feature", "properties": { "Name": "Управление по информационной политике и взаимодействию со средствами массовой информации", "address": "Дмитрия Донского, 1, Калининград", "latitude": 54.717760004437423, "longitude": 20.493919980010901 }, "geometry": { "type": "Point", "coordinates": [ 20.493919980010901, 54.717760004437423 ] } },
{ "type": "Feature", "properties": { "Name": "Агентство по Международным и Межрегиональным Связям Калининградской области", "address": "Советский проспект, 13, Калининград", "latitude": 54.724789990449693, "longitude": 20.496960012473608 }, "geometry": { "type": "Point", "coordinates": [ 20.496960012473608, 54.724789990449693 ] } },
{ "type": "Feature", "properties": { "Name": "УФНС России по Калининградской области", "address": "Площадь Калинина, 1, Калининград", "latitude": 54.696880013075145, "longitude": 20.498089976840703 }, "geometry": { "type": "Point", "coordinates": [ 20.498089976840703, 54.696880013075145 ] } },
{ "type": "Feature", "properties": { "Name": "Управление ФСИН России по Калининградской области", "address": "Киевская, 120, Калининград", "latitude": 54.682169982549823, "longitude": 20.465389993258469 }, "geometry": { "type": "Point", "coordinates": [ 20.465389993258469, 54.682169982549823 ] } },
{ "type": "Feature", "properties": { "Name": "Центр специальной связи и информации Федеральной службы охраны Российской Федерации в Калининградской области", "address": "Барнаульская, 5а, Калининград", "latitude": 54.713360008184509, "longitude": 20.502270031954282 }, "geometry": { "type": "Point", "coordinates": [ 20.502270031954282, 54.713360008184509 ] } },
{ "type": "Feature", "properties": { "Name": "Управление Федеральной антимонопольной службы России по Калининградской области", "address": "Барнаульская, 4, Калининград", "latitude": 54.713850014244144, "longitude": 20.502010025317787 }, "geometry": { "type": "Point", "coordinates": [ 20.502116375673214, 54.7139188033198 ] } },
{ "type": "Feature", "properties": { "Name": "Управление вневедомственной охраны Росгвардии по Калининградской области", "address": "Полковника Ефремова, 4а, Калининград", "latitude": 54.744809998546174, "longitude": 20.503880027916239 }, "geometry": { "type": "Point", "coordinates": [ 20.503880027916239, 54.744809998546174 ] } },
{ "type": "Feature", "properties": { "Name": "Управление ФСИН России по Калининградской области", "address": "Ушакова, 2, Калининград", "latitude": 54.720680008046656, "longitude": 20.495859971500863 }, "geometry": { "type": "Point", "coordinates": [ 20.495941826919896, 54.720668750485459 ] } },
{ "type": "Feature", "properties": { "Name": "Территориальное управление Росимущества в Калининградской области", "address": "Курортная, 1, Калининград", "latitude": 54.725219982082592, "longitude": 20.523169972246137 }, "geometry": { "type": "Point", "coordinates": [ 20.523169972246137, 54.725219982082592 ] } },
{ "type": "Feature", "properties": { "Name": "Росморпорт", "address": "Набережная Петра Великого, 7, Калининград", "latitude": 54.70696998047967, "longitude": 20.495729968182616 }, "geometry": { "type": "Point", "coordinates": [ 20.495729968182616, 54.70696998047967 ] } },
{ "type": "Feature", "properties": { "Name": "Государственный региональный центр стандартизации, метрологии и испытаний в Калининградской области", "address": "Больничная, 4, Калининград", "latitude": 54.713909986761365, "longitude": 20.503379963572769 }, "geometry": { "type": "Point", "coordinates": [ 20.503379963572769, 54.713909986761365 ] } },
{ "type": "Feature", "properties": { "Name": "Федеральная служба государственной статистики по Калининградской области", "address": "Московский проспект, 97, Калининград", "latitude": 54.709739989931563, "longitude": 20.521550001819406 }, "geometry": { "type": "Point", "coordinates": [ 20.521550001819406, 54.709739989931563 ] } },
{ "type": "Feature", "properties": { "Name": "Посольство Латвийской Республики в Российской Федерации", "address": "Фридриха Энгельса, 52а, Калининград", "latitude": 54.721810014323239, "longitude": 20.460460009267763 }, "geometry": { "type": "Point", "coordinates": [ 20.460526428486499, 54.721827052133243 ] } },
{ "type": "Feature", "properties": { "Name": "Почетное консульство Республики Армения в г. Калининграде", "address": "Герцена, 1д, Калининград", "latitude": 54.746439985347195, "longitude": 20.522249974553603 }, "geometry": { "type": "Point", "coordinates": [ 20.522249974553603, 54.746439985347195 ] } },
{ "type": "Feature", "properties": { "Name": "Генеральное консульство Федеративной Республики Германия", "address": "Тельмана, 14, Калининград", "latitude": 54.732439985839846, "longitude": 20.519870016965967 }, "geometry": { "type": "Point", "coordinates": [ 20.519832316779247, 54.732381938958909 ] } },
{ "type": "Feature", "properties": { "Name": "Отделение Посольства Республики Беларусь в РФ в г. Калининграде", "address": "Дмитрия Донского, 35а, Калининград", "latitude": 54.714599985030759, "longitude": 20.470460038851229 }, "geometry": { "type": "Point", "coordinates": [ 20.470460038851229, 54.714599985030759 ] } },
{ "type": "Feature", "properties": { "Name": "Консульство Республики Казахстан в РФ", "address": "Литовский вал, 48-50, Калининград", "latitude": 54.712889992963937, "longitude": 20.535720028232646 }, "geometry": { "type": "Point", "coordinates": [ 20.535720028232646, 54.712889992963937 ] } },
{ "type": "Feature", "properties": { "Name": "Генеральное консульство Республики Польша", "address": "Каштановая аллея, 51, Калининград", "latitude": 54.74976001528546, "longitude": 20.444890037386159 }, "geometry": { "type": "Point", "coordinates": [ 20.464235278683173, 54.721484325230492 ] } },
{ "type": "Feature", "properties": { "Name": "Российский Морской Регистр Судоходства", "address": "Портовая, 88, Калининград", "latitude": 54.696559992011885, "longitude": 20.456020031336692 }, "geometry": { "type": "Point", "coordinates": [ 20.456147237958039, 54.696633864726813 ] } },
{ "type": "Feature", "properties": { "Name": "Радиочастотный центр Северо-Западного федерального округа", "address": "Парус, Краснооктябрьская, 17, Калининград", "latitude": 54.702009989275609, "longitude": 20.508659975840089 }, "geometry": { "type": "Point", "coordinates": [ 20.508659975840089, 54.702009989275609 ] } },
{ "type": "Feature", "properties": { "Name": "Российский Морской Регистр Судоходства", "address": "Молочинского, 4, Калининград", "latitude": 54.734569995074793, "longitude": 20.479439990818236 }, "geometry": { "type": "Point", "coordinates": [ 20.479439990818236, 54.734569995074793 ] } },
{ "type": "Feature", "properties": { "Name": "Российский Морской Регистр Судоходства", "address": "Правая набережная, 2 лит Ц, Калининград", "latitude": 54.705919979468888, "longitude": 20.487240022275245 }, "geometry": { "type": "Point", "coordinates": [ 20.487240022275245, 54.705919979468888 ] } },
{ "type": "Feature", "properties": { "Name": "Министерство по муниципальному развитию и внутренней политике Калининградской области", "address": "Советский проспект, 13-17, Калининград", "latitude": 54.72537001814942, "longitude": 20.49610002920781 }, "geometry": { "type": "Point", "coordinates": [ 20.496065455259775, 54.725271613917251 ] } },
{ "type": "Feature", "properties": { "Name": "985 Центр Государственного санитарно-эпидемиологического надзора Министерства обороны Российской Федерации", "address": "Александра Невского, 174, Калининград", "latitude": 54.747320001361572, "longitude": 20.53652997153651 }, "geometry": { "type": "Point", "coordinates": [ 20.53652997153651, 54.747320001361572 ] } },
{ "type": "Feature", "properties": { "Name": "Управление Федеральной службы по надзору в сфере связи, информационных технологий и массовых коммуникаций по Калининградской области", "address": "Коммунальная, 4, Калининград", "latitude": 54.722170017064627, "longitude": 20.470070028896487 }, "geometry": { "type": "Point", "coordinates": [ 20.470070028896487, 54.722170017064627 ] } },
{ "type": "Feature", "properties": { "Name": "Управление дорожного хозяйства Калининградской области", "address": "Московский проспект, 188, Калининград", "latitude": 54.708600009190206, "longitude": 20.557789998388756 }, "geometry": { "type": "Point", "coordinates": [ 20.557789998388756, 54.708600009190206 ] } },
{ "type": "Feature", "properties": { "Name": "Агентство по рыболовству Калининградской области", "address": "Геологическая, 1, Калининград", "latitude": 54.714385796255463, "longitude": 20.500676288660767 }, "geometry": { "type": "Point", "coordinates": [ 20.500871850385007, 54.714194940633554 ] } },
{ "type": "Feature", "properties": { "Name": "Автобаза Правительства Калининградской области", "address": "Советский проспект, 21, Калининград", "latitude": 54.727060019377177, "longitude": 20.49316996731477 }, "geometry": { "type": "Point", "coordinates": [ 20.49316996731477, 54.727060019377177 ] } },
{ "type": "Feature", "properties": { "Name": "ВНИИЗЖ", "address": "Танковая, 15, Калининград", "latitude": 54.767329993083763, "longitude": 20.502930023010322 }, "geometry": { "type": "Point", "coordinates": [ 20.556720266105504, 54.725266854245746 ] } },
{ "type": "Feature", "properties": { "Name": "ВНИИЗЖ", "address": "Проспект Победы, 55, Калининград", "latitude": 54.714280005877043, "longitude": 20.461159982001959 }, "geometry": { "type": "Point", "coordinates": [ 20.461159982001959, 54.714280005877043 ] } },
{ "type": "Feature", "properties": { "Name": "Управление Федеральной службы государственной регистрации, кадастра и картографии по Калининградской области", "address": "Генерала Соммера, 27, Калининград", "latitude": 54.716820015905796, "longitude": 20.510949995606637 }, "geometry": { "type": "Point", "coordinates": [ 20.510949995606637, 54.716820015905796 ] } },
{ "type": "Feature", "properties": { "Name": "Пограничное Управление ФСБ России по Калининградской области", "address": "Александра Суворова, 15, Калининград", "latitude": 54.693539992297787, "longitude": 20.476679997740632 }, "geometry": { "type": "Point", "coordinates": [ 20.476628332932897, 54.693313894371428 ] } },
{ "type": "Feature", "properties": { "Name": "Управление финансового обеспечения Министерства обороны Российской Федерации по Калининградской области", "address": "Кирова, 24, Калининград", "latitude": 54.726240017789536, "longitude": 20.489919968177531 }, "geometry": { "type": "Point", "coordinates": [ 20.489919968177531, 54.726240017789536 ] } },
{ "type": "Feature", "properties": { "Name": "Управление Федеральной налоговой службы России по Калининградской области", "address": "Каштановая аллея, 28, Калининград", "latitude": 54.674230015219308, "longitude": 20.557899968958424 }, "geometry": { "type": "Point", "coordinates": [ 20.465683103908077, 54.717203763265189 ] } },
{ "type": "Feature", "properties": { "Name": "Контрольно-счётная палата городского округа", "address": "Площадь Победы, 1, Калининград", "latitude": 54.719250013455394, "longitude": 20.500440011033987 }, "geometry": { "type": "Point", "coordinates": [ 20.500440011033987, 54.719250013455394 ] } },
{ "type": "Feature", "properties": { "Name": "Управление Федеральной службы судебных приставов по Калининградской области", "address": "Проспект Мира, 5-7, Калининград", "latitude": 54.719580008983428, "longitude": 20.496470006413972 }, "geometry": { "type": "Point", "coordinates": [ 20.496470006413972, 54.719580008983428 ] } },
{ "type": "Feature", "properties": { "Name": "Комитет муниципального контроля", "address": "Карла Маркса, 41-43, Калининград", "latitude": 54.725420016201866, "longitude": 20.470879972200322 }, "geometry": { "type": "Point", "coordinates": [ 20.470879972200322, 54.725420016201866 ] } },
{ "type": "Feature", "properties": { "Name": "Северо-западное управление Федеральной службы по экологическому, технологическому и атомному надзору", "address": "Носова, 1-3, Калининград", "latitude": 54.720819985829678, "longitude": 20.490929987510157 }, "geometry": { "type": "Point", "coordinates": [ 20.490929987510157, 54.720819985829678 ] } },
{ "type": "Feature", "properties": { "Name": "Отдел физической культуры и спорта г. Калининграда", "address": "Фрунзе, 71, Калининград", "latitude": 54.713160015974722, "longitude": 20.528579987831677 }, "geometry": { "type": "Point", "coordinates": [ 20.528638775523945, 54.713097521746683 ] } },
{ "type": "Feature", "properties": { "Name": "Штаб Балтийского флота", "address": "Грекова, 2, Калининград", "latitude": 54.720719989724785, "longitude": 20.494969981021711 }, "geometry": { "type": "Point", "coordinates": [ 20.494969981021711, 54.720719989724785 ] } },
{ "type": "Feature", "properties": { "Name": "Управление Министерства юстиции РФ по Калининградской области", "address": "БЦ На Сергеева, Сергеева, 2, Калининград", "latitude": 54.71467999029656, "longitude": 20.51443996863182 }, "geometry": { "type": "Point", "coordinates": [ 20.51443996863182, 54.71467999029656 ] } },
{ "type": "Feature", "properties": { "Name": "Жилищный отдел управления жилищного и коммунального хозяйства комитета городского хозяйства и строительства", "address": "Карла Маркса, 43, Калининград", "latitude": 54.725379992614222, "longitude": 20.470639998312407 }, "geometry": { "type": "Point", "coordinates": [ 20.470639998312407, 54.725379992614222 ] } },
{ "type": "Feature", "properties": { "Name": "Министерство здравоохранения", "address": "Дмитрия Донского, 7а, Калининград", "latitude": 54.71492000609399, "longitude": 20.48980002314309 }, "geometry": { "type": "Point", "coordinates": [ 20.48980002314309, 54.71492000609399 ] } },
{ "type": "Feature", "properties": { "Name": "МИД России", "address": "Кирова, 17, Калининград", "latitude": 54.724750008771537, "longitude": 20.492369998475709 }, "geometry": { "type": "Point", "coordinates": [ 20.492369998475709, 54.724750008771537 ] } },
{ "type": "Feature", "properties": { "Name": "Комитет по образованию", "address": "Чайковского, 50-52, Калининград", "latitude": 54.725759986194674, "longitude": 20.485440008568304 }, "geometry": { "type": "Point", "coordinates": [ 20.485440008568304, 54.725759986194674 ] } },
{ "type": "Feature", "properties": { "Name": "Управление ФСБ по Калининградской области", "address": "Советский проспект, 3, Калининград", "latitude": 54.722450014540215, "longitude": 20.498849964001607 }, "geometry": { "type": "Point", "coordinates": [ 20.498849964001607, 54.722450014540215 ] } },
{ "type": "Feature", "properties": { "Name": "Управление Федеральной службы по надзору в сфере защиты прав потребителей и благополучия человека по Калининградской области", "address": "Подполковника Иванникова, 5, Калининград", "latitude": 54.717749988063133, "longitude": 20.504449997332159 }, "geometry": { "type": "Point", "coordinates": [ 20.504449997332159, 54.717749988063133 ] } },
{ "type": "Feature", "properties": { "Name": "Управление социальной поддержки населения", "address": "Проспект Победы, 42, Калининград", "latitude": 54.714469981712512, "longitude": 20.457500023980401 }, "geometry": { "type": "Point", "coordinates": [ 20.457500023980401, 54.714469981712512 ] } },
{ "type": "Feature", "properties": { "Name": "Отдел правового и кадрового обеспечения", "address": "Клиническая, 63, Калининград", "latitude": 54.715770014895014, "longitude": 20.52101003961684 }, "geometry": { "type": "Point", "coordinates": [ 20.52101003961684, 54.715770014895014 ] } },
{ "type": "Feature", "properties": { "Name": "Городское дорожное строительство и ремонт", "address": "Космонавта Леонова, 49, Калининград", "latitude": 54.72990001772061, "longitude": 20.480970023423879 }, "geometry": { "type": "Point", "coordinates": [ 20.48103774372219, 54.729924718701973 ] } },
{ "type": "Feature", "properties": { "Name": "Контрольно-счeтная палата Калининградской области", "address": "Клиническая, 19, Калининград", "latitude": 54.712709991593243, "longitude": 20.516989995034862 }, "geometry": { "type": "Point", "coordinates": [ 20.516989995034862, 54.712709991593243 ] } },
{ "type": "Feature", "properties": { "Name": "Министерство молодежной политики Калининградской области", "address": "Акрополь, Профессора Баранова, 34, Калининград", "latitude": 54.72115, "longitude": 20.50639 }, "geometry": { "type": "Point", "coordinates": [ 20.50639, 54.72115 ] } },
{ "type": "Feature", "properties": { "Name": "Министерство цифровых технологий и связи Калининградской области", "address": "ТЦ Ялтинский, Московский проспект, 174, Калининград", "latitude": 54.709691512235246, "longitude": 20.542722946008318 }, "geometry": { "type": "Point", "coordinates": [ 20.544059350452709, 54.70946225833007 ] } },
{ "type": "Feature", "properties": { "Name": "Агентство по обеспечению деятельности мировых судей Калининградской области", "address": "Улица Горького, 152а, Калининград", "latitude": 54.740549980076281, "longitude": 20.505609968912609 }, "geometry": { "type": "Point", "coordinates": [ 20.505609968912609, 54.740549980076281 ] } },
{ "type": "Feature", "properties": { "Name": "Департамент осуществления передовых полномочий в Российской Федерации в сфере образования", "address": "Александра Суворова, 45, Калининград", "latitude": 54.691830000230965, "longitude": 20.469020027885676 }, "geometry": { "type": "Point", "coordinates": [ 20.469020027885676, 54.691830000230965 ] } },
{ "type": "Feature", "properties": { "Name": "Министерство образования Калининградской области", "address": "Переулок Желябова, 11, Калининград", "latitude": 54.727219987999291, "longitude": 20.498849964001607 }, "geometry": { "type": "Point", "coordinates": [ 20.498849964001607, 54.727219987999291 ] } },
{ "type": "Feature", "properties": { "Name": "Дирекция по строительству и эксплуатации объектов Росграницы", "address": "Профессора Севастьянова, 3, Калининград", "latitude": 54.714929980558765, "longitude": 20.507089961556289 }, "geometry": { "type": "Point", "coordinates": [ 20.507159038292443, 54.71491800680208 ] } },
{ "type": "Feature", "properties": { "Name": "Отдел по делам молодежи г. Калининграда", "address": "Подполковника Иванникова, 1, Калининград", "latitude": 54.716790008692442, "longitude": 20.505539980021098 }, "geometry": { "type": "Point", "coordinates": [ 20.505539980021098, 54.716790008692442 ] } },
{ "type": "Feature", "properties": { "Name": "Министерство природных ресурсов и экологии Калининградской области", "address": "Московский проспект, 95, Калининград", "latitude": 54.709819995197392, "longitude": 20.520539982486781 }, "geometry": { "type": "Point", "coordinates": [ 20.520615296265188, 54.709776517937541 ] } },
{ "type": "Feature", "properties": { "Name": "Управление Федеральной службы по ветеринарному и фитосанитарному надзору по Калининградской области", "address": "Советский проспект, 155, Калининград", "latitude": 54.74329999868911, "longitude": 20.468100030193142 }, "geometry": { "type": "Point", "coordinates": [ 20.468100030193142, 54.74329999868911 ] } },
{ "type": "Feature", "properties": { "Name": "Управление Федеральной службы по ветеринарному и фитосанитарному надзору по Калининградской области", "address": "Советский проспект, 188в, Калининград", "latitude": 54.745209982965719, "longitude": 20.467970026874895 }, "geometry": { "type": "Point", "coordinates": [ 20.467970026874895, 54.745209982965719 ] } },
{ "type": "Feature", "properties": { "Name": "Управление Федеральной почтовой связи Калининградской области", "address": "Космонавта Леонова, 22, Калининград", "latitude": 54.725919996726276, "longitude": 20.48245001606756 }, "geometry": { "type": "Point", "coordinates": [ 20.482488316243582, 54.726020461940813 ] } },
{ "type": "Feature", "properties": { "Name": "Территориальный центр медицины катастроф Калининградской области", "address": "Мусоргского, 74, Калининград", "latitude": 54.732530007479966, "longitude": 20.502070039744524 }, "geometry": { "type": "Point", "coordinates": [ 20.502070039744524, 54.732530007479966 ] } },
{ "type": "Feature", "properties": { "Name": "Секретариат командующего Балтийским флотом", "address": "Ушакова, 1-5, Калининград", "latitude": 54.720910007469769, "longitude": 20.495410030938416 }, "geometry": { "type": "Point", "coordinates": [ 20.495458302746108, 54.72086550542771 ] } },
{ "type": "Feature", "properties": { "Name": "Дорожно-транспортное управление комитета городского хозяйства", "address": "Павлика Морозова, 6-8, Калининград", "latitude": 54.680220016595086, "longitude": 20.471729981001346 }, "geometry": { "type": "Point", "coordinates": [ 20.471729981001346, 54.680220016595086 ] } },
{ "type": "Feature", "properties": { "Name": "Информационно-расчетный центр", "address": "Мега-Маркет, Уральская, 18, Калининград", "latitude": 54.72475, "longitude": 20.5017 }, "geometry": { "type": "Point", "coordinates": [ 20.5017, 54.72475 ] } },
{ "type": "Feature", "properties": { "Name": "Отдел проверок и муниципального контроля", "address": "Московский проспект, 155-159, Калининград", "latitude": 54.710110009047241, "longitude": 20.535579966630593 }, "geometry": { "type": "Point", "coordinates": [ 20.535579966630593, 54.710110009047241 ] } },
{ "type": "Feature", "properties": { "Name": "Северозападное межрегиональное управление росприроднадзора", "address": "Офицерская, 6, Калининград", "latitude": 54.722049988211154, "longitude": 20.471689999323189 }, "geometry": { "type": "Point", "coordinates": [ 20.471689999323189, 54.722049988211154 ] } },
{ "type": "Feature", "properties": { "Name": "Управление Федеральной службы войск национальной гвардии Российской федерации по Калининградской области", "address": "Проспект Победы, 61, Калининград", "latitude": 54.714030015614838, "longitude": 20.459619974931513 }, "geometry": { "type": "Point", "coordinates": [ 20.459658282810835, 54.71398069632945 ] } },
{ "type": "Feature", "properties": { "Name": "Отдел геологии и лицензирования Департамента по недропользованию по Северо-Западному федеральному округу на континентальном шельфе и мировом океане по Калининградской области", "address": "Кирпичная, 7, Калининград", "latitude": 54.711190017271406, "longitude": 20.524620041495467 }, "geometry": { "type": "Point", "coordinates": [ 20.523862600659587, 54.711388250528891 ] } },
{ "type": "Feature", "properties": { "Name": "Управление учета и найма жилья", "address": "Уральская, 9, Калининград", "latitude": 54.724680019880026, "longitude": 20.499850008869487 }, "geometry": { "type": "Point", "coordinates": [ 20.499850008869487, 54.724680019880026 ] } },
{ "type": "Feature", "properties": { "Name": "Главное Военно-Строительное Управление Балтийского Флота", "address": "Верхнеозёрная, 24, Калининград", "latitude": 54.732189995577642, "longitude": 20.524620041495467 }, "geometry": { "type": "Point", "coordinates": [ 20.524620041495467, 54.732189995577642 ] } },
{ "type": "Feature", "properties": { "Name": "Оперативно-Техническая Служба", "address": "Аллея Смелых, 31, Калининград", "latitude": 54.689220001310673, "longitude": 20.523840021585983 }, "geometry": { "type": "Point", "coordinates": [ 20.523840021585983, 54.689220001310673 ] } },
{ "type": "Feature", "properties": { "Name": "Гидрографическая служба Балтийского флота", "address": "Сергея Тюленина, 17, Калининград", "latitude": 54.710420013736211, "longitude": 20.521759968493967 }, "geometry": { "type": "Point", "coordinates": [ 20.521759968493967, 54.710420013736211 ] } },
{ "type": "Feature", "properties": { "Name": "Управление Министерства культуры Российской Федерации по Северо-западному федеральному округу", "address": "Лейтенанта Яналова, 42, Калининград", "latitude": 54.729599987496442, "longitude": 20.476229973359153 }, "geometry": { "type": "Point", "coordinates": [ 20.476229973359153, 54.729599987496442 ] } },
{ "type": "Feature", "properties": { "Name": "Управление судебного департамента в Калининградской области", "address": "Проспект Победы, 44, Калининград", "latitude": 54.714399992821001, "longitude": 20.456139976371134 }, "geometry": { "type": "Point", "coordinates": [ 20.456139976371134, 54.714399992821001 ] } },
{ "type": "Feature", "properties": { "Name": "Отдел водных ресурсов Невско-Ладожского бассейнового водного Управления по Калининградской области", "address": "Проспект Победы, 161, Калининград", "latitude": 54.711299987841073, "longitude": 20.436260029876735 }, "geometry": { "type": "Point", "coordinates": [ 20.436260029876735, 54.711299987841073 ] } },
{ "type": "Feature", "properties": { "Name": "Западно-Балтийское территориальное Управление Федерального агентства по рыболовству", "address": "Кирова, 15, Калининград", "latitude": 54.724609989078999, "longitude": 20.493499962842805 }, "geometry": { "type": "Point", "coordinates": [ 20.493499962842805, 54.724609989078999 ] } },
{ "type": "Feature", "properties": { "Name": "Управление мелиорации земель и сельскохозяйственного водоснабжения по Калининградской области", "address": "Космонавта Леонова, 18, Калининград", "latitude": 54.72483998850214, "longitude": 20.482390001640823 }, "geometry": { "type": "Point", "coordinates": [ 20.482390001640823, 54.72483998850214 ] } },
{ "type": "Feature", "properties": { "Name": "Генеральное консульство Литовской республики", "address": "Пролетарская, 133, Калининград", "latitude": 54.725490005093377, "longitude": 20.51396002085599 }, "geometry": { "type": "Point", "coordinates": [ 20.51396002085599, 54.725490005093377 ] } }
]
}
