{
"type": "FeatureCollection",
"name": "prosecutor",
"crs": { "type": "name", "properties": { "name": "urn:ogc:def:crs:OGC:1.3:CRS84" } },
"features": [
{ "type": "Feature", "properties": { "Name": "Военная прокуратура Калининградского гарнизона", "address": "Шиллера, 3, Калининград", "latitude": 54.722409990952542, "longitude": 20.476250006107733 }, "geometry": { "type": "Point", "coordinates": [ 20.476276678988153, 54.722348078742321 ] } },
{ "type": "Feature", "properties": { "Name": "Прокуратура Калининградской области", "address": "Улица Горького, 4, Калининград", "latitude": 54.723359995858459, "longitude": 20.508979996903321 }, "geometry": { "type": "Point", "coordinates": [ 20.509017584335279, 54.723311970230583 ] } },
{ "type": "Feature", "properties": { "Name": "Прокуратура Центрального района г. Калининграда", "address": "Чапаева, 15, Калининград", "latitude": 54.719929995350498, "longitude": 20.467659980276437 }, "geometry": { "type": "Point", "coordinates": [ 20.467659980276437, 54.719929995350498 ] } },
{ "type": "Feature", "properties": { "Name": "Военная прокуратура Балтийского флота", "address": "Советский проспект, 68, Калининград", "latitude": 54.731439982881511, "longitude": 20.488989996020223 }, "geometry": { "type": "Point", "coordinates": [ 20.488989996020223, 54.731439982881511 ] } },
{ "type": "Feature", "properties": { "Name": "Прокуратура Ленинградского района г. Калининграда", "address": "Ялтинская, 84, Калининград", "latitude": 54.704359981559378, "longitude": 20.556979971265889 }, "geometry": { "type": "Point", "coordinates": [ 20.556979971265889, 54.704359981559378 ] } },
{ "type": "Feature", "properties": { "Name": "Прокуратура Московского района", "address": "Черниговская, 43а, Калининград", "latitude": 54.686649984068538, "longitude": 20.531019959846049 }, "geometry": { "type": "Point", "coordinates": [ 20.531019959846049, 54.686649984068538 ] } },
{ "type": "Feature", "properties": { "Name": "306 Военная прокуратура гарнизона", "address": "Артиллерийская, 5, Калининград", "latitude": 54.733029988004375, "longitude": 20.535219963889205 }, "geometry": { "type": "Point", "coordinates": [ 20.535219963889205, 54.733029988004375 ] } },
{ "type": "Feature", "properties": { "Name": "Прокуратура г. Калининграда", "address": "Комсомольская улица, 31-31а, Калининград", "latitude": 54.725540003145824, "longitude": 20.47845000423419 }, "geometry": { "type": "Point", "coordinates": [ 20.47845000423419, 54.725540003145824 ] } },
{ "type": "Feature", "properties": { "Name": "Калининградская транспортная прокуратура", "address": "Профессора Севастьянова, 3-5, Калининград", "latitude": 54.714939996933083, "longitude": 20.507270004836499 }, "geometry": { "type": "Point", "coordinates": [ 20.507270004836499, 54.714939996933083 ] } },
{ "type": "Feature", "properties": { "Name": "Прокуратура по надзору за соблюдением законов в исправительных учреждениях", "address": "Геологическая, 1, Калининград", "latitude": 54.714385796255463, "longitude": 20.500676288660767 }, "geometry": { "type": "Point", "coordinates": [ 20.500855366606196, 54.714221125970617 ] } },
{ "type": "Feature", "properties": { "Name": "Калининградская межрайонная природоохранная прокуратура", "address": "Геологическая, 1, Калининград", "latitude": 54.714385796255463, "longitude": 20.500676288660767 }, "geometry": { "type": "Point", "coordinates": [ 20.50092954361013, 54.714238582852751 ] } }
]
}
