{
"type": "FeatureCollection",
"name": "social_facility",
"crs": { "type": "name", "properties": { "name": "urn:ogc:def:crs:OGC:1.3:CRS84" } },
"features": [
{ "type": "Feature", "properties": { "Name": "Калининградский пансионат", "address": "Андреевская, 31, Калининград", "latitude": 54.683600019050573, "longitude": 20.582019984993167 }, "geometry": { "type": "Point", "coordinates": [ 20.58209292239513, 54.683579464957866 ] } },
{ "type": "Feature", "properties": { "Name": "ЦСО МИЛОСЕРДИЕ", "address": "Октябрьская, 4, Калининград", "latitude": 54.70489998567146, "longitude": 20.514859985799916 }, "geometry": { "type": "Point", "coordinates": [ 20.514859985799916, 54.70489998567146 ] } },
{ "type": "Feature", "properties": { "Name": "Альтернатива", "address": "Подполковника Емельянова, 144, Калининград", "latitude": 54.682290011403296, "longitude": 20.554930009206259 }, "geometry": { "type": "Point", "coordinates": [ 20.554930009206259, 54.682290011403296 ] } },
{ "type": "Feature", "properties": { "Name": "Надежда", "address": "Херсонский переулок, 23, Калининград", "latitude": 54.756924710108983, "longitude": 20.461017061038088 }, "geometry": { "type": "Point", "coordinates": [ 20.461017061038088, 54.756924710108983 ] } },
{ "type": "Feature", "properties": { "Name": "Времена года", "address": "Судостроительная, 75, Калининград", "latitude": 54.680880007651126, "longitude": 20.504219997909019 }, "geometry": { "type": "Point", "coordinates": [ 20.504219997909019, 54.680880007651126 ] } },
{ "type": "Feature", "properties": { "Name": "Домашний", "address": "Георгиновая, 20, Калининград", "latitude": 54.756059979440664, "longitude": 20.490249963705537 }, "geometry": { "type": "Point", "coordinates": [ 20.490376147740385, 54.755885752391499 ] } },
{ "type": "Feature", "properties": { "Name": "Социальный пансионат Сосновая Усадьба", "address": "Улица Карташева, 68, Калининград", "latitude": 54.727290018800318, "longitude": 20.361079974268137 }, "geometry": { "type": "Point", "coordinates": [ 20.361079974268137, 54.727290018800318 ] } },
{ "type": "Feature", "properties": { "Name": "Долгожитель", "address": "Изумрудная, 2, Калининград", "latitude": 54.721700001844056, "longitude": 20.359000004995153 }, "geometry": { "type": "Point", "coordinates": [ 20.359206479118722, 54.72171320682812 ] } },
{ "type": "Feature", "properties": { "Name": "Надежда", "address": "Камская, 2-2а, Калининград", "latitude": 54.683399984931299, "longitude": 20.458729984452361 }, "geometry": { "type": "Point", "coordinates": [ 20.458729984452361, 54.683399984931299 ] } },
{ "type": "Feature", "properties": { "Name": "Социальный приют для детей и подростков в г. Калининграде", "address": "Тургенева, 53, Калининград", "latitude": 54.73693000373288, "longitude": 20.522089964021973 }, "geometry": { "type": "Point", "coordinates": [ 20.522089964021973, 54.73693000373288 ] } },
{ "type": "Feature", "properties": { "Name": "Частный семейный детский дом Татьяны Хильшер", "address": "Весенняя, 4а, Калининград", "latitude": 54.739570009866526, "longitude": 20.553369969387234 }, "geometry": { "type": "Point", "coordinates": [ 20.553370968330551, 54.739516788991196 ] } }
]
}
