{
"type": "FeatureCollection",
"name": "barpub",
"features": [
{ "type": "Feature", "properties": { "Name": "Дредноут", "address": "ул. Генделя, 5, этаж цокольный", "latitude": 54.721810014322998, "longitude": 20.496100029208002 }, "geometry": { "type": "Point", "coordinates": [ 20.496100029208002, 54.721810014322998 ] } },
{ "type": "Feature", "properties": { "Name": "Matsu izakaya & Roku bar", "address": "ул. Сергеева, 2Б", "latitude": 54.715006327692002, "longitude": 20.514364689623999 }, "geometry": { "type": "Point", "coordinates": [ 20.514364689623999, 54.715006327692002 ] } },
{ "type": "Feature", "properties": { "Name": "Моррисон", "address": "ул. Чайковского, 10А, этаж 1", "latitude": 54.724030003289002, "longitude": 20.495150024301999 }, "geometry": { "type": "Point", "coordinates": [ 20.495188166026352, 54.72396392091138 ] } },
{ "type": "Feature", "properties": { "Name": "Паб Лондон", "address": "просп. Мира, 33", "latitude": 54.720350012518999, "longitude": 20.484580025303 }, "geometry": { "type": "Point", "coordinates": [ 20.484580025303, 54.720350012518999 ] } },
{ "type": "Feature", "properties": { "Name": "Раковарня Ивана Раковара", "address": "ул. Брамса, 35, этаж 1", "latitude": 54.726130005309997, "longitude": 20.493619991696001 }, "geometry": { "type": "Point", "coordinates": [ 20.493619991696001, 54.726130005309997 ] } },
{ "type": "Feature", "properties": { "Name": "Редюит", "address": "ул. Литовский Вал, 27", "latitude": 54.712720007968002, "longitude": 20.537140006449999 }, "geometry": { "type": "Point", "coordinates": [ 20.537140006449999, 54.712720007968002 ] } },
{ "type": "Feature", "properties": { "Name": "Cult Bar & Kitchen", "address": "Советский просп., 8", "latitude": 54.722549487047999, "longitude": 20.499263322135999 }, "geometry": { "type": "Point", "coordinates": [ 20.499682881103887, 54.72258803645024 ] } },
{ "type": "Feature", "properties": { "Name": "Сэр Френсис Дрейк", "address": "Советский просп., 19А, этаж 1", "latitude": 54.725969994779, "longitude": 20.495310034833999 }, "geometry": { "type": "Point", "coordinates": [ 20.495310034833999, 54.725969994779 ] } },
{ "type": "Feature", "properties": { "Name": "КПЗ", "address": "Нарвская ул., 51А", "latitude": 54.735040010295002, "longitude": 20.496530020841 }, "geometry": { "type": "Point", "coordinates": [ 20.496530020841, 54.735040010295002 ] } },
{ "type": "Feature", "properties": { "Name": "Мандарин", "address": "ул. Профессора Баранова, 1, Калининград, этаж 1", "latitude": 54.721635198698998, "longitude": 20.512596672718999 }, "geometry": { "type": "Point", "coordinates": [ 20.512882735651658, 54.721543412214956 ] } },
{ "type": "Feature", "properties": { "Name": "Паб Лондон", "address": "просп. Мира, 33", "latitude": 54.720350012518999, "longitude": 20.484580025303 }, "geometry": { "type": "Point", "coordinates": [ 20.484580025303, 54.720350012518999 ] } },
{ "type": "Feature", "properties": { "Name": "У Гашека", "address": "Ленинский просп., 1", "latitude": 54.719200015402997, "longitude": 20.500059975544001 }, "geometry": { "type": "Point", "coordinates": [ 20.500059975544001, 54.719200015402997 ] } },
{ "type": "Feature", "properties": { "Name": "Место Силы", "address": "ул. Генерала Галицкого, 18", "latitude": 54.714989994985999, "longitude": 20.497410036855001 }, "geometry": { "type": "Point", "coordinates": [ 20.497410036855001, 54.714989994985999 ] } },
{ "type": "Feature", "properties": { "Name": "Рюмочная", "address": "ул. Профессора Баранова, 2Б, этаж 1", "latitude": 54.721930001266998, "longitude": 20.512459995463999 }, "geometry": { "type": "Point", "coordinates": [ 20.512459995463999, 54.721930001266998 ] } },
{ "type": "Feature", "properties": { "Name": "Ельцин", "address": "Гаражная ул., 2А", "latitude": 54.724479985761, "longitude": 20.505349962276 }, "geometry": { "type": "Point", "coordinates": [ 20.505349962276, 54.724479985761 ] } },
{ "type": "Feature", "properties": { "Name": "Old brick", "address": "просп. Мира, 19", "latitude": 54.719450005665003, "longitude": 20.487479996163 }, "geometry": { "type": "Point", "coordinates": [ 20.487479996163, 54.719450005665003 ] } },
{ "type": "Feature", "properties": { "Name": "Гарри Джонсон", "address": "Гвардейский просп., 3", "latitude": 54.715892059867002, "longitude": 20.49416874524 }, "geometry": { "type": "Point", "coordinates": [ 20.49416874524, 54.715892059867002 ] } },
{ "type": "Feature", "properties": { "Name": "Брецель", "address": "ул. Александра Невского, 10, этаж 1", "latitude": 54.723099989222, "longitude": 20.528359962873001 }, "geometry": { "type": "Point", "coordinates": [ 20.528359962873001, 54.723099989222 ] } },
{ "type": "Feature", "properties": { "Name": "Эль Барритос", "address": "ул. Багратиона, 49В, этаж цокольный", "latitude": 54.699014080829002, "longitude": 20.509425608318001 }, "geometry": { "type": "Point", "coordinates": [ 20.509425608318001, 54.699014080829002 ] } },
{ "type": "Feature", "properties": { "Name": "Мне как обычно", "address": "ул. Горького, 104Б", "latitude": 54.735949991614, "longitude": 20.508610019696999 }, "geometry": { "type": "Point", "coordinates": [ 20.508610019696999, 54.735949991614 ] } },
{ "type": "Feature", "properties": { "Name": "Zotler", "address": "Ленинский просп., 3", "latitude": 54.718450002707002, "longitude": 20.502150003101001 }, "geometry": { "type": "Point", "coordinates": [ 20.502150003101001, 54.718450002707002 ] } },
{ "type": "Feature", "properties": { "Name": "Пират Хауз", "address": "Эпроновская ул., 13, Калининград", "latitude": 54.700870008533997, "longitude": 20.512910019844998 }, "geometry": { "type": "Point", "coordinates": [ 20.512910019844998, 54.700870008533997 ] } },
{ "type": "Feature", "properties": { "Name": "Бруклин", "address": "ул. Шевченко, 11А", "latitude": 54.711700014169999, "longitude": 20.511100031672999 }, "geometry": { "type": "Point", "coordinates": [ 20.511100031672999, 54.711700014169999 ] } },
{ "type": "Feature", "properties": { "Name": "Краны и стаканы", "address": "ул. Брамса, 40", "latitude": 54.726249992253997, "longitude": 20.494230026608999 }, "geometry": { "type": "Point", "coordinates": [ 20.494230026608999, 54.726249992253997 ] } },
{ "type": "Feature", "properties": { "Name": "Zotler", "address": "ул. Горького, 120, Калининград, подъезд 1", "latitude": 54.737279990099999, "longitude": 20.507490029795001 }, "geometry": { "type": "Point", "coordinates": [ 20.507490029795001, 54.737279990099999 ] } },
{ "type": "Feature", "properties": { "Name": "Другое место", "address": "Пролетарская ул., 84, этаж 1", "latitude": 54.719610016197002, "longitude": 20.514199994744001 }, "geometry": { "type": "Point", "coordinates": [ 20.514199994744001, 54.719610016197002 ] } },
{ "type": "Feature", "properties": { "Name": "Mirage Bar", "address": "Ленинский просп., 18, корп. 1", "latitude": 54.713649980124998, "longitude": 20.504429964583998 }, "geometry": { "type": "Point", "coordinates": [ 20.504429964583998, 54.713649980124998 ] } },
{ "type": "Feature", "properties": { "Name": "Мне как обычно", "address": "Московский просп., 133В, этаж 1", "latitude": 54.710119983512001, "longitude": 20.530159976579998 }, "geometry": { "type": "Point", "coordinates": [ 20.530159976579998, 54.710119983512001 ] } },
{ "type": "Feature", "properties": { "Name": "Классик", "address": "ул. Фрунзе, 6В, этаж -1", "latitude": 54.711909980845, "longitude": 20.521529969071 }, "geometry": { "type": "Point", "coordinates": [ 20.521529969071, 54.711909980845 ] } },
{ "type": "Feature", "properties": { "Name": "Хофбург", "address": "Октябрьская ул., 6А, этаж 1", "latitude": 54.702970010556001, "longitude": 20.515609998496 }, "geometry": { "type": "Point", "coordinates": [ 20.515609998496, 54.702970010556001 ] } },
{ "type": "Feature", "properties": { "Name": "Tangiers Lounge", "address": "ул. Профессора Баранова, 2Б, этаж 3", "latitude": 54.721930001266998, "longitude": 20.512459995463999 }, "geometry": { "type": "Point", "coordinates": [ 20.512459995463999, 54.721930001266998 ] } },
{ "type": "Feature", "properties": { "Name": "Пивной двор", "address": "ул. Литовский Вал, 2, этаж 1", "latitude": 54.719669057582998, "longitude": 20.52859332773 }, "geometry": { "type": "Point", "coordinates": [ 20.52859332773, 54.719669057582998 ] } },
{ "type": "Feature", "properties": { "Name": "Виллеманн", "address": "Ленинский просп., 8Б", "latitude": 54.715180012730997, "longitude": 20.503339981895 }, "geometry": { "type": "Point", "coordinates": [ 20.503339981895, 54.715180012730997 ] } },
{ "type": "Feature", "properties": { "Name": "Старый пират", "address": "Ленинский просп., 42Б, РК Атлантика", "latitude": 54.70214, "longitude": 20.50372 }, "geometry": { "type": "Point", "coordinates": [ 20.50372, 54.70214 ] } },
{ "type": "Feature", "properties": { "Name": "Beer zone", "address": "ул. Фрунзе, 17", "latitude": 54.713280002918999, "longitude": 20.520620029661998 }, "geometry": { "type": "Point", "coordinates": [ 20.520620029661998, 54.713280002918999 ] } },
{ "type": "Feature", "properties": { "Name": "Пивной двор", "address": "Мариупольская ул., 14", "latitude": 54.708439998659003, "longitude": 20.498860022285001 }, "geometry": { "type": "Point", "coordinates": [ 20.498860022285001, 54.708439998659003 ] } },
{ "type": "Feature", "properties": { "Name": "Фишбон", "address": "Ленинский просп., 16, этаж 3", "latitude": 54.714080013667001, "longitude": 20.504740011182001 }, "geometry": { "type": "Point", "coordinates": [ 20.504740011182001, 54.714080013667001 ] } },
{ "type": "Feature", "properties": { "Name": "Галерея", "address": "ул. Александра Невского, 53, Калининград", "latitude": 54.731740013105998, "longitude": 20.530760037029001 }, "geometry": { "type": "Point", "coordinates": [ 20.530760037029001, 54.731740013105998 ] } },
{ "type": "Feature", "properties": { "Name": "Точка доступа", "address": "Ленинский просп., 18, Калининград", "latitude": 54.71219, "longitude": 20.50964 }, "geometry": { "type": "Point", "coordinates": [ 20.50964, 54.71219 ] } },
{ "type": "Feature", "properties": { "Name": "Кафе Июль", "address": "ул. Черняховского, 19", "latitude": 54.721070018001001, "longitude": 20.518409973251998 }, "geometry": { "type": "Point", "coordinates": [ 20.518409973251998, 54.721070018001001 ] } },
{ "type": "Feature", "properties": { "Name": "Форма", "address": "Гаражная ул., 2, этаж 1", "latitude": 54.720890016631003, "longitude": 20.502819968621999 }, "geometry": { "type": "Point", "coordinates": [ 20.502819968621999, 54.720890016631003 ] } },
{ "type": "Feature", "properties": { "Name": "Present Bar", "address": "Ленинский просп., 30, этаж 3", "latitude": 54.711210008110001, "longitude": 20.508229984206999 }, "geometry": { "type": "Point", "coordinates": [ 20.508229984206999, 54.711210008110001 ] } },
{ "type": "Feature", "properties": { "Name": "Пивной двор", "address": "ул. Александра Невского, 34А", "latitude": 54.727410005743998, "longitude": 20.528540006154 }, "geometry": { "type": "Point", "coordinates": [ 20.528540006154, 54.727410005743998 ] } },
{ "type": "Feature", "properties": { "Name": "Патиссон Markt", "address": "площадь Победы, 4, этаж 1", "latitude": 54.720830002204004, "longitude": 20.499880016083001 }, "geometry": { "type": "Point", "coordinates": [ 20.499880016083001, 54.720830002204004 ] } },
{ "type": "Feature", "properties": { "Name": "The bar", "address": "площадь Победы, 10, Гостиница Radisson, этаж 1", "latitude": 54.71938, "longitude": 20.50465 }, "geometry": { "type": "Point", "coordinates": [ 20.50465, 54.71938 ] } },
{ "type": "Feature", "properties": { "Name": "Пивной двор", "address": "ул. Согласия, 1", "latitude": 54.740520014772002, "longitude": 20.493240040025 }, "geometry": { "type": "Point", "coordinates": [ 20.493240040025, 54.740520014772002 ] } },
{ "type": "Feature", "properties": { "Name": "Эхо войны", "address": "Ленинский просп., 8Б, этаж цокольный", "latitude": 54.715180012730997, "longitude": 20.503339981895 }, "geometry": { "type": "Point", "coordinates": [ 20.503339981895, 54.715180012730997 ] } },
{ "type": "Feature", "properties": { "Name": "Пивной двор", "address": "Октябрьская ул., 5В", "latitude": 54.704460019574, "longitude": 20.516139986233998 }, "geometry": { "type": "Point", "coordinates": [ 20.516139986233998, 54.704460019574 ] } },
{ "type": "Feature", "properties": { "Name": "Citrus bar", "address": "Ленинский просп., 30, этаж 2", "latitude": 54.711210008110001, "longitude": 20.508229984206999 }, "geometry": { "type": "Point", "coordinates": [ 20.508229984206999, 54.711210008110001 ] } },
{ "type": "Feature", "properties": { "Name": "Пивовар", "address": "ул. Александра Невского, 137Б", "latitude": 54.741820006045003, "longitude": 20.531759998077 }, "geometry": { "type": "Point", "coordinates": [ 20.531759998077, 54.741820006045003 ] } },
{ "type": "Feature", "properties": { "Name": "Джентлмены", "address": "Октябрьская ул., 12", "latitude": 54.700929981050997, "longitude": 20.516609959545001 }, "geometry": { "type": "Point", "coordinates": [ 20.516609959545001, 54.700929981050997 ] } },
{ "type": "Feature", "properties": { "Name": "Bad Habit", "address": "ул. 9 Апреля, 88А", "latitude": 54.719140000975997, "longitude": 20.525719998648999 }, "geometry": { "type": "Point", "coordinates": [ 20.525719998648999, 54.719140000975997 ] } },
{ "type": "Feature", "properties": { "Name": "Ponarth", "address": "ул. Куйбышева, 68, этаж 1", "latitude": 54.724249986338002, "longitude": 20.540680019437001 }, "geometry": { "type": "Point", "coordinates": [ 20.540680019437001, 54.724249986338002 ] } },
{ "type": "Feature", "properties": { "Name": "Пивной Двор", "address": "ул. 9 Апреля, 22", "latitude": 54.712490008544002, "longitude": 20.522809969505001 }, "geometry": { "type": "Point", "coordinates": [ 20.522809969505001, 54.712490008544002 ] } },
{ "type": "Feature", "properties": { "Name": "Дикий ДЮК", "address": "ул. Черняховского, 26, этаж цокольный", "latitude": 54.719560018144001, "longitude": 20.507349968193001 }, "geometry": { "type": "Point", "coordinates": [ 20.507349968193001, 54.719560018144001 ] } },
{ "type": "Feature", "properties": { "Name": "Пивной Двор", "address": "ул. Гайдара, 155", "latitude": 54.742199999626003, "longitude": 20.509089967472999 }, "geometry": { "type": "Point", "coordinates": [ 20.509089967472999, 54.742199999626003 ] } },
{ "type": "Feature", "properties": { "Name": "Пивной двор", "address": "Советский просп., 8", "latitude": 54.722549487047999, "longitude": 20.499263322135999 }, "geometry": { "type": "Point", "coordinates": [ 20.49971148739715, 54.722477895242612 ] } },
{ "type": "Feature", "properties": { "Name": "Пивной двор", "address": "ул. Островского, 15А", "latitude": 54.743025964461999, "longitude": 20.524318948299999 }, "geometry": { "type": "Point", "coordinates": [ 20.524318948299999, 54.743025964461999 ] } },
{ "type": "Feature", "properties": { "Name": "Папаша Беппе", "address": "ул. Багратиона, 99, Калининград, этаж 1", "latitude": 54.698520016250001, "longitude": 20.502319988097 }, "geometry": { "type": "Point", "coordinates": [ 20.502319988097, 54.698520016250001 ] } },
{ "type": "Feature", "properties": { "Name": "Skazka", "address": "просп. Мира, 31", "latitude": 54.719749993980003, "longitude": 20.484819999190002 }, "geometry": { "type": "Point", "coordinates": [ 20.484819999190002, 54.719749993980003 ] } },
{ "type": "Feature", "properties": { "Name": "Beer лога", "address": "ул. Багратиона, 26", "latitude": 54.699700020579002, "longitude": 20.514429994166999 }, "geometry": { "type": "Point", "coordinates": [ 20.514429994166999, 54.699700020579002 ] } },
{ "type": "Feature", "properties": { "Name": "Строганина", "address": "площадь Победы, 10, ТРЦ Кловер", "latitude": 54.719599999822002, "longitude": 20.503890002380999 }, "geometry": { "type": "Point", "coordinates": [ 20.503890002380999, 54.719599999822002 ] } },
{ "type": "Feature", "properties": { "Name": "Пивной мир", "address": "Ленинский просп., 85А", "latitude": 54.703719981341997, "longitude": 20.507579967616 }, "geometry": { "type": "Point", "coordinates": [ 20.507579967616, 54.703719981341997 ] } },
{ "type": "Feature", "properties": { "Name": "Пивной Двор", "address": "Ленинский просп., 34", "latitude": 54.704079984083997, "longitude": 20.505030025031999 }, "geometry": { "type": "Point", "coordinates": [ 20.505030025031999, 54.704079984083997 ] } },
{ "type": "Feature", "properties": { "Name": "Дом техники", "address": "ул. Профессора Баранова, 30, этаж 1", "latitude": 54.721619996577999, "longitude": 20.509179989113001 }, "geometry": { "type": "Point", "coordinates": [ 20.509179989113001, 54.721619996577999 ] } },
{ "type": "Feature", "properties": { "Name": "Пивной Двор", "address": "ул. Багратиона, 91", "latitude": 54.698950007882999, "longitude": 20.505109988388 }, "geometry": { "type": "Point", "coordinates": [ 20.505109988388, 54.698950007882999 ] } },
{ "type": "Feature", "properties": { "Name": "Ibis kitchen", "address": "Московский просп., 52, этаж 1", "latitude": 54.709099989715, "longitude": 20.506859962132999 }, "geometry": { "type": "Point", "coordinates": [ 20.506859962132999, 54.709099989715 ] } },
{ "type": "Feature", "properties": { "Name": "Bo-Bo", "address": "Эпроновская ул., 6", "latitude": 54.700000008894001, "longitude": 20.513990028068999 }, "geometry": { "type": "Point", "coordinates": [ 20.513990028068999, 54.700000008894001 ] } },
{ "type": "Feature", "properties": { "Name": "Табаско", "address": "ул. Горького, 154А", "latitude": 54.741410005252, "longitude": 20.504580000650002 }, "geometry": { "type": "Point", "coordinates": [ 20.504580000650002, 54.741410005252 ] } },
{ "type": "Feature", "properties": { "Name": "Сокол", "address": "Больничная ул., 30", "latitude": 54.712210011068997, "longitude": 20.50342002907 }, "geometry": { "type": "Point", "coordinates": [ 20.50342002907, 54.712210011068997 ] } },
{ "type": "Feature", "properties": { "Name": "Пивной двор", "address": "ул. Профессора Баранова, 30, подъезд 2, этаж 1", "latitude": 54.721619996577999, "longitude": 20.509179989113001 }, "geometry": { "type": "Point", "coordinates": [ 20.509179989113001, 54.721619996577999 ] } },
{ "type": "Feature", "properties": { "Name": "Avo Kitchen & Bar", "address": "ул. Профессора Баранова, 40", "latitude": 54.718599996864, "longitude": 20.499109970637999 }, "geometry": { "type": "Point", "coordinates": [ 20.499109970637999, 54.718599996864 ] } },
{ "type": "Feature", "properties": { "Name": "Фанат", "address": "Клиническая ул., 19А, этаж 1", "latitude": 54.712278840994003, "longitude": 20.518124953514999 }, "geometry": { "type": "Point", "coordinates": [ 20.518124953514999, 54.712278840994003 ] } },
{ "type": "Feature", "properties": { "Name": "Linch", "address": "ул. Сержанта Колоскова, 1А", "latitude": 54.719630007036002, "longitude": 20.485549979138 }, "geometry": { "type": "Point", "coordinates": [ 20.485549979138, 54.719630007036002 ] } },
{ "type": "Feature", "properties": { "Name": "БарБоссы", "address": "ул. Горького, 40", "latitude": 54.728189983744002, "longitude": 20.588549990480999 }, "geometry": { "type": "Point", "coordinates": [ 20.588549990480999, 54.728189983744002 ] } },
{ "type": "Feature", "properties": { "Name": "NEкрасOFF", "address": "ул. Некрасова, 21, этаж цокольный", "latitude": 54.735400013037001, "longitude": 20.526549974702 }, "geometry": { "type": "Point", "coordinates": [ 20.526549974702, 54.735400013037001 ] } },
{ "type": "Feature", "properties": { "Name": "RuNika project", "address": "Партизанская ул., 2", "latitude": 54.721609980204001, "longitude": 20.510819992287999 }, "geometry": { "type": "Point", "coordinates": [ 20.510819992287999, 54.721609980204001 ] } },
{ "type": "Feature", "properties": { "Name": "Пивной Двор", "address": "ул. Горького, 14", "latitude": 54.724409996868999, "longitude": 20.509600006281001 }, "geometry": { "type": "Point", "coordinates": [ 20.509600006281001, 54.724409996868999 ] } },
{ "type": "Feature", "properties": { "Name": "Am Pm", "address": "ул. Фрунзе, 6В, этаж 1", "latitude": 54.711909980845, "longitude": 20.521529969071 }, "geometry": { "type": "Point", "coordinates": [ 20.521529969071, 54.711909980845 ] } },
{ "type": "Feature", "properties": { "Name": "Brasserie de Verres EN Vers", "address": "площадь Победы, 10, этаж 1", "latitude": 54.719599999822002, "longitude": 20.503890002380999 }, "geometry": { "type": "Point", "coordinates": [ 20.503890002380999, 54.719599999822002 ] } },
{ "type": "Feature", "properties": { "Name": "Пить хочу!", "address": "ул. Генерал-Лейтенанта Озерова, 17, корп. 1", "latitude": 54.725709988142, "longitude": 20.502549987519998 }, "geometry": { "type": "Point", "coordinates": [ 20.502549987519998, 54.725709988142 ] } },
{ "type": "Feature", "properties": { "Name": "Пивной двор", "address": "ул. Куйбышева, 79", "latitude": 54.726360004733003, "longitude": 20.535860006016001 }, "geometry": { "type": "Point", "coordinates": [ 20.535860006016001, 54.726360004733003 ] } },
{ "type": "Feature", "properties": { "Name": "Пивной Двор", "address": "Пехотная ул., 2А", "latitude": 54.744940001864002, "longitude": 20.545329964042001 }, "geometry": { "type": "Point", "coordinates": [ 20.545329964042001, 54.744940001864002 ] } },
{ "type": "Feature", "properties": { "Name": "Пивной Двор", "address": "ул. Юрия Маточкина, 2А, Ленинградский район, микрорайон Сельма, этаж 1", "latitude": 54.740950006405001, "longitude": 20.488560004387001 }, "geometry": { "type": "Point", "coordinates": [ 20.488560004387001, 54.740950006405001 ] } },
{ "type": "Feature", "properties": { "Name": "РыбМясХолл", "address": "ул. Профессора Баранова, 1, этаж 1", "latitude": 54.721635198698998, "longitude": 20.512596672718999 }, "geometry": { "type": "Point", "coordinates": [ 20.512838236973241, 54.72140756787141 ] } },
{ "type": "Feature", "properties": { "Name": "Пивной Двор", "address": "ул. Юрия Гагарина, 13", "latitude": 54.717089997007001, "longitude": 20.540229995055 }, "geometry": { "type": "Point", "coordinates": [ 20.540229995055, 54.717089997007001 ] } },
{ "type": "Feature", "properties": { "Name": "Пенная гильдия", "address": "ул. Горького, 12", "latitude": 54.724199988285001, "longitude": 20.509579973533 }, "geometry": { "type": "Point", "coordinates": [ 20.509579973533, 54.724199988285001 ] } },
{ "type": "Feature", "properties": { "Name": "Beer fest", "address": "Артиллерийская ул., 54", "latitude": 54.731230016207, "longitude": 20.549299968662002 }, "geometry": { "type": "Point", "coordinates": [ 20.549299968662002, 54.731230016207 ] } },
{ "type": "Feature", "properties": { "Name": "Папаша Беппе", "address": "ул. Куйбышева, 42, этаж 1", "latitude": 54.724930010142003, "longitude": 20.538759976876001 }, "geometry": { "type": "Point", "coordinates": [ 20.538759976876001, 54.724930010142003 ] } },
{ "type": "Feature", "properties": { "Name": "Табаско Европа", "address": "Театральная ул., 30, этаж 2", "latitude": 54.717749988062998, "longitude": 20.498990025604002 }, "geometry": { "type": "Point", "coordinates": [ 20.498990025604002, 54.717749988062998 ] } },
{ "type": "Feature", "properties": { "Name": "Mr. Begemot", "address": "ул. Генерал-Лейтенанта Озерова, 17, корп. 1", "latitude": 54.725709988142, "longitude": 20.502549987519998 }, "geometry": { "type": "Point", "coordinates": [ 20.502549987519998, 54.725709988142 ] } },
{ "type": "Feature", "properties": { "Name": "BeerZelis", "address": "ул. Багратиона, 47", "latitude": 54.699230005358999, "longitude": 20.510770036145001 }, "geometry": { "type": "Point", "coordinates": [ 20.510770036145001, 54.699230005358999 ] } },
{ "type": "Feature", "properties": { "Name": "Beer Point Kaliningrad", "address": "Театральная ул., 27", "latitude": 54.717180018646999, "longitude": 20.499109970637999 }, "geometry": { "type": "Point", "coordinates": [ 20.499109970637999, 54.717180018646999 ] } },
{ "type": "Feature", "properties": { "Name": "Пивной двор", "address": "ул. Горького, 162Б", "latitude": 54.743449992846003, "longitude": 20.502960030223999 }, "geometry": { "type": "Point", "coordinates": [ 20.502960030223999, 54.743449992846003 ] } },
{ "type": "Feature", "properties": { "Name": "Пивной Двор", "address": "ул. Виктора Гакуна, 5, этаж цокольный", "latitude": 54.747569991623998, "longitude": 20.528019992880999 }, "geometry": { "type": "Point", "coordinates": [ 20.528019992880999, 54.747569991623998 ] } },
{ "type": "Feature", "properties": { "Name": "Папаша Беппе", "address": "Ленинский просп., 20, этаж цокольный", "latitude": 54.713499985967999, "longitude": 20.505880033833002 }, "geometry": { "type": "Point", "coordinates": [ 20.505880033833002, 54.713499985967999 ] } },
{ "type": "Feature", "properties": { "Name": "Пивной двор", "address": "ул. Горького, 104Б", "latitude": 54.735949991614, "longitude": 20.508610019696999 }, "geometry": { "type": "Point", "coordinates": [ 20.508610019696999, 54.735949991614 ] } },
{ "type": "Feature", "properties": { "Name": "The Enclave", "address": "Ленинский просп., 18, корп. 1", "latitude": 54.713649980124998, "longitude": 20.504429964583998 }, "geometry": { "type": "Point", "coordinates": [ 20.504429964583998, 54.713649980124998 ] } },
{ "type": "Feature", "properties": { "Name": "Критика чистого", "address": "Октябрьская ул., 12", "latitude": 54.700929981050997, "longitude": 20.516609959545001 }, "geometry": { "type": "Point", "coordinates": [ 20.516609959545001, 54.700929981050997 ] } },
{ "type": "Feature", "properties": { "Name": "Гараж", "address": "Звёздная ул., 9", "latitude": 54.700230008317, "longitude": 20.588940000436001 }, "geometry": { "type": "Point", "coordinates": [ 20.588940000436001, 54.700230008317 ] } },
{ "type": "Feature", "properties": { "Name": "Shuba music center", "address": "ул. Мусоргского, 10, корп. 2, этаж цокольный", "latitude": 54.726659993048003, "longitude": 20.503390021857001 }, "geometry": { "type": "Point", "coordinates": [ 20.503390021857001, 54.726659993048003 ] } },
{ "type": "Feature", "properties": { "Name": "Лобби-бар", "address": "ул. Виктора Гюго, 1", "latitude": 54.708119633930998, "longitude": 20.505508681121 }, "geometry": { "type": "Point", "coordinates": [ 20.505508681121, 54.708119633930998 ] } },
{ "type": "Feature", "properties": { "Name": "Пивной мир", "address": "Ольштынская ул., 1", "latitude": 54.696099993166001, "longitude": 20.503660002958 }, "geometry": { "type": "Point", "coordinates": [ 20.503660002958, 54.696099993166001 ] } },
{ "type": "Feature", "properties": { "Name": "Папаша Беппе", "address": "Театральная ул., 30, этаж 3", "latitude": 54.717749988062998, "longitude": 20.498990025604002 }, "geometry": { "type": "Point", "coordinates": [ 20.498990025604002, 54.717749988062998 ] } },
{ "type": "Feature", "properties": { "Name": "Пивной двор", "address": "ул. Горького, 170, этаж цокольный", "latitude": 54.749179987585997, "longitude": 20.501650022576001 }, "geometry": { "type": "Point", "coordinates": [ 20.501650022576001, 54.749179987585997 ] } },
{ "type": "Feature", "properties": { "Name": "Кран", "address": "ул. Генерала Соммера, 29", "latitude": 54.716809999532003, "longitude": 20.511449976131001 }, "geometry": { "type": "Point", "coordinates": [ 20.511449976131001, 54.716809999532003 ] } },
{ "type": "Feature", "properties": { "Name": "Калининград-Ташкент", "address": "Театральная ул., 21, ТЦ Маяк", "latitude": 54.71656, "longitude": 20.50038 }, "geometry": { "type": "Point", "coordinates": [ 20.50038, 54.71656 ] } },
{ "type": "Feature", "properties": { "Name": "Бар безалкогольных напитков Пить хочу", "address": "ул. Горького, 2, подъезд 1, этаж 3", "latitude": 54.721559982152002, "longitude": 20.509249978004998 }, "geometry": { "type": "Point", "coordinates": [ 20.509249978004998, 54.721559982152002 ] } },
{ "type": "Feature", "properties": { "Name": "Ужин в темноте", "address": "Советский просп., 16", "latitude": 54.723989979701003, "longitude": 20.498830015071999 }, "geometry": { "type": "Point", "coordinates": [ 20.498830015071999, 54.723989979701003 ] } },
{ "type": "Feature", "properties": { "Name": "Магазин разливного пива Vincent", "address": "ул. Нансена, 13", "latitude": 54.696069985952001, "longitude": 20.487700021121 }, "geometry": { "type": "Point", "coordinates": [ 20.487700021121, 54.696069985952001 ] } },
{ "type": "Feature", "properties": { "Name": "Пивной Двор", "address": "ул. Дзержинского, 98", "latitude": 54.688840007730001, "longitude": 20.531639969223999 }, "geometry": { "type": "Point", "coordinates": [ 20.531639969223999, 54.688840007730001 ] } },
{ "type": "Feature", "properties": { "Name": "Пивной Двор", "address": "Колхозная ул., 26", "latitude": 54.747229979720998, "longitude": 20.525829969219 }, "geometry": { "type": "Point", "coordinates": [ 20.525829969219, 54.747229979720998 ] } },
{ "type": "Feature", "properties": { "Name": "АльтштаDт", "address": "площадь Калинина, 26А", "latitude": 54.694863571715999, "longitude": 20.501264141288001 }, "geometry": { "type": "Point", "coordinates": [ 20.501264141288001, 54.694863571715999 ] } },
{ "type": "Feature", "properties": { "Name": "Пивной мир", "address": "ул. Генерала Буткова, 16А", "latitude": 54.709819995197002, "longitude": 20.494669992706999 }, "geometry": { "type": "Point", "coordinates": [ 20.494669992706999, 54.709819995197002 ] } },
{ "type": "Feature", "properties": { "Name": "Закусочная в Маяке", "address": "Театральная ул., 21", "latitude": 54.716560009269003, "longitude": 20.500379996606998 }, "geometry": { "type": "Point", "coordinates": [ 20.500379996606998, 54.716560009269003 ] } },
{ "type": "Feature", "properties": { "Name": "Премьер-Министр", "address": "площадь Калинина, 26А", "latitude": 54.694863571715999, "longitude": 20.501264141288001 }, "geometry": { "type": "Point", "coordinates": [ 20.501264141288001, 54.694863571715999 ] } },
{ "type": "Feature", "properties": { "Name": "Фидель", "address": "Пражская ул., 36", "latitude": 54.724470011295999, "longitude": 20.536429975432 }, "geometry": { "type": "Point", "coordinates": [ 20.536429975432, 54.724470011295999 ] } },
{ "type": "Feature", "properties": { "Name": "Папаша Беппе", "address": "Балтийская ул., 12, Цоколь", "latitude": 54.737630018376997, "longitude": 20.509639987959002 }, "geometry": { "type": "Point", "coordinates": [ 20.509639987959002, 54.737630018376997 ] } },
{ "type": "Feature", "properties": { "Name": "Kaiser Bar", "address": "Театральная ул., 30", "latitude": 54.717749988062998, "longitude": 20.498990025604002 }, "geometry": { "type": "Point", "coordinates": [ 20.498990025604002, 54.717749988062998 ] } },
{ "type": "Feature", "properties": { "Name": "Солод", "address": "Мирная ул., 4", "latitude": 54.749350014492002, "longitude": 20.493129985637001 }, "geometry": { "type": "Point", "coordinates": [ 20.493129985637001, 54.749350014492002 ] } },
{ "type": "Feature", "properties": { "Name": "Пивной сокол", "address": "ул. Горького, 12", "latitude": 54.724199988285001, "longitude": 20.509579973533 }, "geometry": { "type": "Point", "coordinates": [ 20.509579973533, 54.724199988285001 ] } },
{ "type": "Feature", "properties": { "Name": "Кёнигбрау", "address": "Мариупольская ул., 14Б", "latitude": 54.708359993393003, "longitude": 20.498179998481 }, "geometry": { "type": "Point", "coordinates": [ 20.498179998481, 54.708359993393003 ] } },
{ "type": "Feature", "properties": { "Name": "Чайка у озера", "address": "Верхнеозёрная ул., 16А", "latitude": 54.730310018513997, "longitude": 20.522030033414001 }, "geometry": { "type": "Point", "coordinates": [ 20.522030033414001, 54.730310018513997 ] } },
{ "type": "Feature", "properties": { "Name": "Kirin", "address": "Октябрьская ул., 12", "latitude": 54.700929981050997, "longitude": 20.516609959545001 }, "geometry": { "type": "Point", "coordinates": [ 20.516609959545001, 54.700929981050997 ] } },
{ "type": "Feature", "properties": { "Name": "Пивная кружка", "address": "ул. Согласия, 50", "latitude": 54.752379988671002, "longitude": 20.485519971925001 }, "geometry": { "type": "Point", "coordinates": [ 20.485519971925001, 54.752379988671002 ] } },
{ "type": "Feature", "properties": { "Name": "Пивной Двор", "address": "Эпроновская ул., 2Д", "latitude": 54.700297118355998, "longitude": 20.513868150676998 }, "geometry": { "type": "Point", "coordinates": [ 20.513868150676998, 54.700297118355998 ] } },
{ "type": "Feature", "properties": { "Name": "Пивная бухта", "address": "ул. Александра Невского, 108", "latitude": 54.74164997914, "longitude": 20.532579999665 }, "geometry": { "type": "Point", "coordinates": [ 20.532579999665, 54.74164997914 ] } },
{ "type": "Feature", "properties": { "Name": "Морека", "address": "ул. Сергеева, 2, 1", "latitude": 54.714840000827998, "longitude": 20.514659993590001 }, "geometry": { "type": "Point", "coordinates": [ 20.514659993590001, 54.714840000827998 ] } },
{ "type": "Feature", "properties": { "Name": "Пивной Двор", "address": "ул. Брамса, 39", "latitude": 54.726470017213003, "longitude": 20.493719987801001 }, "geometry": { "type": "Point", "coordinates": [ 20.493719987801001, 54.726470017213003 ] } },
{ "type": "Feature", "properties": { "Name": "Пивной Двор", "address": "ул. Генерала Соммера, 46", "latitude": 54.716410015111997, "longitude": 20.511509990558 }, "geometry": { "type": "Point", "coordinates": [ 20.511509990558, 54.716410015111997 ] } },
{ "type": "Feature", "properties": { "Name": "Разливное пиво", "address": "Артиллерийская ул., 69", "latitude": 54.733860005966001, "longitude": 20.553209958856002 }, "geometry": { "type": "Point", "coordinates": [ 20.553209958856002, 54.733860005966001 ] } },
{ "type": "Feature", "properties": { "Name": "Буксини", "address": "ул. Согласия, 44", "latitude": 54.749840020550998, "longitude": 20.488250041608001 }, "geometry": { "type": "Point", "coordinates": [ 20.488250041608001, 54.749840020550998 ] } },
{ "type": "Feature", "properties": { "Name": "Тепло", "address": "ул. Еловая Аллея, 26", "latitude": 54.694591726627998, "longitude": 20.403813582718001 }, "geometry": { "type": "Point", "coordinates": [ 20.403813582718001, 54.694591726627998 ] } },
{ "type": "Feature", "properties": { "Name": "Ещё", "address": "пр. Дзержинского, 2", "latitude": 54.693370007300999, "longitude": 20.525310039764999 }, "geometry": { "type": "Point", "coordinates": [ 20.525310039764999, 54.693370007300999 ] } },
{ "type": "Feature", "properties": { "Name": "Папаша Беппе", "address": "ул. Генерала Челнокова, 18Б, этаж 2", "latitude": 54.737689990893998, "longitude": 20.489990040887999 }, "geometry": { "type": "Point", "coordinates": [ 20.489990040887999, 54.737689990893998 ] } },
{ "type": "Feature", "properties": { "Name": "Пивной двор", "address": "ул. Юрия Гагарина, 74", "latitude": 54.727039986629002, "longitude": 20.556089980787 }, "geometry": { "type": "Point", "coordinates": [ 20.556089980787, 54.727039986629002 ] } },
{ "type": "Feature", "properties": { "Name": "Пивной Двор", "address": "ул. Согласия, 44", "latitude": 54.749840020550998, "longitude": 20.488250041608001 }, "geometry": { "type": "Point", "coordinates": [ 20.488250041608001, 54.749840020550998 ] } },
{ "type": "Feature", "properties": { "Name": "Пивной Двор", "address": "Малая Лесная ул., 9", "latitude": 54.755499984490001, "longitude": 20.516090030091 }, "geometry": { "type": "Point", "coordinates": [ 20.516090030091, 54.755499984490001 ] } },
{ "type": "Feature", "properties": { "Name": "Пивкоff", "address": "Космическая ул., 8", "latitude": 54.715410012154003, "longitude": 20.501230005408001 }, "geometry": { "type": "Point", "coordinates": [ 20.501230005408001, 54.715410012154003 ] } },
{ "type": "Feature", "properties": { "Name": "Время пить", "address": "Эльблонгская ул., 9А", "latitude": 54.700479998578999, "longitude": 20.498300027334 }, "geometry": { "type": "Point", "coordinates": [ 20.498300027334, 54.700479998578999 ] } },
{ "type": "Feature", "properties": { "Name": "Заправка", "address": "Ольштынская ул., 44", "latitude": 54.695869993742001, "longitude": 20.508979996903001 }, "geometry": { "type": "Point", "coordinates": [ 20.508979996903001, 54.695869993742001 ] } },
{ "type": "Feature", "properties": { "Name": "Британника", "address": "ул. Юрия Маточкина, 2А, Ленинградский район, микрорайон Сельма, КАФЕ ПИЦЦЕРИЯ \"ПЕПЕРОНЧИНО\"", "latitude": 54.740950006405001, "longitude": 20.488560004387001 }, "geometry": { "type": "Point", "coordinates": [ 20.488560004387001, 54.740950006405001 ] } }
]
}
