{
"type": "FeatureCollection",
"crs": { "type": "name", "properties": { "name": "urn:ogc:def:crs:OGC:1.3:CRS84" } },
"features": [
{ "type": "Feature", "properties": { "Name": "Калининградский зоопарк", "address": "просп. Мира, 26", "latitude": 54.722040013746003, "longitude": 20.486290017369001, "bbox_north": 54.7786843, "bbox_south": 54.6306222, "bbox_east": 20.653798, "bbox_west": 20.293279, "place_id": 308093923, "osm_type": "relation", "osm_id": 1674442, "lat": 54.710128, "lon": 20.5105838, "display_name": "Kaliningrad, Northwestern Federal District, Russia", "class": "place", "type": "city", "importance": 0.6115327056574722 }, "geometry": { "type": "Point", "coordinates": [ 20.486290017369001, 54.722040013746003 ] } },
{ "type": "Feature", "properties": { "Name": "Зорро Парк", "address": "ул. Горького, 98, этаж 2", "latitude": 54.732760006903, "longitude": 20.511029958963, "bbox_north": 54.7786843, "bbox_south": 54.6306222, "bbox_east": 20.653798, "bbox_west": 20.293279, "place_id": 308093923, "osm_type": "relation", "osm_id": 1674442, "lat": 54.710128, "lon": 20.5105838, "display_name": "Kaliningrad, Northwestern Federal District, Russia", "class": "place", "type": "city", "importance": 0.6115327056574722 }, "geometry": { "type": "Point", "coordinates": [ 20.511029958963, 54.732760006903 ] } },
{ "type": "Feature", "properties": { "Name": "Зоопарк", "address": "ул. 1812 года, 126", "latitude": 54.711149993684003, "longitude": 20.536749996495001, "bbox_north": 54.7786843, "bbox_south": 54.6306222, "bbox_east": 20.653798, "bbox_west": 20.293279, "place_id": 308093923, "osm_type": "relation", "osm_id": 1674442, "lat": 54.710128, "lon": 20.5105838, "display_name": "Kaliningrad, Northwestern Federal District, Russia", "class": "place", "type": "city", "importance": 0.6115327056574722 }, "geometry": { "type": "Point", "coordinates": [ 20.536749996495001, 54.711149993684003 ] } },
{ "type": "Feature", "properties": { "Name": "Мини-зоопарк", "address": "ул. Чайковского, 37А", "latitude": 54.724446408947998, "longitude": 20.490308648298001, "bbox_north": 54.7786843, "bbox_south": 54.6306222, "bbox_east": 20.653798, "bbox_west": 20.293279, "place_id": 308093923, "osm_type": "relation", "osm_id": 1674442, "lat": 54.710128, "lon": 20.5105838, "display_name": "Kaliningrad, Northwestern Federal District, Russia", "class": "place", "type": "city", "importance": 0.6115327056574722 }, "geometry": { "type": "Point", "coordinates": [ 20.489388460984785, 54.723312110580984 ] } }
]
}
