{
"type": "FeatureCollection",
"features": [
{ "type": "Feature", "properties": { "Name": "Областная психиатрическая больница № 1", "address": "ул. Александра Невского, 78А", "latitude": 54.738010011957002, "longitude": 20.535430014383 }, "geometry": { "type": "Point", "coordinates": [ 20.535430014383, 54.738010011957002 ] } },
{ "type": "Feature", "properties": { "Name": "Наркологический диспансер, кабинет раннего выявления потребителей наркотических веществ среди несовершеннолетних", "address": "Барнаульская ул., 6А, этаж 3", "latitude": 54.713069994335001, "longitude": 20.500819962704998 }, "geometry": { "type": "Point", "coordinates": [ 20.500819962704998, 54.713069994335001 ] } },
{ "type": "Feature", "properties": { "Name": "Центр специализированных видов медицинской помощи Калининградской области", "address": "Барнаульская ул., 6", "latitude": 54.713570016768998, "longitude": 20.501620015362999 }, "geometry": { "type": "Point", "coordinates": [ 20.501620015362999, 54.713570016768998 ] } },
{ "type": "Feature", "properties": { "Name": "Противотуберкулезный диспансер, стационар", "address": "ул. Дубовая Аллея, 5", "latitude": 54.717970013021002, "longitude": 20.419550035343999 }, "geometry": { "type": "Point", "coordinates": [ 20.419550035343999, 54.717970013021002 ] } },
{ "type": "Feature", "properties": { "Name": "Наркологический диспансер", "address": "Барнаульская ул., 6А", "latitude": 54.713069994335001, "longitude": 20.500819962704998 }, "geometry": { "type": "Point", "coordinates": [ 20.500819962704998, 54.713069994335001 ] } },
{ "type": "Feature", "properties": { "Name": "ГБУЗ ПТД", "address": "ул. Дубовая Аллея, 5", "latitude": 54.717970013021002, "longitude": 20.419550035343999 }, "geometry": { "type": "Point", "coordinates": [ 20.419550035343999, 54.717970013021002 ] } },
{ "type": "Feature", "properties": { "Name": "Противотуберкулезный диспансер, приемный покой", "address": "ул. Каштановая Аллея, 156", "latitude": 54.731640017000998, "longitude": 20.464950027160999 }, "geometry": { "type": "Point", "coordinates": [ 20.464950027160999, 54.731640017000998 ] } }
]
}
