{
"type": "FeatureCollection",
"features": [
{ "type": "Feature", "properties": { "Name": "Стафф Марин", "address": "площадь Победы, 10, офис 614, этаж 6", "latitude": 54.719599999822002, "longitude": 20.503890002380999 }, "geometry": { "type": "Point", "coordinates": [ 20.503890002380999, 54.719599999822002 ] } },
{ "type": "Feature", "properties": { "Name": "HomeyBee", "address": "Октябрьская ул., 8", "latitude": 54.702200007020998, "longitude": 20.515790041776 }, "geometry": { "type": "Point", "coordinates": [ 20.515790041776, 54.702200007020998 ] } },
{ "type": "Feature", "properties": { "Name": "ОкеанФлотКадры", "address": "просп. Калинина, 2, комната 9", "latitude": 54.694359993885001, "longitude": 20.504800025609001 }, "geometry": { "type": "Point", "coordinates": [ 20.504800025609001, 54.694359993885001 ] } },
{ "type": "Feature", "properties": { "Name": "Staffjet", "address": "Ленинский просп., 30А, этаж 6, офис 7", "latitude": 54.711590001691, "longitude": 20.507479971511 }, "geometry": { "type": "Point", "coordinates": [ 20.507479971511, 54.711590001691 ] } },
{ "type": "Feature", "properties": { "Name": "Сфера Успеха", "address": "ул. Генделя, 5, офис 33, этаж 5", "latitude": 54.721810014322998, "longitude": 20.496100029208002 }, "geometry": { "type": "Point", "coordinates": [ 20.496100029208002, 54.721810014322998 ] } },
{ "type": "Feature", "properties": { "Name": "Рекрутинговое агентство Елены Реут", "address": "ул. Сержанта Колоскова, 2А, офис 17", "latitude": 54.718929992391999, "longitude": 20.48472997755 }, "geometry": { "type": "Point", "coordinates": [ 20.48472997755, 54.718929992391999 ] } },
{ "type": "Feature", "properties": { "Name": "Hav Ship Management NorRus", "address": "Театральная ул., 35, этаж 4, офис 411", "latitude": 54.717749988062998, "longitude": 20.497260000788 }, "geometry": { "type": "Point", "coordinates": [ 20.497260000788, 54.717749988062998 ] } },
{ "type": "Feature", "properties": { "Name": "All Crew", "address": "ул. Дмитрия Донского, 17, этаж 3, офис 3", "latitude": 54.715339981352997, "longitude": 20.487530036125001 }, "geometry": { "type": "Point", "coordinates": [ 20.487530036125001, 54.715339981352997 ] } },
{ "type": "Feature", "properties": { "Name": "Северный путь", "address": "Московский просп., 40, офис 501, этаж 5", "latitude": 54.709370012725003, "longitude": 20.502689965302999 }, "geometry": { "type": "Point", "coordinates": [ 20.502689965302999, 54.709370012725003 ] } },
{ "type": "Feature", "properties": { "Name": "Персонал янтарь", "address": "Гвардейский просп., 15", "latitude": 54.716619736482997, "longitude": 20.495129390267 }, "geometry": { "type": "Point", "coordinates": [ 20.495129390267, 54.716619736482997 ] } },
{ "type": "Feature", "properties": { "Name": "Avior Kaliningrad", "address": "ул. Виктора Гюго, 1, офис 207, этаж 2", "latitude": 54.708119633930998, "longitude": 20.505508681121 }, "geometry": { "type": "Point", "coordinates": [ 20.505508681121, 54.708119633930998 ] } },
{ "type": "Feature", "properties": { "Name": "Балтфлоткадры", "address": "Московский просп., 12", "latitude": 54.710129999886, "longitude": 20.496179992563999 }, "geometry": { "type": "Point", "coordinates": [ 20.496179992563999, 54.710129999886 ] } },
{ "type": "Feature", "properties": { "Name": "Калининградский кадровый центр", "address": "Советский просп., 12, офис 405, этаж 4", "latitude": 54.723459991962997, "longitude": 20.499539962271001 }, "geometry": { "type": "Point", "coordinates": [ 20.499539962271001, 54.723459991962997 ] } },
{ "type": "Feature", "properties": { "Name": "Русам", "address": "Зоологическая ул., 50, офис 3", "latitude": 54.726909983310001, "longitude": 20.484829973655 }, "geometry": { "type": "Point", "coordinates": [ 20.484829973655, 54.726909983310001 ] } },
{ "type": "Feature", "properties": { "Name": "Бизнес персонал", "address": "ул. Младшего Лейтенанта Ротко, 2, офис 24, этаж 4", "latitude": 54.698579988768003, "longitude": 20.506419996035 }, "geometry": { "type": "Point", "coordinates": [ 20.506419996035, 54.698579988768003 ] } },
{ "type": "Feature", "properties": { "Name": "Новиконтас Калининград", "address": "Колхозная ул., 4Г, пом. 7", "latitude": 54.744820014920002, "longitude": 20.528229959554999 }, "geometry": { "type": "Point", "coordinates": [ 20.528229959554999, 54.744820014920002 ] } },
{ "type": "Feature", "properties": { "Name": "Мишье Редери", "address": "Театральная ул., 30, этаж 3, офис 312", "latitude": 54.717749988062998, "longitude": 20.498990025604002 }, "geometry": { "type": "Point", "coordinates": [ 20.498990025604002, 54.717749988062998 ] } },
{ "type": "Feature", "properties": { "Name": "Синильга", "address": "ул. Горького, 81", "latitude": 54.729903491480997, "longitude": 20.51007280967 }, "geometry": { "type": "Point", "coordinates": [ 20.51007280967, 54.729903491480997 ] } },
{ "type": "Feature", "properties": { "Name": "Балтийская морская компания", "address": "площадь Победы, 4, БЦ Калининградский деловой центр, подъезд 1, этаж 4, офис 18", "latitude": 54.72059, "longitude": 20.50005 }, "geometry": { "type": "Point", "coordinates": [ 20.50005, 54.72059 ] } },
{ "type": "Feature", "properties": { "Name": "Работа в Польше", "address": "просп. Победы, 27, этаж 1", "latitude": 54.716660005374003, "longitude": 20.469250027308998 }, "geometry": { "type": "Point", "coordinates": [ 20.469250027308998, 54.716660005374003 ] } },
{ "type": "Feature", "properties": { "Name": "Pregel", "address": "ул. Дмитрия Донского, 7, офис 402, этаж 4", "latitude": 54.714590010565999, "longitude": 20.488609960529999 }, "geometry": { "type": "Point", "coordinates": [ 20.488609960529999, 54.714590010565999 ] } },
{ "type": "Feature", "properties": { "Name": "Балтик Групп Интернешнл", "address": "площадь Победы, 4А, офис 508, этаж 5", "latitude": 54.721149981358003, "longitude": 20.501139983767999 }, "geometry": { "type": "Point", "coordinates": [ 20.501139983767999, 54.721149981358003 ] } },
{ "type": "Feature", "properties": { "Name": "Европерсонал", "address": "площадь Победы, 10, оф. 512", "latitude": 54.719599999822002, "longitude": 20.503890002380999 }, "geometry": { "type": "Point", "coordinates": [ 20.503890002380999, 54.719599999822002 ] } },
{ "type": "Feature", "properties": { "Name": "Prusmarine", "address": "ул. Дмитрия Донского, 7, этаж 4, комната 402", "latitude": 54.714590010565999, "longitude": 20.488609960529999 }, "geometry": { "type": "Point", "coordinates": [ 20.488609960529999, 54.714590010565999 ] } },
{ "type": "Feature", "properties": { "Name": "Тейде", "address": "ул. Сергеева, 14, этаж 1, офис 116", "latitude": 54.719660014249001, "longitude": 20.518910037594999 }, "geometry": { "type": "Point", "coordinates": [ 20.518910037594999, 54.719660014249001 ] } },
{ "type": "Feature", "properties": { "Name": "Формула успеха", "address": "площадь Победы, 4А, ТОЦ Калининградский Пассаж, этаж 4, офис 424", "latitude": 54.72058, "longitude": 20.49988 }, "geometry": { "type": "Point", "coordinates": [ 20.49988, 54.72058 ] } },
{ "type": "Feature", "properties": { "Name": "В кадре", "address": "Уральская ул., 18", "latitude": 54.724629979917999, "longitude": 20.502070039745 }, "geometry": { "type": "Point", "coordinates": [ 20.502070039745, 54.724629979917999 ] } },
{ "type": "Feature", "properties": { "Name": "Альянс Марин", "address": "ул. Профессора Баранова, 34, этаж 5, офис 525/1", "latitude": 54.721149981358003, "longitude": 20.506389988822001 }, "geometry": { "type": "Point", "coordinates": [ 20.506389988822001, 54.721149981358003 ] } },
{ "type": "Feature", "properties": { "Name": "Карьера", "address": "ул. Сергеева, 14, офис 225, этаж 2", "latitude": 54.719660014249001, "longitude": 20.518910037594999 }, "geometry": { "type": "Point", "coordinates": [ 20.518910037594999, 54.719660014249001 ] } },
{ "type": "Feature", "properties": { "Name": "Резерв", "address": "ул. Карла Маркса, 18, офис 715, этаж 7", "latitude": 54.729219993915997, "longitude": 20.480840020106001 }, "geometry": { "type": "Point", "coordinates": [ 20.480840020106001, 54.729219993915997 ] } },
{ "type": "Feature", "properties": { "Name": "Флот-кадры", "address": "ул. Чекистов, 20, этаж 0", "latitude": 54.732450002214001, "longitude": 20.479830000772999 }, "geometry": { "type": "Point", "coordinates": [ 20.479830000772999, 54.732450002214001 ] } },
{ "type": "Feature", "properties": { "Name": "ЮнитиБалт", "address": "Каменная ул., 1", "latitude": 54.722409990952997, "longitude": 20.467800041878 }, "geometry": { "type": "Point", "coordinates": [ 20.467800041878, 54.722409990952997 ] } },
{ "type": "Feature", "properties": { "Name": "Атлантик Стафф", "address": "ул. Генерал-Лейтенанта Озерова, 17Б, офис 706, этаж 7", "latitude": 54.725900005886999, "longitude": 20.501290019835 }, "geometry": { "type": "Point", "coordinates": [ 20.501290019835, 54.725900005886999 ] } },
{ "type": "Feature", "properties": { "Name": "Baltic Sea Staff", "address": "ул. Горького, 55, офис 230, этаж 2", "latitude": 54.721199979410002, "longitude": 20.592480013423 }, "geometry": { "type": "Point", "coordinates": [ 20.592480013423, 54.721199979410002 ] } },
{ "type": "Feature", "properties": { "Name": "Кsм", "address": "ул. Сергеева, 14, офис 122-124, этаж 1", "latitude": 54.719660014249001, "longitude": 20.518910037594999 }, "geometry": { "type": "Point", "coordinates": [ 20.518910037594999, 54.719660014249001 ] } },
{ "type": "Feature", "properties": { "Name": "Везен Калининград", "address": "ул. Горького, 25, офис 307, этаж 3", "latitude": 54.727189980786001, "longitude": 20.509219970791001 }, "geometry": { "type": "Point", "coordinates": [ 20.509219970791001, 54.727189980786001 ] } },
{ "type": "Feature", "properties": { "Name": "Мишье Редери", "address": "Театральная ул., 30, офис 312, этаж 3", "latitude": 54.717749988062998, "longitude": 20.498990025604002 }, "geometry": { "type": "Point", "coordinates": [ 20.498990025604002, 54.717749988062998 ] } },
{ "type": "Feature", "properties": { "Name": "Акон", "address": "ул. Сергеева, 14, комната 415, этаж 4", "latitude": 54.719660014249001, "longitude": 20.518910037594999 }, "geometry": { "type": "Point", "coordinates": [ 20.518910037594999, 54.719660014249001 ] } },
{ "type": "Feature", "properties": { "Name": "Международный центр труда", "address": "ул. Фрунзе, 6, этаж 2, комната 210, офис 4", "latitude": 54.711559994478002, "longitude": 20.521659972388999 }, "geometry": { "type": "Point", "coordinates": [ 20.521659972388999, 54.711559994478002 ] } },
{ "type": "Feature", "properties": { "Name": "Морской путь", "address": "Ленинский просп., 155А, этаж 2", "latitude": 54.696060011486999, "longitude": 20.502549987519998 }, "geometry": { "type": "Point", "coordinates": [ 20.502549987519998, 54.696060011486999 ] } },
{ "type": "Feature", "properties": { "Name": "Bulkship Management", "address": "ул. Профессора Баранова, 34, офис 510, этаж 5", "latitude": 54.721149981358003, "longitude": 20.506389988822001 }, "geometry": { "type": "Point", "coordinates": [ 20.506389988822001, 54.721149981358003 ] } },
{ "type": "Feature", "properties": { "Name": "Крюинговая компания Рудента Калининград", "address": "ул. Грига, 56, офис 7, этаж 2", "latitude": 54.715460010206002, "longitude": 20.530489972108001 }, "geometry": { "type": "Point", "coordinates": [ 20.530489972108001, 54.715460010206002 ] } },
{ "type": "Feature", "properties": { "Name": "Сков Шипинг", "address": "ул. Генерала Раевского, 4, офис 24", "latitude": 54.748879999270997, "longitude": 20.532029979179001 }, "geometry": { "type": "Point", "coordinates": [ 20.532029979179001, 54.748879999270997 ] } },
{ "type": "Feature", "properties": { "Name": "Коф", "address": "ул. Сергеева, 14, офис 416, этаж 4", "latitude": 54.719660014249001, "longitude": 20.518910037594999 }, "geometry": { "type": "Point", "coordinates": [ 20.518910037594999, 54.719660014249001 ] } },
{ "type": "Feature", "properties": { "Name": "КСМ", "address": "ул. Сергеева, 14, комната 122, 123, 124, этаж 1", "latitude": 54.719660014249001, "longitude": 20.518910037594999 }, "geometry": { "type": "Point", "coordinates": [ 20.518910037594999, 54.719660014249001 ] } },
{ "type": "Feature", "properties": { "Name": "Тралфлот", "address": "просп. Калинина, 2, офис № 22-24, этаж 1", "latitude": 54.694359993885001, "longitude": 20.504800025609001 }, "geometry": { "type": "Point", "coordinates": [ 20.504800025609001, 54.694359993885001 ] } },
{ "type": "Feature", "properties": { "Name": "Ma ship manager", "address": "ул. Александра Суворова, 43А, офис 3, этаж 2", "latitude": 54.692270008237998, "longitude": 20.469789989511 }, "geometry": { "type": "Point", "coordinates": [ 20.469789989511, 54.692270008237998 ] } },
{ "type": "Feature", "properties": { "Name": "Regul-a", "address": "Земельная ул., 12, офис 1, этаж 1", "latitude": 54.732369996948002, "longitude": 20.513570010900999 }, "geometry": { "type": "Point", "coordinates": [ 20.513570010900999, 54.732369996948002 ] } },
{ "type": "Feature", "properties": { "Name": "Олимпия", "address": "Университетская ул., 2Г, офис 506, этаж 5", "latitude": 54.714490014460999, "longitude": 20.508369961989999 }, "geometry": { "type": "Point", "coordinates": [ 20.508369961989999, 54.714490014460999 ] } },
{ "type": "Feature", "properties": { "Name": "Acheon shipping", "address": "ул. Александра Суворова, 35Б, этаж 2", "latitude": 54.691330019707003, "longitude": 20.472609997016001 }, "geometry": { "type": "Point", "coordinates": [ 20.472609997016001, 54.691330019707003 ] } },
{ "type": "Feature", "properties": { "Name": "Ancor", "address": "площадь Победы, 4А", "latitude": 54.721149981358003, "longitude": 20.501139983767999 }, "geometry": { "type": "Point", "coordinates": [ 20.501139983767999, 54.721149981358003 ] } },
{ "type": "Feature", "properties": { "Name": "Фишери Групп", "address": "ул. Сергеева, 14, офис 130, этаж 1", "latitude": 54.719660014249001, "longitude": 20.518910037594999 }, "geometry": { "type": "Point", "coordinates": [ 20.518910037594999, 54.719660014249001 ] } },
{ "type": "Feature", "properties": { "Name": "Staffjet", "address": "Ленинский просп., 30А, блок Б, офис 7", "latitude": 54.711590001691, "longitude": 20.507479971511 }, "geometry": { "type": "Point", "coordinates": [ 20.507479971511, 54.711590001691 ] } },
{ "type": "Feature", "properties": { "Name": "Recruit digital", "address": "Ленинский просп., 30, Блок Б, офис 711", "latitude": 54.711210008110001, "longitude": 20.508229984206999 }, "geometry": { "type": "Point", "coordinates": [ 20.508229984206999, 54.711210008110001 ] } },
{ "type": "Feature", "properties": { "Name": "Marlow Navigation Rus", "address": "Комсомольская ул., 85", "latitude": 54.733150016857998, "longitude": 20.476670023276 }, "geometry": { "type": "Point", "coordinates": [ 20.476670023276, 54.733150016857998 ] } },
{ "type": "Feature", "properties": { "Name": "Олимпия", "address": "Университетская ул., 2Г, 506", "latitude": 54.714490014460999, "longitude": 20.508369961989999 }, "geometry": { "type": "Point", "coordinates": [ 20.508369961989999, 54.714490014460999 ] } },
{ "type": "Feature", "properties": { "Name": "Bulkship Management", "address": "ул. Профессора Баранова, 34", "latitude": 54.721149981358003, "longitude": 20.506389988822001 }, "geometry": { "type": "Point", "coordinates": [ 20.506389988822001, 54.721149981358003 ] } },
{ "type": "Feature", "properties": { "Name": "Такси КЛД", "address": "Советский просп., 81, корп. 4, офис 9Б, этаж 2", "latitude": 54.734109996229002, "longitude": 20.482729971634001 }, "geometry": { "type": "Point", "coordinates": [ 20.482729971634001, 54.734109996229002 ] } },
{ "type": "Feature", "properties": { "Name": "HRServece", "address": "ул. Дзержинского, 71А", "latitude": 54.687640012561999, "longitude": 20.535060037177001 }, "geometry": { "type": "Point", "coordinates": [ 20.535060037177001, 54.687640012561999 ] } },
{ "type": "Feature", "properties": { "Name": "Тридцать девятый штат РУ", "address": "Советский просп., 12, офис 108, этаж 1", "latitude": 54.723459991962997, "longitude": 20.499539962271001 }, "geometry": { "type": "Point", "coordinates": [ 20.499539962271001, 54.723459991962997 ] } },
{ "type": "Feature", "properties": { "Name": "Танна", "address": "ул. Александра Суворова, 43А, офис 6", "latitude": 54.692270008237998, "longitude": 20.469789989511 }, "geometry": { "type": "Point", "coordinates": [ 20.469789989511, 54.692270008237998 ] } },
{ "type": "Feature", "properties": { "Name": "Акон", "address": "ул. Сергеева, 14, комната 415, этаж 4", "latitude": 54.719660014249001, "longitude": 20.518910037594999 }, "geometry": { "type": "Point", "coordinates": [ 20.518910037594999, 54.719660014249001 ] } },
{ "type": "Feature", "properties": { "Name": "Алиот", "address": "ул. Багратиона, 49, оф. 420", "latitude": 54.69892000067, "longitude": 20.509500010176001 }, "geometry": { "type": "Point", "coordinates": [ 20.509500010176001, 54.69892000067 ] } },
{ "type": "Feature", "properties": { "Name": "Bulkship Management", "address": "ул. Профессора Баранова, 34", "latitude": 54.721149981358003, "longitude": 20.506389988822001 }, "geometry": { "type": "Point", "coordinates": [ 20.506389988822001, 54.721149981358003 ] } },
{ "type": "Feature", "properties": { "Name": "Bulkship Management", "address": "ул. Профессора Баранова, 34", "latitude": 54.721149981358003, "longitude": 20.506389988822001 }, "geometry": { "type": "Point", "coordinates": [ 20.506389988822001, 54.721149981358003 ] } },
{ "type": "Feature", "properties": { "Name": "Bulkship Management", "address": "ул. Профессора Баранова, 34", "latitude": 54.721149981358003, "longitude": 20.506389988822001 }, "geometry": { "type": "Point", "coordinates": [ 20.506389988822001, 54.721149981358003 ] } },
{ "type": "Feature", "properties": { "Name": "Балт Карат", "address": "ул. Фрунзе, 6", "latitude": 54.711559994478002, "longitude": 20.521659972388999 }, "geometry": { "type": "Point", "coordinates": [ 20.521659972388999, 54.711559994478002 ] } },
{ "type": "Feature", "properties": { "Name": "Олимпия", "address": "Университетская ул., 2Г, офис 506, этаж 5", "latitude": 54.714490014460999, "longitude": 20.508369961989999 }, "geometry": { "type": "Point", "coordinates": [ 20.508369961989999, 54.714490014460999 ] } },
{ "type": "Feature", "properties": { "Name": "Эрикапроф", "address": "ул. Гоголя, 12, офис 6, этаж 3", "latitude": 54.733320001853997, "longitude": 20.519010033699999 }, "geometry": { "type": "Point", "coordinates": [ 20.519010033699999, 54.733320001853997 ] } },
{ "type": "Feature", "properties": { "Name": "Bulkship Management", "address": "ул. Профессора Баранова, 34", "latitude": 54.721149981358003, "longitude": 20.506389988822001 }, "geometry": { "type": "Point", "coordinates": [ 20.506389988822001, 54.721149981358003 ] } },
{ "type": "Feature", "properties": { "Name": "Три сестры", "address": "Красная ул., 115, комната 308-2", "latitude": 54.735470001928, "longitude": 20.473079970326999 }, "geometry": { "type": "Point", "coordinates": [ 20.473079970326999, 54.735470001928 ] } },
{ "type": "Feature", "properties": { "Name": "Bulkship Management", "address": "ул. Профессора Баранова, 34", "latitude": 54.721149981358003, "longitude": 20.506389988822001 }, "geometry": { "type": "Point", "coordinates": [ 20.506389988822001, 54.721149981358003 ] } },
{ "type": "Feature", "properties": { "Name": "Омск шиппинг", "address": "Октябрьская ул., 8, офис 311, этаж 3", "latitude": 54.702200007020998, "longitude": 20.515790041776 }, "geometry": { "type": "Point", "coordinates": [ 20.515790041776, 54.702200007020998 ] } },
{ "type": "Feature", "properties": { "Name": "Фишери Групп", "address": "ул. Сергеева, 14, комната 130, этаж 1", "latitude": 54.719660014249001, "longitude": 20.518910037594999 }, "geometry": { "type": "Point", "coordinates": [ 20.518910037594999, 54.719660014249001 ] } },
{ "type": "Feature", "properties": { "Name": "Альянс Марин", "address": "ул. Профессора Баранова, 34", "latitude": 54.721149981358003, "longitude": 20.506389988822001 }, "geometry": { "type": "Point", "coordinates": [ 20.506389988822001, 54.721149981358003 ] } },
{ "type": "Feature", "properties": { "Name": "Визовый сервис", "address": "площадь Победы, 4, этаж 1", "latitude": 54.720830002204004, "longitude": 20.499880016083001 }, "geometry": { "type": "Point", "coordinates": [ 20.499880016083001, 54.720830002204004 ] } },
{ "type": "Feature", "properties": { "Name": "Сервис заказа рабочего персонала", "address": "Инженерная ул., 4", "latitude": 54.682249987816, "longitude": 20.489610005397999 }, "geometry": { "type": "Point", "coordinates": [ 20.489610005397999, 54.682249987816 ] } },
{ "type": "Feature", "properties": { "Name": "Морской эксперт", "address": "просп. Калинина, 2, комната 23", "latitude": 54.694359993885001, "longitude": 20.504800025609001 }, "geometry": { "type": "Point", "coordinates": [ 20.504800025609001, 54.694359993885001 ] } }
]
}
