{
"type": "FeatureCollection",
"features": [
{ "type": "Feature", "properties": { "Name": "Нотариус Яблонская И.С.", "address": "Пражская, 1Б, Калининград", "latitude": 54.726429993625004, "longitude": 20.531379962587437 }, "geometry": { "type": "Point", "coordinates": [ 20.531379962587437, 54.726429993625004 ] } },
{ "type": "Feature", "properties": { "Name": "Нотариус Береговой О.В.", "address": "Зарайская, 19, Калининград", "latitude": 54.709850002410747, "longitude": 20.516959987821508 }, "geometry": { "type": "Point", "coordinates": [ 20.516959987821508, 54.709850002410747 ] } },
{ "type": "Feature", "properties": { "Name": "Нотариус Моргунов А.Н.", "address": "Генерала Галицкого, 7, Калининград", "latitude": 54.715519982723293, "longitude": 20.499239973956378 }, "geometry": { "type": "Point", "coordinates": [ 20.499239973956378, 54.715519982723293 ] } },
{ "type": "Feature", "properties": { "Name": "Нотариус Деева Е.В.", "address": "Проспект Мира, 6, Калининград", "latitude": 54.719610016196782, "longitude": 20.491180019681877 }, "geometry": { "type": "Point", "coordinates": [ 20.491180019681877, 54.719610016196782 ] } },
{ "type": "Feature", "properties": { "Name": "Нотариус Живаева К.А.", "address": "Лёни Голикова, 4, Калининград", "latitude": 54.731820018371479, "longitude": 20.516739962863141 }, "geometry": { "type": "Point", "coordinates": [ 20.516739962863141, 54.731820018371479 ] } },
{ "type": "Feature", "properties": { "Name": "Нотариус Клемешева Л.В.", "address": "Новый Вал, 29-33, Калининград", "latitude": 54.700089988624711, "longitude": 20.510410033404099 }, "geometry": { "type": "Point", "coordinates": [ 20.510410033404099, 54.700089988624711 ] } },
{ "type": "Feature", "properties": { "Name": "Нотариус Витязь С.Е.", "address": "Улица Горького, 96, Калининград", "latitude": 54.732089999472777, "longitude": 20.512220021575786 }, "geometry": { "type": "Point", "coordinates": [ 20.512220021575786, 54.732089999472777 ] } },
{ "type": "Feature", "properties": { "Name": "Нотариус Макунина К.Р.", "address": "Вагнера, 6, Калининград", "latitude": 54.712340014387081, "longitude": 20.505709965017502 }, "geometry": { "type": "Point", "coordinates": [ 20.505709965017502, 54.712340014387081 ] } },
{ "type": "Feature", "properties": { "Name": "Нотариус Борисова Е.Л.", "address": "Московский проспект, 113, Калининград", "latitude": 54.70996001488993, "longitude": 20.526639996341714 }, "geometry": { "type": "Point", "coordinates": [ 20.526639996341714, 54.70996001488993 ] } },
{ "type": "Feature", "properties": { "Name": "Нотариус Ринговская Е.В.", "address": "Юрия Гагарина, 7, Калининград", "latitude": 54.716039995996312, "longitude": 20.537130031984816 }, "geometry": { "type": "Point", "coordinates": [ 20.537130031984816, 54.716039995996312 ] } },
{ "type": "Feature", "properties": { "Name": "Нотариус Ремесло Ж.Ф.", "address": "Молочинского, 4, Калининград", "latitude": 54.734569995074793, "longitude": 20.479439990818236 }, "geometry": { "type": "Point", "coordinates": [ 20.479439990818236, 54.734569995074793 ] } },
{ "type": "Feature", "properties": { "Name": "Нотариус Кудрявцева Е.В.", "address": "Космонавта Леонова, 26а, Калининград", "latitude": 54.727219987999291, "longitude": 20.481969984472727 }, "geometry": { "type": "Point", "coordinates": [ 20.481969984472727, 54.727219987999291 ] } },
{ "type": "Feature", "properties": { "Name": "Нотариус Яблонская И.С.", "address": "Пражская, 1Б, Калининград", "latitude": 54.726429993625004, "longitude": 20.531379962587437 }, "geometry": { "type": "Point", "coordinates": [ 20.531379962587437, 54.726429993625004 ] } },
{ "type": "Feature", "properties": { "Name": "Нотариус Береговой О.В.", "address": "Зарайская, 19, Калининград", "latitude": 54.709850002410747, "longitude": 20.516959987821508 }, "geometry": { "type": "Point", "coordinates": [ 20.516959987821508, 54.709850002410747 ] } },
{ "type": "Feature", "properties": { "Name": "Нотариус Моргунов А.Н.", "address": "Генерала Галицкого, 7, Калининград", "latitude": 54.715519982723293, "longitude": 20.499239973956378 }, "geometry": { "type": "Point", "coordinates": [ 20.499239973956378, 54.715519982723293 ] } },
{ "type": "Feature", "properties": { "Name": "Нотариус Деева Е.В.", "address": "Проспект Мира, 6, Калининград", "latitude": 54.719610016196782, "longitude": 20.491180019681877 }, "geometry": { "type": "Point", "coordinates": [ 20.491180019681877, 54.719610016196782 ] } },
{ "type": "Feature", "properties": { "Name": "Нотариус Живаева К.А.", "address": "Лёни Голикова, 4, Калининград", "latitude": 54.731820018371479, "longitude": 20.516739962863141 }, "geometry": { "type": "Point", "coordinates": [ 20.516739962863141, 54.731820018371479 ] } },
{ "type": "Feature", "properties": { "Name": "Нотариус Клемешева Л.В.", "address": "Новый Вал, 29-33, Калининград", "latitude": 54.700089988624711, "longitude": 20.510410033404099 }, "geometry": { "type": "Point", "coordinates": [ 20.510410033404099, 54.700089988624711 ] } },
{ "type": "Feature", "properties": { "Name": "Нотариус Витязь С.Е.", "address": "Улица Горького, 96, Калининград", "latitude": 54.732089999472777, "longitude": 20.512220021575786 }, "geometry": { "type": "Point", "coordinates": [ 20.512220021575786, 54.732089999472777 ] } },
{ "type": "Feature", "properties": { "Name": "Нотариус Макунина К.Р.", "address": "Вагнера, 6, Калининград", "latitude": 54.712340014387081, "longitude": 20.505709965017502 }, "geometry": { "type": "Point", "coordinates": [ 20.505709965017502, 54.712340014387081 ] } },
{ "type": "Feature", "properties": { "Name": "Нотариус Борисова Е.Л.", "address": "Московский проспект, 113, Калининград", "latitude": 54.70996001488993, "longitude": 20.526639996341714 }, "geometry": { "type": "Point", "coordinates": [ 20.526639996341714, 54.70996001488993 ] } },
{ "type": "Feature", "properties": { "Name": "Нотариус Ринговская Е.В.", "address": "Юрия Гагарина, 7, Калининград", "latitude": 54.716039995996312, "longitude": 20.537130031984816 }, "geometry": { "type": "Point", "coordinates": [ 20.537130031984816, 54.716039995996312 ] } },
{ "type": "Feature", "properties": { "Name": "Нотариус Ремесло Ж.Ф.", "address": "Молочинского, 4, Калининград", "latitude": 54.734569995074793, "longitude": 20.479439990818236 }, "geometry": { "type": "Point", "coordinates": [ 20.479439990818236, 54.734569995074793 ] } },
{ "type": "Feature", "properties": { "Name": "Нотариус Кудрявцева Е.В.", "address": "Космонавта Леонова, 26а, Калининград", "latitude": 54.727219987999291, "longitude": 20.481969984472727 }, "geometry": { "type": "Point", "coordinates": [ 20.481969984472727, 54.727219987999291 ] } },
{ "type": "Feature", "properties": { "Name": "Нотариус Яблонская И.С.", "address": "Пражская, 1Б, Калининград", "latitude": 54.726429993625004, "longitude": 20.531379962587437 }, "geometry": { "type": "Point", "coordinates": [ 20.531379962587437, 54.726429993625004 ] } },
{ "type": "Feature", "properties": { "Name": "Нотариус Береговой О.В.", "address": "Зарайская, 19, Калининград", "latitude": 54.709850002410747, "longitude": 20.516959987821508 }, "geometry": { "type": "Point", "coordinates": [ 20.516959987821508, 54.709850002410747 ] } },
{ "type": "Feature", "properties": { "Name": "Нотариус Моргунов А.Н.", "address": "Генерала Галицкого, 7, Калининград", "latitude": 54.715519982723293, "longitude": 20.499239973956378 }, "geometry": { "type": "Point", "coordinates": [ 20.499239973956378, 54.715519982723293 ] } },
{ "type": "Feature", "properties": { "Name": "Нотариус Деева Е.В.", "address": "Проспект Мира, 6, Калининград", "latitude": 54.719610016196782, "longitude": 20.491180019681877 }, "geometry": { "type": "Point", "coordinates": [ 20.491180019681877, 54.719610016196782 ] } },
{ "type": "Feature", "properties": { "Name": "Нотариус Живаева К.А.", "address": "Лёни Голикова, 4, Калининград", "latitude": 54.731820018371479, "longitude": 20.516739962863141 }, "geometry": { "type": "Point", "coordinates": [ 20.516739962863141, 54.731820018371479 ] } },
{ "type": "Feature", "properties": { "Name": "Нотариус Клемешева Л.В.", "address": "Новый Вал, 29-33, Калининград", "latitude": 54.700089988624711, "longitude": 20.510410033404099 }, "geometry": { "type": "Point", "coordinates": [ 20.510410033404099, 54.700089988624711 ] } },
{ "type": "Feature", "properties": { "Name": "Нотариус Витязь С.Е.", "address": "Улица Горького, 96, Калининград", "latitude": 54.732089999472777, "longitude": 20.512220021575786 }, "geometry": { "type": "Point", "coordinates": [ 20.512220021575786, 54.732089999472777 ] } },
{ "type": "Feature", "properties": { "Name": "Нотариус Макунина К.Р.", "address": "Вагнера, 6, Калининград", "latitude": 54.712340014387081, "longitude": 20.505709965017502 }, "geometry": { "type": "Point", "coordinates": [ 20.505709965017502, 54.712340014387081 ] } },
{ "type": "Feature", "properties": { "Name": "Нотариус Борисова Е.Л.", "address": "Московский проспект, 113, Калининград", "latitude": 54.70996001488993, "longitude": 20.526639996341714 }, "geometry": { "type": "Point", "coordinates": [ 20.526639996341714, 54.70996001488993 ] } },
{ "type": "Feature", "properties": { "Name": "Нотариус Ринговская Е.В.", "address": "Юрия Гагарина, 7, Калининград", "latitude": 54.716039995996312, "longitude": 20.537130031984816 }, "geometry": { "type": "Point", "coordinates": [ 20.537130031984816, 54.716039995996312 ] } },
{ "type": "Feature", "properties": { "Name": "Нотариус Ремесло Ж.Ф.", "address": "Молочинского, 4, Калининград", "latitude": 54.734569995074793, "longitude": 20.479439990818236 }, "geometry": { "type": "Point", "coordinates": [ 20.479439990818236, 54.734569995074793 ] } },
{ "type": "Feature", "properties": { "Name": "Нотариус Кудрявцева Е.В.", "address": "Космонавта Леонова, 26а, Калининград", "latitude": 54.727219987999291, "longitude": 20.481969984472727 }, "geometry": { "type": "Point", "coordinates": [ 20.481969984472727, 54.727219987999291 ] } }
]
}
