{
"type": "FeatureCollection",
"features": [
{ "type": "Feature", "properties": { "Name": "Кидсмакс.ру", "address": "ул. Профессора Баранова, 40, этаж 3", "latitude": 54.718599996864, "longitude": 20.499109970637999 }, "geometry": { "type": "Point", "coordinates": [ 20.499109970637999, 54.718599996864 ] } },
{ "type": "Feature", "properties": { "Name": "Светлячок", "address": "Мариупольская ул., 14, этаж 1", "latitude": 54.708439998659003, "longitude": 20.498860022285001 }, "geometry": { "type": "Point", "coordinates": [ 20.498860022285001, 54.708439998659003 ] } },
{ "type": "Feature", "properties": { "Name": "Детский мир", "address": "Солнечный бул., 1, этаж 2", "latitude": 54.704580006518, "longitude": 20.517649986091001 }, "geometry": { "type": "Point", "coordinates": [ 20.517649986091001, 54.704580006518 ] } },
{ "type": "Feature", "properties": { "Name": "Babylino", "address": "Полоцкая ул., 45, корп. 2, этаж 2", "latitude": 54.702059987327999, "longitude": 20.498149991266999 }, "geometry": { "type": "Point", "coordinates": [ 20.498149991266999, 54.702059987327999 ] } },
{ "type": "Feature", "properties": { "Name": "Детский мир", "address": "ул. Горького, 2, этаж 3", "latitude": 54.721559982152002, "longitude": 20.509249978004998 }, "geometry": { "type": "Point", "coordinates": [ 20.509249978004998, 54.721559982152002 ] } },
{ "type": "Feature", "properties": { "Name": "Андрейка", "address": "Московский просп., 40, павильон 223, этаж 2", "latitude": 54.709370012725003, "longitude": 20.502689965302999 }, "geometry": { "type": "Point", "coordinates": [ 20.502689965302999, 54.709370012725003 ] } },
{ "type": "Feature", "properties": { "Name": "Детский мир", "address": "площадь Калинина, 28, этаж 3", "latitude": 54.694689989413, "longitude": 20.501509960974001 }, "geometry": { "type": "Point", "coordinates": [ 20.501509960974001, 54.694689989413 ] } },
{ "type": "Feature", "properties": { "Name": "Кидсики", "address": "просп. Мира, 84, павильон 16, этаж 1", "latitude": 54.720650000832997, "longitude": 20.475769974513 }, "geometry": { "type": "Point", "coordinates": [ 20.475769974513, 54.720650000832997 ] } },
{ "type": "Feature", "properties": { "Name": "Андрейка", "address": "Ленинский просп., 85А", "latitude": 54.703719981341997, "longitude": 20.507579967616 }, "geometry": { "type": "Point", "coordinates": [ 20.507579967616, 54.703719981341997 ] } },
{ "type": "Feature", "properties": { "Name": "Кидсмакс.ру", "address": "ул. Гайдара, 120, этаж 1", "latitude": 54.743410011168002, "longitude": 20.504710003968999 }, "geometry": { "type": "Point", "coordinates": [ 20.504710003968999, 54.743410011168002 ] } },
{ "type": "Feature", "properties": { "Name": "Little Maks", "address": "ул. Мусоргского, 10", "latitude": 54.726900008846002, "longitude": 20.501959985355999 }, "geometry": { "type": "Point", "coordinates": [ 20.501959985355999, 54.726900008846002 ] } },
{ "type": "Feature", "properties": { "Name": "Детский мир", "address": "ул. Согласия, 1, ТЦ «Виктория на Согласия», этаж 2", "latitude": 54.740520014772002, "longitude": 20.493240040025 }, "geometry": { "type": "Point", "coordinates": [ 20.493240040025, 54.740520014772002 ] } },
{ "type": "Feature", "properties": { "Name": "Вырастайка", "address": "Октябрьская ул., 37, этаж 1, помещение 7", "latitude": 54.701859995117999, "longitude": 20.517349997776002 }, "geometry": { "type": "Point", "coordinates": [ 20.517349997776002, 54.701859995117999 ] } },
{ "type": "Feature", "properties": { "Name": "Шмелёнок", "address": "ул. Александра Суворова, 41А", "latitude": 54.691330019707003, "longitude": 20.470519969459001 }, "geometry": { "type": "Point", "coordinates": [ 20.470519969459001, 54.691330019707003 ] } },
{ "type": "Feature", "properties": { "Name": "Ладошки", "address": "просп. Мира, 84, офис 15, этаж 1", "latitude": 54.720650000832997, "longitude": 20.475769974513 }, "geometry": { "type": "Point", "coordinates": [ 20.475769974513, 54.720650000832997 ] } },
{ "type": "Feature", "properties": { "Name": "Бэбигут", "address": "Московский просп., 40, павильон 201, 202, этаж 2", "latitude": 54.709370012725003, "longitude": 20.502689965302999 }, "geometry": { "type": "Point", "coordinates": [ 20.502689965302999, 54.709370012725003 ] } },
{ "type": "Feature", "properties": { "Name": "Babylino", "address": "Клиническая ул., 77, этаж 1", "latitude": 54.717344153505003, "longitude": 20.521384277469 }, "geometry": { "type": "Point", "coordinates": [ 20.521384277469, 54.717344153505003 ] } },
{ "type": "Feature", "properties": { "Name": "Андрейка", "address": "ул. Профессора Баранова, 34, этаж 1", "latitude": 54.721149981358003, "longitude": 20.506389988822001 }, "geometry": { "type": "Point", "coordinates": [ 20.506389988822001, 54.721149981358003 ] } },
{ "type": "Feature", "properties": { "Name": "Детский мир", "address": "просп. Победы, 137, этаж 2", "latitude": 54.709960014890001, "longitude": 20.442549977658 }, "geometry": { "type": "Point", "coordinates": [ 20.442549977658, 54.709960014890001 ] } },
{ "type": "Feature", "properties": { "Name": "СеЗаммм", "address": "ул. Юрия Гагарина, 16В", "latitude": 54.719580008983002, "longitude": 20.543900011361 }, "geometry": { "type": "Point", "coordinates": [ 20.543900011361, 54.719580008983002 ] } },
{ "type": "Feature", "properties": { "Name": "Кроха", "address": "Советский просп., 81, корп. 4, этаж 1", "latitude": 54.734109996229002, "longitude": 20.482729971634001 }, "geometry": { "type": "Point", "coordinates": [ 20.482729971634001, 54.734109996229002 ] } },
{ "type": "Feature", "properties": { "Name": "Андрейка", "address": "ул. Карла Маркса, 6, этаж 1", "latitude": 54.729189986702998, "longitude": 20.485530030208 }, "geometry": { "type": "Point", "coordinates": [ 20.485530030208, 54.729189986702998 ] } },
{ "type": "Feature", "properties": { "Name": "Тридевятое царство", "address": "ул. Профессора Баранова, 34, ТЦ Акрополь, этаж 6", "latitude": 54.72115, "longitude": 20.50639 }, "geometry": { "type": "Point", "coordinates": [ 20.50639, 54.72115 ] } },
{ "type": "Feature", "properties": { "Name": "Конверты на выписку из роддома", "address": "Московский просп., 174", "latitude": 54.709691512234997, "longitude": 20.542722946007999 }, "geometry": { "type": "Point", "coordinates": [ 20.542722946007999, 54.709691512234997 ] } },
{ "type": "Feature", "properties": { "Name": "МалышНям", "address": "ул. Ульяны Громовой, 7, этаж цокольный", "latitude": 54.673349999205001, "longitude": 20.501109976555 }, "geometry": { "type": "Point", "coordinates": [ 20.501109976555, 54.673349999205001 ] } },
{ "type": "Feature", "properties": { "Name": "Babylino", "address": "Нарвская ул., 115, Калининград, этаж 2", "latitude": 54.742839999843, "longitude": 20.498119984054 }, "geometry": { "type": "Point", "coordinates": [ 20.498119984054, 54.742839999843 ] } },
{ "type": "Feature", "properties": { "Name": "Веснушка", "address": "ул. Виктора Денисова, 16, корп. 1, Калининград", "latitude": 54.713679987337997, "longitude": 20.584719963644002 }, "geometry": { "type": "Point", "coordinates": [ 20.584719963644002, 54.713679987337997 ] } },
{ "type": "Feature", "properties": { "Name": "МалышНям", "address": "ул. Жиленкова, 1, микрорайон Чкаловск, Калининград", "latitude": 54.768629984356998, "longitude": 20.448410017625001 }, "geometry": { "type": "Point", "coordinates": [ 20.448410017625001, 54.768629984356998 ] } },
{ "type": "Feature", "properties": { "Name": "Baby Land", "address": "Артёмовская ул., 1А, посёлок Васильково", "latitude": 54.740819644364997, "longitude": 20.583484221315999 }, "geometry": { "type": "Point", "coordinates": [ 20.583484221315999, 54.740819644364997 ] } },
{ "type": "Feature", "properties": { "Name": "Каспер", "address": "ул. Александра Невского, 137Б, Калининград, этаж 2", "latitude": 54.741820006045003, "longitude": 20.531759998077 }, "geometry": { "type": "Point", "coordinates": [ 20.531759998077, 54.741820006045003 ] } },
{ "type": "Feature", "properties": { "Name": "Бэби Шоп", "address": "ул. Беланова, 10, микрорайон Чкаловск, Калининград, этаж цокольный", "latitude": 54.772200004557, "longitude": 20.447639972179999 }, "geometry": { "type": "Point", "coordinates": [ 20.447639972179999, 54.772200004557 ] } },
{ "type": "Feature", "properties": { "Name": "Балттойс", "address": "Полтавская ул., 3, Калининград", "latitude": 54.682240013350999, "longitude": 20.524950037023999 }, "geometry": { "type": "Point", "coordinates": [ 20.524950037023999, 54.682240013350999 ] } },
{ "type": "Feature", "properties": { "Name": "Сказка", "address": "Полтавская ул., 3, Калининград, этаж 1", "latitude": 54.682240013350999, "longitude": 20.524950037023999 }, "geometry": { "type": "Point", "coordinates": [ 20.524950037023999, 54.682240013350999 ] } },
{ "type": "Feature", "properties": { "Name": "Лимпопо", "address": "ул. Черняховского, 15, лит.Б, Калининград", "latitude": 54.721700001843999, "longitude": 20.513440007583 }, "geometry": { "type": "Point", "coordinates": [ 20.513440007583, 54.721700001843999 ] } },
{ "type": "Feature", "properties": { "Name": "Андрейка", "address": "ул. Генерала Челнокова, 11, Калининград, этаж 2", "latitude": 54.738030002796002, "longitude": 20.486049959662001 }, "geometry": { "type": "Point", "coordinates": [ 20.486049959662001, 54.738030002796002 ] } },
{ "type": "Feature", "properties": { "Name": "Tutis noordi", "address": "Красная ул., 247, Калининград, ТЦ Красный", "latitude": 54.74455, "longitude": 20.47321 }, "geometry": { "type": "Point", "coordinates": [ 20.47321, 54.74455 ] } },
{ "type": "Feature", "properties": { "Name": "Детский мир", "address": "Калининградская область, Гурьевский муниципальный округ, Приморское кольцо, 2, МФЦ «Молл Балтии»", "latitude": 54.70649, "longitude": 20.51095 }, "geometry": { "type": "Point", "coordinates": [ 20.51095, 54.70649 ] } },
{ "type": "Feature", "properties": { "Name": "Мегадетки", "address": "ул. Горького, 176Г, корп. 1, Калининград", "latitude": 54.752320016153, "longitude": 20.500939991557999 }, "geometry": { "type": "Point", "coordinates": [ 20.500939991557999, 54.752320016153 ] } },
{ "type": "Feature", "properties": { "Name": "Детский магазин", "address": "Артиллерийская ул., 56А, Калининград", "latitude": 54.730460012671998, "longitude": 20.551399970683999 }, "geometry": { "type": "Point", "coordinates": [ 20.551399970683999, 54.730460012671998 ] } },
{ "type": "Feature", "properties": { "Name": "Podguzon39", "address": "Елизаветинская ул., 4, Калининград", "latitude": 54.747487826083002, "longitude": 20.484493342012001 }, "geometry": { "type": "Point", "coordinates": [ 20.484493342012001, 54.747487826083002 ] } },
{ "type": "Feature", "properties": { "Name": "Фабрика колясок", "address": "ул. Карташева, 94Б, Калининград", "latitude": 54.730549992401997, "longitude": 20.354170017108999 }, "geometry": { "type": "Point", "coordinates": [ 20.354170017108999, 54.730549992401997 ] } },
{ "type": "Feature", "properties": { "Name": "Я родился", "address": "Пролетарская ул., 74, Калининград", "latitude": 54.718829996286999, "longitude": 20.513790035860001 }, "geometry": { "type": "Point", "coordinates": [ 20.513790035860001, 54.718829996286999 ] } },
{ "type": "Feature", "properties": { "Name": "Алиса", "address": "ул. Беланова, 3, микрорайон Чкаловск, Калининград", "latitude": 54.769039985150997, "longitude": 20.447169998869001 }, "geometry": { "type": "Point", "coordinates": [ 20.447169998869001, 54.769039985150997 ] } },
{ "type": "Feature", "properties": { "Name": "Кидсмакс.ру", "address": "Ленинский просп., 30, Калининград, этаж 3", "latitude": 54.711210008110001, "longitude": 20.508229984206999 }, "geometry": { "type": "Point", "coordinates": [ 20.508229984206999, 54.711210008110001 ] } },
{ "type": "Feature", "properties": { "Name": "Детки по моде", "address": "ул. Аксакова, 131, Калининград", "latitude": 54.711939988057999, "longitude": 20.582000036063999 }, "geometry": { "type": "Point", "coordinates": [ 20.582000036063999, 54.711939988057999 ] } },
{ "type": "Feature", "properties": { "Name": "Пупс Земли", "address": "ул. Мусоргского, 10, Калининград", "latitude": 54.726900008846002, "longitude": 20.501959985355999 }, "geometry": { "type": "Point", "coordinates": [ 20.501959985355999, 54.726900008846002 ] } },
{ "type": "Feature", "properties": { "Name": "Интернет-магазин Мир детства", "address": "Трамвайный пер., 12, Калининград", "latitude": 54.690669986741, "longitude": 20.497369971358001 }, "geometry": { "type": "Point", "coordinates": [ 20.497369971358001, 54.690669986741 ] } },
{ "type": "Feature", "properties": { "Name": "Kinder kinder", "address": "ул. Генерала Челнокова, 11, Калининград, этаж 3", "latitude": 54.738030002796002, "longitude": 20.486049959662001 }, "geometry": { "type": "Point", "coordinates": [ 20.486049959662001, 54.738030002796002 ] } },
{ "type": "Feature", "properties": { "Name": "Памперсы", "address": "Полоцкая ул., 45, Калининград", "latitude": 54.702059987327999, "longitude": 20.498149991266999 }, "geometry": { "type": "Point", "coordinates": [ 20.498149991266999, 54.702059987327999 ] } },
{ "type": "Feature", "properties": { "Name": "Babylux", "address": "Московский просп., 257, Калининград", "latitude": 54.707969983437998, "longitude": 20.580950035053 }, "geometry": { "type": "Point", "coordinates": [ 20.580950035053, 54.707969983437998 ] } },
{ "type": "Feature", "properties": { "Name": "Облака", "address": "ул. Александра Невского, 59, Калининград", "latitude": 54.733059995217999, "longitude": 20.531239984803999 }, "geometry": { "type": "Point", "coordinates": [ 20.531239984803999, 54.733059995217999 ] } },
{ "type": "Feature", "properties": { "Name": "Алиса", "address": "Авторемонтная ул., 21, Калининград, этаж 2", "latitude": 54.734893287687001, "longitude": 20.468309738795998 }, "geometry": { "type": "Point", "coordinates": [ 20.468309738795998, 54.734893287687001 ] } },
{ "type": "Feature", "properties": { "Name": "Мама+", "address": "ул. Фрунзе, 73А, Калининград, вход с ул. Пионерская", "latitude": 54.716421028010998, "longitude": 20.526699881304001 }, "geometry": { "type": "Point", "coordinates": [ 20.526699881304001, 54.716421028010998 ] } },
{ "type": "Feature", "properties": { "Name": "Бэбимания", "address": "ул. Генерала Галицкого, 5, Калининград", "latitude": 54.715679993255002, "longitude": 20.499290013917999 }, "geometry": { "type": "Point", "coordinates": [ 20.499290013917999, 54.715679993255002 ] } },
{ "type": "Feature", "properties": { "Name": "9 Месяцев", "address": "ул. Александра Суворова, 23Б, Калининград", "latitude": 54.692730007084002, "longitude": 20.474819969607001 }, "geometry": { "type": "Point", "coordinates": [ 20.474819969607001, 54.692730007084002 ] } },
{ "type": "Feature", "properties": { "Name": "Кузя в подгузе", "address": "ул. Аксакова, 77, Калининград", "latitude": 54.711770003062, "longitude": 20.571860028696999 }, "geometry": { "type": "Point", "coordinates": [ 20.571860028696999, 54.711770003062 ] } },
{ "type": "Feature", "properties": { "Name": "Babynitto", "address": "4-я Большая Окружная ул., 74, Калининград, этаж 3, офис 308", "latitude": 54.754190018751999, "longitude": 20.546420030549999 }, "geometry": { "type": "Point", "coordinates": [ 20.546420030549999, 54.754190018751999 ] } },
{ "type": "Feature", "properties": { "Name": "Алиса", "address": "Нарвская ул., 112, Калининград, этаж 2", "latitude": 54.743200980354999, "longitude": 20.499180091776001 }, "geometry": { "type": "Point", "coordinates": [ 20.499180091776001, 54.743200980354999 ] } },
{ "type": "Feature", "properties": { "Name": "Здорово Растём", "address": "Нарвская ул., 115, Калининград, этаж 2", "latitude": 54.742839999843, "longitude": 20.498119984054 }, "geometry": { "type": "Point", "coordinates": [ 20.498119984054, 54.742839999843 ] } },
{ "type": "Feature", "properties": { "Name": "Детская обувь", "address": "ул. Александра Невского, 1, Калининград", "latitude": 54.724349982443002, "longitude": 20.525369970372999 }, "geometry": { "type": "Point", "coordinates": [ 20.525369970372999, 54.724349982443002 ] } },
{ "type": "Feature", "properties": { "Name": "Кидсмакс.ру", "address": "ул. Юрия Гагарина, 16Е, Калининград", "latitude": 54.720389994196999, "longitude": 20.544279963032 }, "geometry": { "type": "Point", "coordinates": [ 20.544279963032, 54.720389994196999 ] } },
{ "type": "Feature", "properties": { "Name": "Планета детства", "address": "Эльблонгская ул., 18А, Калининград, База Полоцкая", "latitude": 54.700569585930999, "longitude": 20.497609124444999 }, "geometry": { "type": "Point", "coordinates": [ 20.497609124444999, 54.700569585930999 ] } },
{ "type": "Feature", "properties": { "Name": "Магазин одежды Абу", "address": "ул. Генерала Челнокова, 11, Калининград, этаж 2", "latitude": 54.738030002796002, "longitude": 20.486049959662001 }, "geometry": { "type": "Point", "coordinates": [ 20.486049959662001, 54.738030002796002 ] } },
{ "type": "Feature", "properties": { "Name": "Кидсмакс.ру", "address": "ул. Каштановая Аллея, 145, Калининград", "latitude": 54.749809769245999, "longitude": 20.444710409184999 }, "geometry": { "type": "Point", "coordinates": [ 20.444710409184999, 54.749809769245999 ] } },
{ "type": "Feature", "properties": { "Name": "Дрозд", "address": "ул. Виктора Денисова, 16, корп. 2, Калининград", "latitude": 54.713369982648999, "longitude": 20.582999997112001 }, "geometry": { "type": "Point", "coordinates": [ 20.582999997112001, 54.713369982648999 ] } },
{ "type": "Feature", "properties": { "Name": "Детский мир", "address": "ул. Юрия Гагарина, 16Б, Калининград, этаж 1", "latitude": 54.718460019081, "longitude": 20.543259969234001 }, "geometry": { "type": "Point", "coordinates": [ 20.543259969234001, 54.718460019081 ] } },
{ "type": "Feature", "properties": { "Name": "Андрейка", "address": "Театральная ул., 30, Калининград, этаж 2", "latitude": 54.717749988062998, "longitude": 20.498990025604002 }, "geometry": { "type": "Point", "coordinates": [ 20.498990025604002, 54.717749988062998 ] } },
{ "type": "Feature", "properties": { "Name": "Sky lake", "address": "Нарвская ул., 112, Калининград, этаж 2", "latitude": 54.743200980354999, "longitude": 20.499180091776001 }, "geometry": { "type": "Point", "coordinates": [ 20.499180091776001, 54.743200980354999 ] } },
{ "type": "Feature", "properties": { "Name": "Ecco", "address": "Киевская ул., 97А, Калининград, этаж 1", "latitude": 54.681019985433998, "longitude": 20.474809995142 }, "geometry": { "type": "Point", "coordinates": [ 20.474809995142, 54.681019985433998 ] } },
{ "type": "Feature", "properties": { "Name": "Kidsики", "address": "Барнаульская ул., 2, Калининград, павильон 25", "latitude": 54.714629992243999, "longitude": 20.502029974247002 }, "geometry": { "type": "Point", "coordinates": [ 20.502029974247002, 54.714629992243999 ] } },
{ "type": "Feature", "properties": { "Name": "Карапуз на Сельме", "address": "ул. Дзержинского, 79, Калининград, павильон 26-27, этаж 1", "latitude": 54.684640003687001, "longitude": 20.535000022750001 }, "geometry": { "type": "Point", "coordinates": [ 20.535000022750001, 54.684640003687001 ] } },
{ "type": "Feature", "properties": { "Name": "Детский магазин", "address": "ул. Горького, 207, Калининград", "latitude": 54.743200002583997, "longitude": 20.501369983191001 }, "geometry": { "type": "Point", "coordinates": [ 20.501369983191001, 54.743200002583997 ] } },
{ "type": "Feature", "properties": { "Name": "Товары для детей", "address": "Калининградская область, Гурьевский городской округ, Приморское кольцо, 2, этаж 1", "latitude": 54.75, "longitude": 20.58333 }, "geometry": { "type": "Point", "coordinates": [ 20.58333, 54.75 ] } },
{ "type": "Feature", "properties": { "Name": "Папайя", "address": "ул. Генерал-Лейтенанта Озерова, 17Б, Калининград, ТК Мега Центр, этаж 2й", "latitude": 54.725900005886999, "longitude": 20.501290019835 }, "geometry": { "type": "Point", "coordinates": [ 20.501290019835, 54.725900005886999 ] } },
{ "type": "Feature", "properties": { "Name": "Уют", "address": "ул. Александра Суворова, 41, Калининград", "latitude": 54.691979994387999, "longitude": 20.470790034379 }, "geometry": { "type": "Point", "coordinates": [ 20.470790034379, 54.691979994387999 ] } },
{ "type": "Feature", "properties": { "Name": "Кидсмакс.ру", "address": "ул. Горького, 55, Калининград, павильон 55, этаж 2", "latitude": 54.721199979410002, "longitude": 20.592480013423 }, "geometry": { "type": "Point", "coordinates": [ 20.592480013423, 54.721199979410002 ] } },
{ "type": "Feature", "properties": { "Name": "Acoola", "address": "Мариупольская ул., 14, Калининград", "latitude": 54.708439998659003, "longitude": 20.498860022285001 }, "geometry": { "type": "Point", "coordinates": [ 20.498860022285001, 54.708439998659003 ] } },
{ "type": "Feature", "properties": { "Name": "Детский магазин", "address": "ул. Космонавта Пацаева, 3, Калининград", "latitude": 54.724839988501998, "longitude": 20.480800038426999 }, "geometry": { "type": "Point", "coordinates": [ 20.480800038426999, 54.724839988501998 ] } },
{ "type": "Feature", "properties": { "Name": "Мотя Бегемот", "address": "Нарвская ул., 112, Калининград, этаж 2", "latitude": 54.743200980354999, "longitude": 20.499180091776001 }, "geometry": { "type": "Point", "coordinates": [ 20.499180091776001, 54.743200980354999 ] } },
{ "type": "Feature", "properties": { "Name": "Канцтовары и игрушки", "address": "ул. Николая Карамзина, 34, Калининград", "latitude": 54.666010008504003, "longitude": 20.50885996805 }, "geometry": { "type": "Point", "coordinates": [ 20.50885996805, 54.666010008504003 ] } },
{ "type": "Feature", "properties": { "Name": "Мозаика", "address": "ул. Мусоргского, 10А, Калининград", "latitude": 54.726360004733003, "longitude": 20.501950010891001 }, "geometry": { "type": "Point", "coordinates": [ 20.501950010891001, 54.726360004733003 ] } },
{ "type": "Feature", "properties": { "Name": "Ангел", "address": "ул. Юрия Гагарина, 16Е, Калининград, ТЦ Виктория, этаж 1", "latitude": 54.720389994196999, "longitude": 20.544279963032 }, "geometry": { "type": "Point", "coordinates": [ 20.544279963032, 54.720389994196999 ] } },
{ "type": "Feature", "properties": { "Name": "Андрейка", "address": "ул. Профессора Баранова, 40, Калининград", "latitude": 54.718599996864, "longitude": 20.499109970637999 }, "geometry": { "type": "Point", "coordinates": [ 20.499109970637999, 54.718599996864 ] } },
{ "type": "Feature", "properties": { "Name": "Ecco", "address": "ул. Согласия, 44А, Калининград, этаж 1", "latitude": 54.749480017810001, "longitude": 20.488529997173998 }, "geometry": { "type": "Point", "coordinates": [ 20.488529997173998, 54.749480017810001 ] } },
{ "type": "Feature", "properties": { "Name": "Кидсмакс.ру", "address": "Батальная ул., 62А, корп. 1, Калининград", "latitude": 54.674719979369002, "longitude": 20.500089982757 }, "geometry": { "type": "Point", "coordinates": [ 20.500089982757, 54.674719979369002 ] } },
{ "type": "Feature", "properties": { "Name": "Gulliver", "address": "Московский просп., 257, Калининград, этаж 3", "latitude": 54.707969983437998, "longitude": 20.580950035053 }, "geometry": { "type": "Point", "coordinates": [ 20.580950035053, 54.707969983437998 ] } },
{ "type": "Feature", "properties": { "Name": "Кидсмакс.ру", "address": "ул. Юрия Гагарина, 1, Калининград", "latitude": 54.715260017996002, "longitude": 20.536670033139 }, "geometry": { "type": "Point", "coordinates": [ 20.536670033139, 54.715260017996002 ] } },
{ "type": "Feature", "properties": { "Name": "Сказка", "address": "Ленинский просп., 147, Калининград", "latitude": 54.697509996918001, "longitude": 20.503179971363 }, "geometry": { "type": "Point", "coordinates": [ 20.503179971363, 54.697509996918001 ] } },
{ "type": "Feature", "properties": { "Name": "Polly Kids", "address": "просп. Мира, 55, Калининград", "latitude": 54.720380019731998, "longitude": 20.480020018518001 }, "geometry": { "type": "Point", "coordinates": [ 20.480020018518001, 54.720380019731998 ] } },
{ "type": "Feature", "properties": { "Name": "Mamafeet", "address": "бул. Любови Шевцовой, 1, Калининград", "latitude": 54.672319989032999, "longitude": 20.501899970928999 }, "geometry": { "type": "Point", "coordinates": [ 20.501899970928999, 54.672319989032999 ] } },
{ "type": "Feature", "properties": { "Name": "Валери", "address": "Театральная ул., 35, Калининград, этаж 1", "latitude": 54.717749988062998, "longitude": 20.497260000788 }, "geometry": { "type": "Point", "coordinates": [ 20.497260000788, 54.717749988062998 ] } },
{ "type": "Feature", "properties": { "Name": "Zefir kids", "address": "Интернациональная ул., 76, Калининград, этаж 2", "latitude": 54.668819999634003, "longitude": 20.510259997336998 }, "geometry": { "type": "Point", "coordinates": [ 20.510259997336998, 54.668819999634003 ] } },
{ "type": "Feature", "properties": { "Name": "Бабочки", "address": "ул. Генерал-Лейтенанта Захарова, 2, Калининград, павильон 94", "latitude": 54.735120015561002, "longitude": 20.472200038131 }, "geometry": { "type": "Point", "coordinates": [ 20.472200038131, 54.735120015561002 ] } },
{ "type": "Feature", "properties": { "Name": "De Salitto", "address": "Театральная ул., 30, Калининград, ТЦ Европа, этаж 3", "latitude": 54.717749988062998, "longitude": 20.498990025604002 }, "geometry": { "type": "Point", "coordinates": [ 20.498990025604002, 54.717749988062998 ] } },
{ "type": "Feature", "properties": { "Name": "Mila Kids", "address": "ул. Генерала Челнокова, 46, Калининград, этаж цокольный", "latitude": 54.745740012612998, "longitude": 20.484209964276999 }, "geometry": { "type": "Point", "coordinates": [ 20.484209964276999, 54.745740012612998 ] } },
{ "type": "Feature", "properties": { "Name": "Магазин детской одежды", "address": "Советский просп., 159, Калининград, этаж 2", "latitude": 54.742440015423, "longitude": 20.465250015475 }, "geometry": { "type": "Point", "coordinates": [ 20.465250015475, 54.742440015423 ] } },
{ "type": "Feature", "properties": { "Name": "PlayToday", "address": "Красная ул., 2А, Гурьевск, ТЦ Виктория, этаж 2", "latitude": 54.77113, "longitude": 20.6068 }, "geometry": { "type": "Point", "coordinates": [ 20.6068, 54.77113 ] } },
{ "type": "Feature", "properties": { "Name": "Ананас", "address": "Калининградская область, Гурьевский городской округ, Приморское кольцо, 2", "latitude": 54.75, "longitude": 20.58333 }, "geometry": { "type": "Point", "coordinates": [ 20.58333, 54.75 ] } },
{ "type": "Feature", "properties": { "Name": "Evo mealux", "address": "Киевская ул., 95А, Калининград", "latitude": 54.681019985433998, "longitude": 20.475320033949998 }, "geometry": { "type": "Point", "coordinates": [ 20.475320033949998, 54.681019985433998 ] } },
{ "type": "Feature", "properties": { "Name": "Юнга", "address": "ул. Дзержинского, 79, корп. 3, Калининград, павильон 46", "latitude": 54.685169991424999, "longitude": 20.534220002840001 }, "geometry": { "type": "Point", "coordinates": [ 20.534220002840001, 54.685169991424999 ] } },
{ "type": "Feature", "properties": { "Name": "Иванушка Алёнушка", "address": "Пражский бул., 1Д, Гурьевск, этаж 1", "latitude": 54.763250017894002, "longitude": 20.606500003769 }, "geometry": { "type": "Point", "coordinates": [ 20.606500003769, 54.763250017894002 ] } },
{ "type": "Feature", "properties": { "Name": "Памперсы подгузники", "address": "ул. Юрия Гагарина, 16В, Калининград", "latitude": 54.719580008983002, "longitude": 20.543900011361 }, "geometry": { "type": "Point", "coordinates": [ 20.543900011361, 54.719580008983002 ] } },
{ "type": "Feature", "properties": { "Name": "Мальчишки и девчонки", "address": "Нарвская ул., 112, Калининград", "latitude": 54.743200980354999, "longitude": 20.499180091776001 }, "geometry": { "type": "Point", "coordinates": [ 20.499180091776001, 54.743200980354999 ] } },
{ "type": "Feature", "properties": { "Name": "Мальчишки и Девчонки", "address": "Полоцкая ул., 49, Калининград, павильон 29", "latitude": 54.702050012862998, "longitude": 20.499639958376001 }, "geometry": { "type": "Point", "coordinates": [ 20.499639958376001, 54.702050012862998 ] } },
{ "type": "Feature", "properties": { "Name": "Магазин детской одежды Чижик", "address": "Юбилейная ул., 18, Калининград", "latitude": 54.718463529373999, "longitude": 20.537880136995 }, "geometry": { "type": "Point", "coordinates": [ 20.537880136995, 54.718463529373999 ] } },
{ "type": "Feature", "properties": { "Name": "Lafic", "address": "Полоцкая ул., 45, Калининград", "latitude": 54.702059987327999, "longitude": 20.498149991266999 }, "geometry": { "type": "Point", "coordinates": [ 20.498149991266999, 54.702059987327999 ] } },
{ "type": "Feature", "properties": { "Name": "Kidsики", "address": "ул. Беланова, 10, микрорайон Чкаловск, Калининград", "latitude": 54.772200004557, "longitude": 20.447639972179999 }, "geometry": { "type": "Point", "coordinates": [ 20.447639972179999, 54.772200004557 ] } },
{ "type": "Feature", "properties": { "Name": "Моя Бусинка", "address": "Интернациональная ул., 30Б, Калининград, павильон 108", "latitude": 54.668889988525002, "longitude": 20.501959985355999 }, "geometry": { "type": "Point", "coordinates": [ 20.501959985355999, 54.668889988525002 ] } },
{ "type": "Feature", "properties": { "Name": "Хобби мир кидс", "address": "ул. Дзержинского, 130, Калининград", "latitude": 54.683600019050999, "longitude": 20.533569986248999 }, "geometry": { "type": "Point", "coordinates": [ 20.533569986248999, 54.683600019050999 ] } },
{ "type": "Feature", "properties": { "Name": "Юнга", "address": "Полоцкая ул., 45А, Калининград", "latitude": 54.702169999806998, "longitude": 20.499429991701 }, "geometry": { "type": "Point", "coordinates": [ 20.499429991701, 54.702169999806998 ] } },
{ "type": "Feature", "properties": { "Name": "Коляски", "address": "Московский просп., 40, Калининград, павильон 223, этаж 2", "latitude": 54.709370012725003, "longitude": 20.502689965302999 }, "geometry": { "type": "Point", "coordinates": [ 20.502689965302999, 54.709370012725003 ] } },
{ "type": "Feature", "properties": { "Name": "Кроха", "address": "Орудийная ул., 105, Калининград", "latitude": 54.747150016364998, "longitude": 20.562779996806 }, "geometry": { "type": "Point", "coordinates": [ 20.562779996806, 54.747150016364998 ] } },
{ "type": "Feature", "properties": { "Name": "Игрушки", "address": "ул. Генерала Челнокова, 11Б, Калининград", "latitude": 54.737609985627998, "longitude": 20.485969996306 }, "geometry": { "type": "Point", "coordinates": [ 20.485969996306, 54.737609985627998 ] } },
{ "type": "Feature", "properties": { "Name": "Детский магазин", "address": "ул. Генерала Челнокова, 38, Калининград", "latitude": 54.742399991836002, "longitude": 20.487150000635001 }, "geometry": { "type": "Point", "coordinates": [ 20.487150000635001, 54.742399991836002 ] } },
{ "type": "Feature", "properties": { "Name": "Андрейка", "address": "Интернациональная ул., 30Б, Калининград, павильон 19", "latitude": 54.668889988525002, "longitude": 20.501959985355999 }, "geometry": { "type": "Point", "coordinates": [ 20.501959985355999, 54.668889988525002 ] } },
{ "type": "Feature", "properties": { "Name": "Памперсы", "address": "Калининградская область, Гурьевский городской округ, Приморское кольцо, 2", "latitude": 54.75, "longitude": 20.58333 }, "geometry": { "type": "Point", "coordinates": [ 20.58333, 54.75 ] } },
{ "type": "Feature", "properties": { "Name": "Kindershop. 39", "address": "ул. Павла Флоренского, 46, Калининград", "latitude": 54.740304678747002, "longitude": 20.441513723233999 }, "geometry": { "type": "Point", "coordinates": [ 20.441513723233999, 54.740304678747002 ] } },
{ "type": "Feature", "properties": { "Name": "Сороконожка", "address": "Воскресенская ул., 6, микрорайон Прибрежный, Калининград, цоколь 6", "latitude": 54.648580008487997, "longitude": 20.333309974677 }, "geometry": { "type": "Point", "coordinates": [ 20.333309974677, 54.648580008487997 ] } },
{ "type": "Feature", "properties": { "Name": "Ньюформ", "address": "Клиническая ул., 77, этаж 1", "latitude": 54.717344153505003, "longitude": 20.521384277469 }, "geometry": { "type": "Point", "coordinates": [ 20.521384277469, 54.717344153505003 ] } },
{ "type": "Feature", "properties": { "Name": "Momshop", "address": "ул. Профессора Баранова, 34, этаж 7", "latitude": 54.721149981358003, "longitude": 20.506389988822001 }, "geometry": { "type": "Point", "coordinates": [ 20.506389988822001, 54.721149981358003 ] } },
{ "type": "Feature", "properties": { "Name": "Стиль Мама", "address": "Полоцкая ул., 49, этаж 1", "latitude": 54.702050012862998, "longitude": 20.499639958376001 }, "geometry": { "type": "Point", "coordinates": [ 20.499639958376001, 54.702050012862998 ] } },
{ "type": "Feature", "properties": { "Name": "Стиль Мама", "address": "Полоцкая ул., 49, этаж 1, павильон 9", "latitude": 54.702050012862998, "longitude": 20.499639958376001 }, "geometry": { "type": "Point", "coordinates": [ 20.499639958376001, 54.702050012862998 ] } },
{ "type": "Feature", "properties": { "Name": "Happy Mama", "address": "Ленинский просп., 147", "latitude": 54.697509996918001, "longitude": 20.503179971363 }, "geometry": { "type": "Point", "coordinates": [ 20.503179971363, 54.697509996918001 ] } },
{ "type": "Feature", "properties": { "Name": "Мама+", "address": "ул. Фрунзе, 73А, вход с ул. Пионерская", "latitude": 54.713055024225, "longitude": 20.529033632760999 }, "geometry": { "type": "Point", "coordinates": [ 20.529033632760999, 54.713055024225 ] } },
{ "type": "Feature", "properties": { "Name": "Бэбимания", "address": "ул. Генерала Галицкого, 5", "latitude": 54.715679993255002, "longitude": 20.499290013917999 }, "geometry": { "type": "Point", "coordinates": [ 20.499290013917999, 54.715679993255002 ] } },
{ "type": "Feature", "properties": { "Name": "Ньюформ", "address": "Нарвская ул., 115", "latitude": 54.742839999843, "longitude": 20.498119984054 }, "geometry": { "type": "Point", "coordinates": [ 20.498119984054, 54.742839999843 ] } },
{ "type": "Feature", "properties": { "Name": "Дрозд", "address": "ул. Каштановая Аллея, 145", "latitude": 54.749809769245999, "longitude": 20.444710409184999 }, "geometry": { "type": "Point", "coordinates": [ 20.444710409184999, 54.749809769245999 ] } },
{ "type": "Feature", "properties": { "Name": "Babynitto", "address": "4-я Большая Окружная ул., 74, этаж 3, офис 308", "latitude": 54.754190018751999, "longitude": 20.546420030549999 }, "geometry": { "type": "Point", "coordinates": [ 20.546420030549999, 54.754190018751999 ] } },
{ "type": "Feature", "properties": { "Name": "Дешевая одежда", "address": "Воскресенская ул., 6, микрорайон Прибрежный, цоколь №7", "latitude": 54.648580008487997, "longitude": 20.333309974677 }, "geometry": { "type": "Point", "coordinates": [ 20.333309974677, 54.648580008487997 ] } }
]
}
