{
"type": "FeatureCollection",
"features": [
{ "type": "Feature", "properties": { "Name": "Книгаопт", "address": "Серпуховская ул., 18, этаж цокольный", "latitude": 54.703920015462003, "longitude": 20.502089988674001 }, "geometry": { "type": "Point", "coordinates": [ 20.502089988674001, 54.703920015462003 ] } },
{ "type": "Feature", "properties": { "Name": "Буквоед", "address": "Ленинский просп., 30, Калининград, Россия, этаж 3", "latitude": 54.711210008110001, "longitude": 20.508229984206999 }, "geometry": { "type": "Point", "coordinates": [ 20.508229984206999, 54.711210008110001 ] } },
{ "type": "Feature", "properties": { "Name": "Буквоед", "address": "Ленинский просп., 9, Калининград, Россия, этаж 2", "latitude": 54.717879991380997, "longitude": 20.502879983048 }, "geometry": { "type": "Point", "coordinates": [ 20.502879983048, 54.717879991380997 ] } },
{ "type": "Feature", "properties": { "Name": "Буквоед", "address": "ул. Мусоргского, 10А, Калининград, Россия, этаж 2", "latitude": 54.726360004733003, "longitude": 20.501950010891001 }, "geometry": { "type": "Point", "coordinates": [ 20.501950010891001, 54.726360004733003 ] } },
{ "type": "Feature", "properties": { "Name": "Катарсис", "address": "Гаражная ул., 2А", "latitude": 54.724479985761, "longitude": 20.505349962276 }, "geometry": { "type": "Point", "coordinates": [ 20.505349962276, 54.724479985761 ] } },
{ "type": "Feature", "properties": { "Name": "Магия Свечей", "address": "1-й Октябрьский пр., 6, этаж цокольный", "latitude": 54.719949986190002, "longitude": 20.480829961822 }, "geometry": { "type": "Point", "coordinates": [ 20.480829961822, 54.719949986190002 ] } },
{ "type": "Feature", "properties": { "Name": "Книжная Лавка", "address": "Гвардейский просп., 3, этаж 1", "latitude": 54.715892059867002, "longitude": 20.49416874524 }, "geometry": { "type": "Point", "coordinates": [ 20.49416874524, 54.715892059867002 ] } },
{ "type": "Feature", "properties": { "Name": "Книжная лавка", "address": "ул. Горького, 2, этаж 2", "latitude": 54.721559982152002, "longitude": 20.509249978004998 }, "geometry": { "type": "Point", "coordinates": [ 20.509249978004998, 54.721559982152002 ] } },
{ "type": "Feature", "properties": { "Name": "Живём", "address": "Ленинский просп., 30, этаж 4", "latitude": 54.711210008110001, "longitude": 20.508229984206999 }, "geometry": { "type": "Point", "coordinates": [ 20.508229984206999, 54.711210008110001 ] } },
{ "type": "Feature", "properties": { "Name": "Мануфактуры Макса Пройса - Амалиенау", "address": "Красная ул., 4, этаж 1", "latitude": 54.721109999680003, "longitude": 20.475190030632 }, "geometry": { "type": "Point", "coordinates": [ 20.475190030632, 54.721109999680003 ] } },
{ "type": "Feature", "properties": { "Name": "Магазин компьютерных игр Матрица", "address": "площадь Победы, 4, БЦ Калининградский деловой центр, 1 этаж", "latitude": 54.72059, "longitude": 20.50005 }, "geometry": { "type": "Point", "coordinates": [ 20.50005, 54.72059 ] } },
{ "type": "Feature", "properties": { "Name": "Книжная лавка", "address": "ул. Подполковника Иванникова, 3А, этаж 1", "latitude": 54.717790011650997, "longitude": 20.505320038882001 }, "geometry": { "type": "Point", "coordinates": [ 20.505320038882001, 54.717790011650997 ] } },
{ "type": "Feature", "properties": { "Name": "Книжная лавка", "address": "Ленинский просп., 109", "latitude": 54.702710003919002, "longitude": 20.505539980020998 }, "geometry": { "type": "Point", "coordinates": [ 20.505539980020998, 54.702710003919002 ] } },
{ "type": "Feature", "properties": { "Name": "Мануфактуры Макса Пройса", "address": "Ленинский просп., 83, этаж 1", "latitude": 54.705150017843003, "longitude": 20.506840013203998 }, "geometry": { "type": "Point", "coordinates": [ 20.506840013203998, 54.705150017843003 ] } },
{ "type": "Feature", "properties": { "Name": "Geek House", "address": "площадь Победы, 4А", "latitude": 54.721149981358003, "longitude": 20.501139983767999 }, "geometry": { "type": "Point", "coordinates": [ 20.501139983767999, 54.721149981358003 ] } },
{ "type": "Feature", "properties": { "Name": "Старый том", "address": "ул. Мусоргского, 10, корп. 2", "latitude": 54.726659993048003, "longitude": 20.503390021857001 }, "geometry": { "type": "Point", "coordinates": [ 20.503390021857001, 54.726659993048003 ] } },
{ "type": "Feature", "properties": { "Name": "Locus Solus", "address": "ул. Литовский Вал, 5, павильон 9", "latitude": 54.721409987994001, "longitude": 20.526570007450001 }, "geometry": { "type": "Point", "coordinates": [ 20.526570007450001, 54.721409987994001 ] } },
{ "type": "Feature", "properties": { "Name": "Центр учебных пособий", "address": "Типографская ул., 18", "latitude": 54.684269984571003, "longitude": 20.528210010626001 }, "geometry": { "type": "Point", "coordinates": [ 20.528210010626001, 54.684269984571003 ] } },
{ "type": "Feature", "properties": { "Name": "Калининградская книга", "address": "ул. Карла Маркса, 18А", "latitude": 54.729250001129003, "longitude": 20.480169970765999 }, "geometry": { "type": "Point", "coordinates": [ 20.480169970765999, 54.729250001129003 ] } },
{ "type": "Feature", "properties": { "Name": "Книги и Книжечки", "address": "Московский просп., 171А, этаж 2", "latitude": 54.710589998732999, "longitude": 20.542910024777001 }, "geometry": { "type": "Point", "coordinates": [ 20.542910024777001, 54.710589998732999 ] } },
{ "type": "Feature", "properties": { "Name": "Британия", "address": "ул. Генерал-Лейтенанта Озерова, 19, учебный центр Кембридж, этаж 1", "latitude": 54.725290012884003, "longitude": 20.502979979153 }, "geometry": { "type": "Point", "coordinates": [ 20.502979979153, 54.725290012884003 ] } },
{ "type": "Feature", "properties": { "Name": "Ёжик", "address": "ул. Виктора Гакуна, 5, офис 22", "latitude": 54.747569991623998, "longitude": 20.528019992880999 }, "geometry": { "type": "Point", "coordinates": [ 20.528019992880999, 54.747569991623998 ] } },
{ "type": "Feature", "properties": { "Name": "Книжная лавка", "address": "ул. Космонавта Леонова, 55, корп. 2", "latitude": 54.731070005675001, "longitude": 20.480069974660999 }, "geometry": { "type": "Point", "coordinates": [ 20.480069974660999, 54.731070005675001 ] } },
{ "type": "Feature", "properties": { "Name": "Книжная лавка", "address": "Артиллерийская ул., 56", "latitude": 54.731020007623002, "longitude": 20.550490031275 }, "geometry": { "type": "Point", "coordinates": [ 20.550490031275, 54.731020007623002 ] } },
{ "type": "Feature", "properties": { "Name": "Книжная лавка", "address": "ул. Горького, 96, этаж цокольный", "latitude": 54.732089999472997, "longitude": 20.512220021575999 }, "geometry": { "type": "Point", "coordinates": [ 20.512220021575999, 54.732089999472997 ] } },
{ "type": "Feature", "properties": { "Name": "Книжная лавка", "address": "просп. Победы, 137, Калининград, этаж 1", "latitude": 54.709960014890001, "longitude": 20.442549977658 }, "geometry": { "type": "Point", "coordinates": [ 20.442549977658, 54.709960014890001 ] } },
{ "type": "Feature", "properties": { "Name": "Пресса-учебник", "address": "Клиническая ул., 14, Калининград, этаж цокольный", "latitude": 54.714080013667001, "longitude": 20.519069964307999 }, "geometry": { "type": "Point", "coordinates": [ 20.519069964307999, 54.714080013667001 ] } },
{ "type": "Feature", "properties": { "Name": "Книжная лавка", "address": "ул. Согласия, 44А, Калининград, ТЦ Виктория, этаж 1", "latitude": 54.74052, "longitude": 20.49324 }, "geometry": { "type": "Point", "coordinates": [ 20.49324, 54.74052 ] } },
{ "type": "Feature", "properties": { "Name": "Канцтовары", "address": "Ленинский просп., 145, Калининград", "latitude": 54.697640000235999, "longitude": 20.503160022433001 }, "geometry": { "type": "Point", "coordinates": [ 20.503160022433001, 54.697640000235999 ] } },
{ "type": "Feature", "properties": { "Name": "Магазин технической литературы", "address": "ул. Дмитрия Донского, 7, Калининград, офис 109, этаж 1", "latitude": 54.714590010565999, "longitude": 20.488609960529999 }, "geometry": { "type": "Point", "coordinates": [ 20.488609960529999, 54.714590010565999 ] } },
{ "type": "Feature", "properties": { "Name": "Клякса", "address": "ул. Виктора Гакуна, 5, Калининград", "latitude": 54.747569991623998, "longitude": 20.528019992880999 }, "geometry": { "type": "Point", "coordinates": [ 20.528019992880999, 54.747569991623998 ] } },
{ "type": "Feature", "properties": { "Name": "Книжный магазин", "address": "ул. Генерал-Лейтенанта Захарова, 2, Калининград", "latitude": 54.735120015561002, "longitude": 20.472200038131 }, "geometry": { "type": "Point", "coordinates": [ 20.472200038131, 54.735120015561002 ] } },
{ "type": "Feature", "properties": { "Name": "Книжная лавка", "address": "ул. Жиленкова, 3, микрорайон Чкаловск, Калининград", "latitude": 54.768759987674997, "longitude": 20.448770020365998 }, "geometry": { "type": "Point", "coordinates": [ 20.448770020365998, 54.768759987674997 ] } },
{ "type": "Feature", "properties": { "Name": "Мануфактуры Макса Пройса — Маяк Ломзе", "address": "Октябрьская ул., 2А, Калининград, этаж 4", "latitude": 54.705090003415997, "longitude": 20.514469975845 }, "geometry": { "type": "Point", "coordinates": [ 20.514469975845, 54.705090003415997 ] } },
{ "type": "Feature", "properties": { "Name": "Трудное детство", "address": "Серпуховская ул., 18, Калининград, этаж цокольный", "latitude": 54.703920015462003, "longitude": 20.502089988674001 }, "geometry": { "type": "Point", "coordinates": [ 20.502089988674001, 54.703920015462003 ] } },
{ "type": "Feature", "properties": { "Name": "Буквоед", "address": "ул. Николая Карамзина, 42, Калининград, этаж 2", "latitude": 54.666292724706999, "longitude": 20.510619073744 }, "geometry": { "type": "Point", "coordinates": [ 20.510619073744, 54.666292724706999 ] } },
{ "type": "Feature", "properties": { "Name": "Буквоед", "address": "Калининградская область, Гурьевский муниципальный округ, Приморское кольцо, 2, ТРЦ Балтия Молл", "latitude": 54.70649, "longitude": 20.51095 }, "geometry": { "type": "Point", "coordinates": [ 20.51095, 54.70649 ] } },
{ "type": "Feature", "properties": { "Name": "Книги", "address": "ул. Горького, 195, Калининград, павильон 25, этаж 2", "latitude": 54.739509995440002, "longitude": 20.504730036717 }, "geometry": { "type": "Point", "coordinates": [ 20.504730036717, 54.739509995440002 ] } },
{ "type": "Feature", "properties": { "Name": "Мануфактуры Макса Пройса — Трагхайм", "address": "ул. Профессора Баранова, 41, Калининград, Отдельный вход с улицы Баранова, этаж 1", "latitude": 54.720674618185001, "longitude": 20.506070554457999 }, "geometry": { "type": "Point", "coordinates": [ 20.506070554457999, 54.720674618185001 ] } },
{ "type": "Feature", "properties": { "Name": "Мануфактуры Макса Пройса — Россгартен", "address": "Клиническая ул., 21, Калининград, этаж 1", "latitude": 54.713759992603997, "longitude": 20.518320035431 }, "geometry": { "type": "Point", "coordinates": [ 20.518320035431, 54.713759992603997 ] } },
{ "type": "Feature", "properties": { "Name": "Книги", "address": "ул. Черняховского, 15лит1, Калининград", "latitude": 54.721320008264001, "longitude": 20.513519970939001 }, "geometry": { "type": "Point", "coordinates": [ 20.513519970939001, 54.721320008264001 ] } },
{ "type": "Feature", "properties": { "Name": "Православная книга", "address": "площадь Победы, 2, корп. 3, Калининград", "latitude": 54.721730009056998, "longitude": 20.503499992426001 }, "geometry": { "type": "Point", "coordinates": [ 20.503499992426001, 54.721730009056998 ] } },
{ "type": "Feature", "properties": { "Name": "Кот Ученый", "address": "ул. Сергеева, 10, Калининград, этаж 1", "latitude": 54.717590019440998, "longitude": 20.518169999364002 }, "geometry": { "type": "Point", "coordinates": [ 20.518169999364002, 54.717590019440998 ] } },
{ "type": "Feature", "properties": { "Name": "LeVi", "address": "Космическая ул., 8, Калининград", "latitude": 54.715410012154003, "longitude": 20.501230005408001 }, "geometry": { "type": "Point", "coordinates": [ 20.501230005408001, 54.715410012154003 ] } }
]
}
