{
"type": "FeatureCollection",
"name": "clothes",
"crs": { "type": "name", "properties": { "name": "urn:ogc:def:crs:OGC:1.3:CRS84" } },
"features": [
{ "type": "Feature", "properties": { "Name": "СИН", "address": "Ленинский просп., 30, Калининград, Россия", "longitude": 20.508409, "latitude": 54.711474 }, "geometry": { "type": "Point", "coordinates": [ 20.508409, 54.711474 ] } },
{ "type": "Feature", "properties": { "Name": "FunDay", "address": "ул. Генерал-Лейтенанта Озерова, 17, корп. 1, Калининград, Россия", "longitude": 20.502028, "latitude": 54.725527 }, "geometry": { "type": "Point", "coordinates": [ 20.502028, 54.725527 ] } },
{ "type": "Feature", "properties": { "Name": "Zolla", "address": "Ленинский просп., 30, Калининград, Россия", "longitude": 20.508101, "latitude": 54.711522 }, "geometry": { "type": "Point", "coordinates": [ 20.508101, 54.711522 ] } },
{ "type": "Feature", "properties": { "Name": "CR", "address": "Ленинский просп., 30, Калининград, Россия", "longitude": 20.508428, "latitude": 54.711562 }, "geometry": { "type": "Point", "coordinates": [ 20.508428, 54.711562 ] } },
{ "type": "Feature", "properties": { "Name": "HENDERSON", "address": "ул. Профессора Баранова, 40, Калининград, Россия", "longitude": 20.498545, "latitude": 54.718644 }, "geometry": { "type": "Point", "coordinates": [ 20.498545, 54.718644 ] } },
{ "type": "Feature", "properties": { "Name": "New Inn", "address": "Ленинский просп., 30, Калининград, Россия", "longitude": 20.50847, "latitude": 54.711156 }, "geometry": { "type": "Point", "coordinates": [ 20.50847, 54.711156 ] } },
{ "type": "Feature", "properties": { "Name": "Familia", "address": "Уральская ул., 18, Калининград, Россия", "longitude": 20.502266, "latitude": 54.724575 }, "geometry": { "type": "Point", "coordinates": [ 20.502266, 54.724575 ] } },
{ "type": "Feature", "properties": { "Name": "Today", "address": "Пролетарская ул., 1, Калининград, Россия", "longitude": 20.512195, "latitude": 54.711631 }, "geometry": { "type": "Point", "coordinates": [ 20.512195, 54.711631 ] } },
{ "type": "Feature", "properties": { "Name": "Miditi", "address": "Ленинский просп., 30, Калининград, Россия", "longitude": 20.508593, "latitude": 54.711358 }, "geometry": { "type": "Point", "coordinates": [ 20.508593, 54.711358 ] } },
{ "type": "Feature", "properties": { "Name": "Снежная Королева", "address": "Ленинский просп., 30, Калининград, Россия", "longitude": 20.508211, "latitude": 54.710861 }, "geometry": { "type": "Point", "coordinates": [ 20.508211, 54.710861 ] } },
{ "type": "Feature", "properties": { "Name": "Дракон", "address": "ул. Генерала Галицкого, 3, Калининград, Россия", "longitude": 20.499354, "latitude": 54.715962 }, "geometry": { "type": "Point", "coordinates": [ 20.499354, 54.715962 ] } },
{ "type": "Feature", "properties": { "Name": "LOVE REPUBLIC", "address": "Ленинский просп., 30, Калининград, Россия", "longitude": 20.508541, "latitude": 54.711248 }, "geometry": { "type": "Point", "coordinates": [ 20.508541, 54.711248 ] } },
{ "type": "Feature", "properties": { "Name": "Luhta Finland Fashion", "address": "Эпроновская ул., 11, Калининград, Россия", "longitude": 20.513149, "latitude": 54.700755 }, "geometry": { "type": "Point", "coordinates": [ 20.513149, 54.700755 ] } },
{ "type": "Feature", "properties": { "Name": "Zarina", "address": "Ленинский просп., 30, Калининград, Россия", "longitude": 20.508431, "latitude": 54.710985 }, "geometry": { "type": "Point", "coordinates": [ 20.508431, 54.710985 ] } },
{ "type": "Feature", "properties": { "Name": "VIA shop", "address": "ул. Лейтенанта Катина, 80, Калининград, Россия", "longitude": 20.435386, "latitude": 54.732739 }, "geometry": { "type": "Point", "coordinates": [ 20.435386, 54.732739 ] } },
{ "type": "Feature", "properties": { "Name": "Твоё", "address": "ул. Генерал-Лейтенанта Озерова, 17Б, Калининград, Россия", "longitude": 20.501348, "latitude": 54.725833 }, "geometry": { "type": "Point", "coordinates": [ 20.501348, 54.725833 ] } },
{ "type": "Feature", "properties": { "Name": "New Yorker", "address": "ул. Профессора Баранова, 40, Калининград, Россия", "longitude": 20.498991, "latitude": 54.718022 }, "geometry": { "type": "Point", "coordinates": [ 20.498991, 54.718022 ] } },
{ "type": "Feature", "properties": { "Name": "Familia", "address": "площадь Калинина, 28, Калининград, Россия", "longitude": 20.502166, "latitude": 54.694611 }, "geometry": { "type": "Point", "coordinates": [ 20.502166, 54.694611 ] } },
{ "type": "Feature", "properties": { "Name": "KANZLER", "address": "Гвардейский просп., 3, Калининград, Россия", "longitude": 20.499302, "latitude": 54.718254 }, "geometry": { "type": "Point", "coordinates": [ 20.499302, 54.718254 ] } },
{ "type": "Feature", "properties": { "Name": "Zolla", "address": "ул. Генерал-Лейтенанта Озерова, 17Б, Калининград, Россия", "longitude": 20.502214, "latitude": 54.725762 }, "geometry": { "type": "Point", "coordinates": [ 20.502214, 54.725762 ] } },
{ "type": "Feature", "properties": { "Name": "Zolla", "address": "ул. Горького, 2, Калининград, Россия", "longitude": 20.50937, "latitude": 54.721515 }, "geometry": { "type": "Point", "coordinates": [ 20.50937, 54.721515 ] } },
{ "type": "Feature", "properties": { "Name": "Tommy Hilfiger", "address": "Театральная ул., 30, Калининград, Россия", "longitude": 20.500182, "latitude": 54.718537 }, "geometry": { "type": "Point", "coordinates": [ 20.500182, 54.718537 ] } },
{ "type": "Feature", "properties": { "Name": "Black Room", "address": "ул. Горького, 9, Калининград, Россия", "longitude": 20.508562, "latitude": 54.72367 }, "geometry": { "type": "Point", "coordinates": [ 20.508562, 54.72367 ] } },
{ "type": "Feature", "properties": { "Name": "Adress", "address": "Пролетарская ул., 55Б, Калининград, Россия", "longitude": 20.512614, "latitude": 54.717369 }, "geometry": { "type": "Point", "coordinates": [ 20.512614, 54.717369 ] } },
{ "type": "Feature", "properties": { "Name": "Берег", "address": "ул. Профессора Баранова, 43, Калининград, Россия", "longitude": 20.506993, "latitude": 54.72027 }, "geometry": { "type": "Point", "coordinates": [ 20.506993, 54.72027 ] } },
{ "type": "Feature", "properties": { "Name": "Эконом+", "address": "Интернациональная ул., 30, Калининград, Россия", "longitude": 20.50062, "latitude": 54.668971 }, "geometry": { "type": "Point", "coordinates": [ 20.50062, 54.668971 ] } },
{ "type": "Feature", "properties": { "Name": "Louvery", "address": "ул. Карла Маркса, 34, Калининград, Россия", "longitude": 20.477289, "latitude": 54.727264 }, "geometry": { "type": "Point", "coordinates": [ 20.477289, 54.727264 ] } },
{ "type": "Feature", "properties": { "Name": "Xtep", "address": "ул. Профессора Баранова, 40, Калининград, Россия", "longitude": 20.499302, "latitude": 54.718587 }, "geometry": { "type": "Point", "coordinates": [ 20.499302, 54.718587 ] } },
{ "type": "Feature", "properties": { "Name": "O'STIN", "address": "Ленинский просп., 12, Калининград, Россия", "longitude": 20.504426, "latitude": 54.714653 }, "geometry": { "type": "Point", "coordinates": [ 20.504426, 54.714653 ] } },
{ "type": "Feature", "properties": { "Name": "Стоп цена", "address": "ул. Шевченко, 11А, Калининград, Россия", "longitude": 20.511748, "latitude": 54.711478 }, "geometry": { "type": "Point", "coordinates": [ 20.511748, 54.711478 ] } },
{ "type": "Feature", "properties": { "Name": "Outlet Factory", "address": "Ленинский просп., 62, Калининград, Россия", "longitude": 20.502969, "latitude": 54.700903 }, "geometry": { "type": "Point", "coordinates": [ 20.502969, 54.700903 ] } },
{ "type": "Feature", "properties": { "Name": "Твоё", "address": "ул. Горького, 2, Калининград, Россия", "longitude": 20.508684, "latitude": 54.72139 }, "geometry": { "type": "Point", "coordinates": [ 20.508684, 54.72139 ] } },
{ "type": "Feature", "properties": { "Name": "Комодник", "address": "Театральная ул., 36Б, Калининград, Россия", "longitude": 20.495378, "latitude": 54.718675 }, "geometry": { "type": "Point", "coordinates": [ 20.495378, 54.718675 ] } },
{ "type": "Feature", "properties": { "Name": "Вот это да!", "address": "ул. 9 Апреля, 1, Калининград, Россия", "longitude": 20.520995, "latitude": 54.713237 }, "geometry": { "type": "Point", "coordinates": [ 20.520995, 54.713237 ] } },
{ "type": "Feature", "properties": { "Name": "Concept", "address": "ул. Виктора Гюго, 1, Калининград, Россия", "longitude": 20.505665, "latitude": 54.708126 }, "geometry": { "type": "Point", "coordinates": [ 20.505665, 54.708126 ] } },
{ "type": "Feature", "properties": { "Name": "Луксор", "address": "просп. Мира, 14/16, Калининград, Россия", "longitude": 20.490208, "latitude": 54.719807 }, "geometry": { "type": "Point", "coordinates": [ 20.490208, 54.719807 ] } },
{ "type": "Feature", "properties": { "Name": "O'STIN", "address": "Театральная ул., 30, Калининград, Россия", "longitude": 20.499338, "latitude": 54.717932 }, "geometry": { "type": "Point", "coordinates": [ 20.499338, 54.717932 ] } },
{ "type": "Feature", "properties": { "Name": "Салон Классик", "address": "Пролетарская ул., 3, Калининград, Россия", "longitude": 20.5123, "latitude": 54.711808 }, "geometry": { "type": "Point", "coordinates": [ 20.5123, 54.711808 ] } },
{ "type": "Feature", "properties": { "Name": "Дракон", "address": "ул. Профессора Баранова, 34, Калининград, Россия", "longitude": 20.506082, "latitude": 54.720985 }, "geometry": { "type": "Point", "coordinates": [ 20.506082, 54.720985 ] } },
{ "type": "Feature", "properties": { "Name": "Podium", "address": "просп. Мира, 35, Калининград, Россия", "longitude": 20.484193, "latitude": 54.720533 }, "geometry": { "type": "Point", "coordinates": [ 20.484193, 54.720533 ] } },
{ "type": "Feature", "properties": { "Name": "Пуговица", "address": "Киевская ул., 58, Калининград, Россия", "longitude": 20.479947, "latitude": 54.681645 }, "geometry": { "type": "Point", "coordinates": [ 20.479947, 54.681645 ] } },
{ "type": "Feature", "properties": { "Name": "Гардероб", "address": "Московский просп., 40, Калининград, Россия", "longitude": 20.502781, "latitude": 54.709464 }, "geometry": { "type": "Point", "coordinates": [ 20.502781, 54.709464 ] } },
{ "type": "Feature", "properties": { "Name": "Royal Spirit", "address": "ул. Генерал-Лейтенанта Озерова, 17, корп. 1, Калининград, Россия", "longitude": 20.502265, "latitude": 54.725993 }, "geometry": { "type": "Point", "coordinates": [ 20.502265, 54.725993 ] } },
{ "type": "Feature", "properties": { "Name": "Vikings Men", "address": "просп. Мира, 84, Калининград, Россия", "longitude": 20.475644, "latitude": 54.720664 }, "geometry": { "type": "Point", "coordinates": [ 20.475644, 54.720664 ] } },
{ "type": "Feature", "properties": { "Name": "Kokka", "address": "ул. Генерала Соммера, 2, Калининград, Россия", "longitude": 20.504678, "latitude": 54.715136 }, "geometry": { "type": "Point", "coordinates": [ 20.504678, 54.715136 ] } },
{ "type": "Feature", "properties": { "Name": "Familia", "address": "просп. Победы, 137, Калининград, Россия", "longitude": 20.442522, "latitude": 54.710088 }, "geometry": { "type": "Point", "coordinates": [ 20.442522, 54.710088 ] } },
{ "type": "Feature", "properties": { "Name": "CoverCode", "address": "ул. Александра Невского, 51Б, Калининград, Россия", "longitude": 20.530335, "latitude": 54.73111 }, "geometry": { "type": "Point", "coordinates": [ 20.530335, 54.73111 ] } },
{ "type": "Feature", "properties": { "Name": "Пуговица", "address": "Московский просп., 135, Калининград, Россия", "longitude": 20.53232, "latitude": 54.710047 }, "geometry": { "type": "Point", "coordinates": [ 20.53232, 54.710047 ] } },
{ "type": "Feature", "properties": { "Name": "General", "address": "ул. Горького, 105, Калининград, Россия", "longitude": 20.508861, "latitude": 54.734982 }, "geometry": { "type": "Point", "coordinates": [ 20.508861, 54.734982 ] } },
{ "type": "Feature", "properties": { "Name": "befree", "address": "площадь Победы, 10, Калининград, Россия", "longitude": 20.503268, "latitude": 54.719436 }, "geometry": { "type": "Point", "coordinates": [ 20.503268, 54.719436 ] } },
{ "type": "Feature", "properties": { "Name": "Fashion Star", "address": "Автомобильная ул., 18Б, Калининград, Россия", "longitude": 20.492185, "latitude": 54.675326 }, "geometry": { "type": "Point", "coordinates": [ 20.492185, 54.675326 ] } },
{ "type": "Feature", "properties": { "Name": "Stockholm outlet", "address": "ул. Виктора Гюго, 1, Калининград, Россия", "longitude": 20.505761, "latitude": 54.708323 }, "geometry": { "type": "Point", "coordinates": [ 20.505761, 54.708323 ] } },
{ "type": "Feature", "properties": { "Name": "Pion", "address": "ул. Профессора Баранова, 34, Калининград, Россия", "longitude": 20.506385, "latitude": 54.721374 }, "geometry": { "type": "Point", "coordinates": [ 20.506385, 54.721374 ] } },
{ "type": "Feature", "properties": { "Name": "Mon Style", "address": "ул. Каштановая Аллея, 59, Калининград, Россия", "longitude": 20.464271, "latitude": 54.72274 }, "geometry": { "type": "Point", "coordinates": [ 20.464271, 54.72274 ] } },
{ "type": "Feature", "properties": { "Name": "Амазонка", "address": "площадь Победы, 10, Калининград, Россия", "longitude": 20.50433, "latitude": 54.719727 }, "geometry": { "type": "Point", "coordinates": [ 20.50433, 54.719727 ] } },
{ "type": "Feature", "properties": { "Name": "Elis", "address": "Гвардейский просп., 3, Калининград, Россия", "longitude": 20.498972, "latitude": 54.718453 }, "geometry": { "type": "Point", "coordinates": [ 20.498972, 54.718453 ] } },
{ "type": "Feature", "properties": { "Name": "Твои джинсы", "address": "Московский просп., 50, Калининград, Россия", "longitude": 20.505017, "latitude": 54.709317 }, "geometry": { "type": "Point", "coordinates": [ 20.505017, 54.709317 ] } },
{ "type": "Feature", "properties": { "Name": "Ямайка", "address": "ул. Куйбышева, 91, Калининград, Россия", "longitude": 20.537032, "latitude": 54.726293 }, "geometry": { "type": "Point", "coordinates": [ 20.537032, 54.726293 ] } },
{ "type": "Feature", "properties": { "Name": "Всё по моде", "address": "ул. Профессора Баранова, 6, Калининград, Россия", "longitude": 20.511566, "latitude": 54.721701 }, "geometry": { "type": "Point", "coordinates": [ 20.511566, 54.721701 ] } },
{ "type": "Feature", "properties": { "Name": "sela moms & monsters", "address": "площадь Калинина, 28, Калининград, Россия", "longitude": 20.502207, "latitude": 54.694727 }, "geometry": { "type": "Point", "coordinates": [ 20.502207, 54.694727 ] } },
{ "type": "Feature", "properties": { "Name": "Shatte", "address": "Театральная ул., 36Б, Калининград, Россия", "longitude": 20.495569, "latitude": 54.718637 }, "geometry": { "type": "Point", "coordinates": [ 20.495569, 54.718637 ] } },
{ "type": "Feature", "properties": { "Name": "Lacoste", "address": "Театральная ул., 30, Калининград, Россия", "longitude": 20.499837, "latitude": 54.718403 }, "geometry": { "type": "Point", "coordinates": [ 20.499837, 54.718403 ] } },
{ "type": "Feature", "properties": { "Name": "Pinko", "address": "Театральная ул., 35, Калининград, Россия", "longitude": 20.497593, "latitude": 54.717736 }, "geometry": { "type": "Point", "coordinates": [ 20.497593, 54.717736 ] } },
{ "type": "Feature", "properties": { "Name": "Винтаж", "address": "Пролетарская ул., 7, Калининград, Россия", "longitude": 20.512562, "latitude": 54.712293 }, "geometry": { "type": "Point", "coordinates": [ 20.512562, 54.712293 ] } },
{ "type": "Feature", "properties": { "Name": "Ecru", "address": "Театральная ул., 30, Калининград, Россия", "longitude": 20.499898, "latitude": 54.717656 }, "geometry": { "type": "Point", "coordinates": [ 20.499898, 54.717656 ] } },
{ "type": "Feature", "properties": { "Name": "Амазонка", "address": "Гвардейский просп., 3, Калининград, Россия", "longitude": 20.499349, "latitude": 54.718708 }, "geometry": { "type": "Point", "coordinates": [ 20.499349, 54.718708 ] } },
{ "type": "Feature", "properties": { "Name": "Clasna", "address": "Ленинский просп., 30, Калининград, Россия", "longitude": 20.508085, "latitude": 54.7111 }, "geometry": { "type": "Point", "coordinates": [ 20.508085, 54.7111 ] } },
{ "type": "Feature", "properties": { "Name": "Venera", "address": "Пролетарская ул., 1, Калининград, Россия", "longitude": 20.512236, "latitude": 54.711709 }, "geometry": { "type": "Point", "coordinates": [ 20.512236, 54.711709 ] } },
{ "type": "Feature", "properties": { "Name": "Stockholm-Outlet", "address": "ул. Генерал-Лейтенанта Озерова, 17Б, Калининград, Россия", "longitude": 20.501538, "latitude": 54.725769 }, "geometry": { "type": "Point", "coordinates": [ 20.501538, 54.725769 ] } },
{ "type": "Feature", "properties": { "Name": "Mark Formelle", "address": "ул. Генерал-Лейтенанта Озерова, 17Б, Калининград, Россия", "longitude": 20.50198, "latitude": 54.725597 }, "geometry": { "type": "Point", "coordinates": [ 20.50198, 54.725597 ] } },
{ "type": "Feature", "properties": { "Name": "Dress", "address": "просп. Мира, 68, Калининград, Россия", "longitude": 20.480688, "latitude": 54.720945 }, "geometry": { "type": "Point", "coordinates": [ 20.480688, 54.720945 ] } },
{ "type": "Feature", "properties": { "Name": "Bb studio", "address": "площадь Победы, 10, Калининград, Россия", "longitude": 20.504181, "latitude": 54.720137 }, "geometry": { "type": "Point", "coordinates": [ 20.504181, 54.720137 ] } },
{ "type": "Feature", "properties": { "Name": "Miditi Collection", "address": "ул. Генерал-Лейтенанта Озерова, 17Б, Калининград, Россия", "longitude": 20.501564, "latitude": 54.725954 }, "geometry": { "type": "Point", "coordinates": [ 20.501564, 54.725954 ] } },
{ "type": "Feature", "properties": { "Name": "Royal Spirit", "address": "ул. Профессора Баранова, 34, Калининград, Россия", "longitude": 20.506104, "latitude": 54.721066 }, "geometry": { "type": "Point", "coordinates": [ 20.506104, 54.721066 ] } },
{ "type": "Feature", "properties": { "Name": "Miditi", "address": "Интернациональная ул., 30, Калининград, Россия", "longitude": 20.501352, "latitude": 54.668908 }, "geometry": { "type": "Point", "coordinates": [ 20.501352, 54.668908 ] } },
{ "type": "Feature", "properties": { "Name": "МегаShop", "address": "просп. Победы, 157А, Калининград, Россия", "longitude": 20.438378, "latitude": 54.710597 }, "geometry": { "type": "Point", "coordinates": [ 20.438378, 54.710597 ] } },
{ "type": "Feature", "properties": { "Name": "U. S. Polo Assn", "address": "площадь Победы, 10, Калининград, Россия", "longitude": 20.503467, "latitude": 54.719565 }, "geometry": { "type": "Point", "coordinates": [ 20.503467, 54.719565 ] } },
{ "type": "Feature", "properties": { "Name": "Perspective", "address": "Ленинский просп., 63, Калининград, Россия", "longitude": 20.507299, "latitude": 54.713298 }, "geometry": { "type": "Point", "coordinates": [ 20.507299, 54.713298 ] } },
{ "type": "Feature", "properties": { "Name": "Одежда из Европы", "address": "ул. Багратиона, 69, Калининград, Россия", "longitude": 20.5084, "latitude": 54.699164 }, "geometry": { "type": "Point", "coordinates": [ 20.5084, 54.699164 ] } },
{ "type": "Feature", "properties": { "Name": "MaxMara", "address": "Ленинский просп., 52, Калининград, Россия", "longitude": 20.50381, "latitude": 54.701465 }, "geometry": { "type": "Point", "coordinates": [ 20.50381, 54.701465 ] } },
{ "type": "Feature", "properties": { "Name": "Выгодный", "address": "ул. Николая Карамзина, 42, Калининград, Россия", "longitude": 20.51448, "latitude": 54.665381 }, "geometry": { "type": "Point", "coordinates": [ 20.51448, 54.665381 ] } },
{ "type": "Feature", "properties": { "Name": "Dnm Factory", "address": "Театральная ул., 30, Калининград, Россия", "longitude": 20.5, "latitude": 54.717644 }, "geometry": { "type": "Point", "coordinates": [ 20.5, 54.717644 ] } },
{ "type": "Feature", "properties": { "Name": "Твой Характер", "address": "Московский просп., 257, Калининград, Россия", "longitude": 20.580239, "latitude": 54.707814 }, "geometry": { "type": "Point", "coordinates": [ 20.580239, 54.707814 ] } },
{ "type": "Feature", "properties": { "Name": "Pierre Cardin", "address": "Театральная ул., 15, Калининград, Россия", "longitude": 20.501934, "latitude": 54.716295 }, "geometry": { "type": "Point", "coordinates": [ 20.501934, 54.716295 ] } },
{ "type": "Feature", "properties": { "Name": "Miditi", "address": "Гвардейский просп., 3, Калининград, Россия", "longitude": 20.499346, "latitude": 54.718562 }, "geometry": { "type": "Point", "coordinates": [ 20.499346, 54.718562 ] } },
{ "type": "Feature", "properties": { "Name": "Юность", "address": "Театральный пер., 3, Калининград, Россия", "longitude": 20.491261, "latitude": 54.720295 }, "geometry": { "type": "Point", "coordinates": [ 20.491261, 54.720295 ] } },
{ "type": "Feature", "properties": { "Name": "Secret Lady", "address": "ул. Горького, 193, Калининград, Россия", "longitude": 20.505319, "latitude": 54.738824 }, "geometry": { "type": "Point", "coordinates": [ 20.505319, 54.738824 ] } },
{ "type": "Feature", "properties": { "Name": "Планета одежды и обуви", "address": "Уральская ул., 18, Калининград, Россия", "longitude": 20.502639, "latitude": 54.724709 }, "geometry": { "type": "Point", "coordinates": [ 20.502639, 54.724709 ] } },
{ "type": "Feature", "properties": { "Name": "Pompa", "address": "ул. Генерал-Лейтенанта Озерова, 17Б, Калининград, Россия", "longitude": 20.502198, "latitude": 54.725884 }, "geometry": { "type": "Point", "coordinates": [ 20.502198, 54.725884 ] } },
{ "type": "Feature", "properties": { "Name": "Gerry Weber", "address": "ул. Профессора Баранова, 40, Калининград, Россия", "longitude": 20.498816, "latitude": 54.718472 }, "geometry": { "type": "Point", "coordinates": [ 20.498816, 54.718472 ] } },
{ "type": "Feature", "properties": { "Name": "Элегант", "address": "ул. Генерала Галицкого, 5, Калининград, Россия", "longitude": 20.499161, "latitude": 54.715676 }, "geometry": { "type": "Point", "coordinates": [ 20.499161, 54.715676 ] } },
{ "type": "Feature", "properties": { "Name": "Вселенная", "address": "Ольштынская ул., 1, Калининград, Россия", "longitude": 20.50348, "latitude": 54.696098 }, "geometry": { "type": "Point", "coordinates": [ 20.50348, 54.696098 ] } },
{ "type": "Feature", "properties": { "Name": "Mark Formelle", "address": "ул. Мусоргского, 10А, Калининград, Россия", "longitude": 20.501536, "latitude": 54.725985 }, "geometry": { "type": "Point", "coordinates": [ 20.501536, 54.725985 ] } },
{ "type": "Feature", "properties": { "Name": "Zarina", "address": "площадь Победы, 10, Калининград, Россия", "longitude": 20.503374, "latitude": 54.719755 }, "geometry": { "type": "Point", "coordinates": [ 20.503374, 54.719755 ] } },
{ "type": "Feature", "properties": { "Name": "Fashion room", "address": "Пролетарская ул., 29, Калининград, Россия", "longitude": 20.5124, "latitude": 54.713939 }, "geometry": { "type": "Point", "coordinates": [ 20.5124, 54.713939 ] } },
{ "type": "Feature", "properties": { "Name": "Baunti", "address": "ул. Горького, 207, Калининград, Россия", "longitude": 20.501279, "latitude": 54.743361 }, "geometry": { "type": "Point", "coordinates": [ 20.501279, 54.743361 ] } },
{ "type": "Feature", "properties": { "Name": "Финская одежда", "address": "Пролетарская ул., 33, Калининград, Россия", "longitude": 20.513013, "latitude": 54.714241 }, "geometry": { "type": "Point", "coordinates": [ 20.513013, 54.714241 ] } },
{ "type": "Feature", "properties": { "Name": "Tom Tailor", "address": "Театральная ул., 30, Калининград, Россия", "longitude": 20.499806, "latitude": 54.717702 }, "geometry": { "type": "Point", "coordinates": [ 20.499806, 54.717702 ] } },
{ "type": "Feature", "properties": { "Name": "Antony Morato", "address": "Гвардейский просп., 3, Калининград, Россия", "longitude": 20.498975, "latitude": 54.718395 }, "geometry": { "type": "Point", "coordinates": [ 20.498975, 54.718395 ] } },
{ "type": "Feature", "properties": { "Name": "Unq", "address": "Театральная ул., 30, Калининград, Россия", "longitude": 20.499361, "latitude": 54.718067 }, "geometry": { "type": "Point", "coordinates": [ 20.499361, 54.718067 ] } },
{ "type": "Feature", "properties": { "Name": "Успех", "address": "площадь Победы, 10, Калининград, Россия", "longitude": 20.504261, "latitude": 54.720069 }, "geometry": { "type": "Point", "coordinates": [ 20.504261, 54.720069 ] } },
{ "type": "Feature", "properties": { "Name": "Olsen", "address": "Гвардейский просп., 3, Калининград, Россия", "longitude": 20.499056, "latitude": 54.718394 }, "geometry": { "type": "Point", "coordinates": [ 20.499056, 54.718394 ] } },
{ "type": "Feature", "properties": { "Name": "Вот это да!", "address": "ул. Горького, 104, Калининград, Россия", "longitude": 20.509512, "latitude": 54.735377 }, "geometry": { "type": "Point", "coordinates": [ 20.509512, 54.735377 ] } },
{ "type": "Feature", "properties": { "Name": "Calvin Klein Jeans", "address": "Театральная ул., 30, Калининград, Россия", "longitude": 20.500043, "latitude": 54.71849 }, "geometry": { "type": "Point", "coordinates": [ 20.500043, 54.71849 ] } },
{ "type": "Feature", "properties": { "Name": "Супер Цены", "address": "ул. Генерала Челнокова, 11, лит.Ж, Калининград, Россия", "longitude": 20.486161, "latitude": 54.738051 }, "geometry": { "type": "Point", "coordinates": [ 20.486161, 54.738051 ] } },
{ "type": "Feature", "properties": { "Name": "Motor", "address": "ул. Карла Маркса, 46, Калининград, Россия", "longitude": 20.475295, "latitude": 54.726749 }, "geometry": { "type": "Point", "coordinates": [ 20.475295, 54.726749 ] } },
{ "type": "Feature", "properties": { "Name": "Glenfield", "address": "Ленинский просп., 30, Калининград, Россия", "longitude": 20.50819, "latitude": 54.711252 }, "geometry": { "type": "Point", "coordinates": [ 20.50819, 54.711252 ] } },
{ "type": "Feature", "properties": { "Name": "Estilo", "address": "Пролетарская ул., 39, Калининград, Россия", "longitude": 20.512803, "latitude": 54.715217 }, "geometry": { "type": "Point", "coordinates": [ 20.512803, 54.715217 ] } },
{ "type": "Feature", "properties": { "Name": "Maag", "address": "Театральная ул., 30, Калининград, Россия", "longitude": 20.499441, "latitude": 54.717875 }, "geometry": { "type": "Point", "coordinates": [ 20.499441, 54.717875 ] } },
{ "type": "Feature", "properties": { "Name": "Силуэт", "address": "площадь Победы, 4А, Калининград, Россия", "longitude": 20.501108, "latitude": 54.721007 }, "geometry": { "type": "Point", "coordinates": [ 20.501108, 54.721007 ] } },
{ "type": "Feature", "properties": { "Name": "Паризьен", "address": "ул. Багратиона, 113, Калининград, Россия", "longitude": 20.499258, "latitude": 54.698195 }, "geometry": { "type": "Point", "coordinates": [ 20.499258, 54.698195 ] } },
{ "type": "Feature", "properties": { "Name": "Магазин одежды", "address": "Судостроительная ул., 31А, Калининград, Россия", "longitude": 20.498226, "latitude": 54.680994 }, "geometry": { "type": "Point", "coordinates": [ 20.498226, 54.680994 ] } },
{ "type": "Feature", "properties": { "Name": "Вселенная", "address": "Интернациональная ул., 55, Калининград, Россия", "longitude": 20.507504, "latitude": 54.669762 }, "geometry": { "type": "Point", "coordinates": [ 20.507504, 54.669762 ] } },
{ "type": "Feature", "properties": { "Name": "Sisley", "address": "Ленинский просп., 30, Калининград, Россия", "longitude": 20.508564, "latitude": 54.711356 }, "geometry": { "type": "Point", "coordinates": [ 20.508564, 54.711356 ] } },
{ "type": "Feature", "properties": { "Name": "FINN FLARE", "address": "Театральная ул., 30, Калининград, Россия", "longitude": 20.500434, "latitude": 54.718289 }, "geometry": { "type": "Point", "coordinates": [ 20.500434, 54.718289 ] } },
{ "type": "Feature", "properties": { "Name": "Blend", "address": "Театральная ул., 30, Калининград, Россия", "longitude": 20.49968, "latitude": 54.717755 }, "geometry": { "type": "Point", "coordinates": [ 20.49968, 54.717755 ] } },
{ "type": "Feature", "properties": { "Name": "Roy Robson", "address": "Гвардейский просп., 3, Калининград, Россия", "longitude": 20.499207, "latitude": 54.71877 }, "geometry": { "type": "Point", "coordinates": [ 20.499207, 54.71877 ] } },
{ "type": "Feature", "properties": { "Name": "Dub", "address": "Театральная ул., 30, Калининград, Россия", "longitude": 20.499711, "latitude": 54.71773 }, "geometry": { "type": "Point", "coordinates": [ 20.499711, 54.71773 ] } },
{ "type": "Feature", "properties": { "Name": "Dynasty", "address": "ул. Профессора Баранова, 34, Калининград, Россия", "longitude": 20.506494, "latitude": 54.72104 }, "geometry": { "type": "Point", "coordinates": [ 20.506494, 54.72104 ] } },
{ "type": "Feature", "properties": { "Name": "Vilet", "address": "Театральная ул., 30, Калининград, Россия", "longitude": 20.499538, "latitude": 54.717804 }, "geometry": { "type": "Point", "coordinates": [ 20.499538, 54.717804 ] } },
{ "type": "Feature", "properties": { "Name": "sela moms & monsters", "address": "ул. Мусоргского, 10А, Калининград, Россия", "longitude": 20.502316, "latitude": 54.72604 }, "geometry": { "type": "Point", "coordinates": [ 20.502316, 54.72604 ] } },
{ "type": "Feature", "properties": { "Name": "Bronx", "address": "ул. Профессора Баранова, 43, Калининград, Россия", "longitude": 20.507205, "latitude": 54.720478 }, "geometry": { "type": "Point", "coordinates": [ 20.507205, 54.720478 ] } },
{ "type": "Feature", "properties": { "Name": "Аква", "address": "ул. Генерал-Лейтенанта Озерова, 26, Калининград, Россия", "longitude": 20.508488, "latitude": 54.724484 }, "geometry": { "type": "Point", "coordinates": [ 20.508488, 54.724484 ] } },
{ "type": "Feature", "properties": { "Name": "Люнель", "address": "просп. Победы, 2, Калининград, Россия", "longitude": 20.473698, "latitude": 54.719391 }, "geometry": { "type": "Point", "coordinates": [ 20.473698, 54.719391 ] } },
{ "type": "Feature", "properties": { "Name": "Браво", "address": "просп. Мира, 72А, Калининград, Россия", "longitude": 20.480075, "latitude": 54.720892 }, "geometry": { "type": "Point", "coordinates": [ 20.480075, 54.720892 ] } },
{ "type": "Feature", "properties": { "Name": "Daisyknit", "address": "Каменная ул., 19, Калининград, Россия", "longitude": 20.467754, "latitude": 54.72451 }, "geometry": { "type": "Point", "coordinates": [ 20.467754, 54.72451 ] } },
{ "type": "Feature", "properties": { "Name": "Oops!", "address": "ул. Карташева, 48, Калининград, Россия", "longitude": 20.369362, "latitude": 54.722654 }, "geometry": { "type": "Point", "coordinates": [ 20.369362, 54.722654 ] } },
{ "type": "Feature", "properties": { "Name": "ЭкономиЯ", "address": "Коммунистическая ул., 56А, Калининград, Россия", "longitude": 20.482146, "latitude": 54.671543 }, "geometry": { "type": "Point", "coordinates": [ 20.482146, 54.671543 ] } },
{ "type": "Feature", "properties": { "Name": "Snowimage", "address": "Театральная ул., 30, Калининград, Россия", "longitude": 20.500344, "latitude": 54.718245 }, "geometry": { "type": "Point", "coordinates": [ 20.500344, 54.718245 ] } },
{ "type": "Feature", "properties": { "Name": "Юнона", "address": "Театральная ул., 36Б, Калининград, Россия", "longitude": 20.495463, "latitude": 54.718664 }, "geometry": { "type": "Point", "coordinates": [ 20.495463, 54.718664 ] } },
{ "type": "Feature", "properties": { "Name": "Сарафан", "address": "ул. Юрия Гагарина, 16В, Калининград, Россия", "longitude": 20.543736, "latitude": 54.719316 }, "geometry": { "type": "Point", "coordinates": [ 20.543736, 54.719316 ] } },
{ "type": "Feature", "properties": { "Name": "Паула дисконт", "address": "Гвардейский просп., 15, Калининград, Россия", "longitude": 20.496298, "latitude": 54.717198 }, "geometry": { "type": "Point", "coordinates": [ 20.496298, 54.717198 ] } },
{ "type": "Feature", "properties": { "Name": "Дисконт классик", "address": "ул. Генерала Соммера, 35, Калининград, Россия", "longitude": 20.512166, "latitude": 54.716912 }, "geometry": { "type": "Point", "coordinates": [ 20.512166, 54.716912 ] } },
{ "type": "Feature", "properties": { "Name": "City Shopper", "address": "ул. Профессора Баранова, 34, Калининград, Россия", "longitude": 20.505949, "latitude": 54.721062 }, "geometry": { "type": "Point", "coordinates": [ 20.505949, 54.721062 ] } },
{ "type": "Feature", "properties": { "Name": "Сток", "address": "ул. 9 Апреля, 1, Калининград, Россия", "longitude": 20.520865, "latitude": 54.713241 }, "geometry": { "type": "Point", "coordinates": [ 20.520865, 54.713241 ] } },
{ "type": "Feature", "properties": { "Name": "Poza", "address": "просп. Мира, 88А, Калининград, Россия", "longitude": 20.473465, "latitude": 54.721016 }, "geometry": { "type": "Point", "coordinates": [ 20.473465, 54.721016 ] } },
{ "type": "Feature", "properties": { "Name": "Одевайся свободно", "address": "ул. Александра Невского, 35, Калининград, Россия", "longitude": 20.528, "latitude": 54.727884 }, "geometry": { "type": "Point", "coordinates": [ 20.528, 54.727884 ] } },
{ "type": "Feature", "properties": { "Name": "Epifan", "address": "Московский просп., 40, Калининград, Россия", "longitude": 20.502697, "latitude": 54.709175 }, "geometry": { "type": "Point", "coordinates": [ 20.502697, 54.709175 ] } },
{ "type": "Feature", "properties": { "Name": "Галант", "address": "Пролетарская ул., 11, Калининград, Россия", "longitude": 20.512717, "latitude": 54.712581 }, "geometry": { "type": "Point", "coordinates": [ 20.512717, 54.712581 ] } },
{ "type": "Feature", "properties": { "Name": "Mexx", "address": "Гвардейский просп., 3, Калининград, Россия", "longitude": 20.499651, "latitude": 54.718482 }, "geometry": { "type": "Point", "coordinates": [ 20.499651, 54.718482 ] } },
{ "type": "Feature", "properties": { "Name": "Yfs", "address": "ул. Черняховского, 68, Калининград, Россия", "longitude": 20.515013, "latitude": 54.720324 }, "geometry": { "type": "Point", "coordinates": [ 20.515013, 54.720324 ] } },
{ "type": "Feature", "properties": { "Name": "Дефиле", "address": "Ленинский просп., 30, Калининград, Россия", "longitude": 20.508399, "latitude": 54.711063 }, "geometry": { "type": "Point", "coordinates": [ 20.508399, 54.711063 ] } },
{ "type": "Feature", "properties": { "Name": "Invidia", "address": "площадь Победы, 10, Калининград, Россия", "longitude": 20.5036, "latitude": 54.719822 }, "geometry": { "type": "Point", "coordinates": [ 20.5036, 54.719822 ] } },
{ "type": "Feature", "properties": { "Name": "Supply", "address": "Ленинский просп., 30, Калининград, Россия", "longitude": 20.50856, "latitude": 54.711288 }, "geometry": { "type": "Point", "coordinates": [ 20.50856, 54.711288 ] } },
{ "type": "Feature", "properties": { "Name": "Магазин одежды", "address": "просп. Мира, 63, Калининград, Россия", "longitude": 20.473105, "latitude": 54.720646 }, "geometry": { "type": "Point", "coordinates": [ 20.473105, 54.720646 ] } },
{ "type": "Feature", "properties": { "Name": "Находка", "address": "ул. Багратиона, 66, Калининград, Россия", "longitude": 20.507786, "latitude": 54.699434 }, "geometry": { "type": "Point", "coordinates": [ 20.507786, 54.699434 ] } },
{ "type": "Feature", "properties": { "Name": "Brax", "address": "Театральная ул., 30, Калининград, Россия", "longitude": 20.500156, "latitude": 54.718229 }, "geometry": { "type": "Point", "coordinates": [ 20.500156, 54.718229 ] } },
{ "type": "Feature", "properties": { "Name": "OL_showroom", "address": "ул. Черняховского, 6А, Калининград, Россия", "longitude": 20.503644, "latitude": 54.718962 }, "geometry": { "type": "Point", "coordinates": [ 20.503644, 54.718962 ] } },
{ "type": "Feature", "properties": { "Name": "Привет пакет", "address": "Красносельская ул., 57, Калининград, Россия", "longitude": 20.442811, "latitude": 54.715236 }, "geometry": { "type": "Point", "coordinates": [ 20.442811, 54.715236 ] } },
{ "type": "Feature", "properties": { "Name": "Моя вселенная", "address": "Полоцкая ул., 45, Калининград, Россия", "longitude": 20.498188, "latitude": 54.703227 }, "geometry": { "type": "Point", "coordinates": [ 20.498188, 54.703227 ] } },
{ "type": "Feature", "properties": { "Name": "Oggo", "address": "ул. Профессора Баранова, 34, Калининград, Россия", "longitude": 20.506063, "latitude": 54.721207 }, "geometry": { "type": "Point", "coordinates": [ 20.506063, 54.721207 ] } },
{ "type": "Feature", "properties": { "Name": "Sneaker Store", "address": "ул. Профессора Баранова, 40, Калининград, Россия", "longitude": 20.499145, "latitude": 54.718275 }, "geometry": { "type": "Point", "coordinates": [ 20.499145, 54.718275 ] } },
{ "type": "Feature", "properties": { "Name": "Стильный жук", "address": "ул. Горького, 170, Калининград, Россия", "longitude": 20.502924, "latitude": 54.749059 }, "geometry": { "type": "Point", "coordinates": [ 20.502924, 54.749059 ] } },
{ "type": "Feature", "properties": { "Name": "Эконом+", "address": "ул. Черняховского, 15лит1, Калининград, Россия", "longitude": 20.507996, "latitude": 54.720602 }, "geometry": { "type": "Point", "coordinates": [ 20.507996, 54.720602 ] } },
{ "type": "Feature", "properties": { "Name": "Proforma", "address": "площадь Калинина, 28, Калининград, Россия", "longitude": 20.502346, "latitude": 54.694625 }, "geometry": { "type": "Point", "coordinates": [ 20.502346, 54.694625 ] } },
{ "type": "Feature", "properties": { "Name": "Kos", "address": "Театральная ул., 21, Калининград, Россия", "longitude": 20.500466, "latitude": 54.716607 }, "geometry": { "type": "Point", "coordinates": [ 20.500466, 54.716607 ] } },
{ "type": "Feature", "properties": { "Name": "Брэнд", "address": "просп. Мира, 92, Калининград, Россия", "longitude": 20.472199, "latitude": 54.721288 }, "geometry": { "type": "Point", "coordinates": [ 20.472199, 54.721288 ] } },
{ "type": "Feature", "properties": { "Name": "Fabiani", "address": "Театральная ул., 30, Калининград, Россия", "longitude": 20.499819, "latitude": 54.718397 }, "geometry": { "type": "Point", "coordinates": [ 20.499819, 54.718397 ] } },
{ "type": "Feature", "properties": { "Name": "Fashion", "address": "Московский просп., 40, Калининград, Россия", "longitude": 20.502349, "latitude": 54.709343 }, "geometry": { "type": "Point", "coordinates": [ 20.502349, 54.709343 ] } },
{ "type": "Feature", "properties": { "Name": "Sobranie", "address": "Московский просп., 40, Калининград, Россия", "longitude": 20.502781, "latitude": 54.709504 }, "geometry": { "type": "Point", "coordinates": [ 20.502781, 54.709504 ] } },
{ "type": "Feature", "properties": { "Name": "Баунти", "address": "просп. Мира, 128, Калининград, Россия", "longitude": 20.462173, "latitude": 54.722886 }, "geometry": { "type": "Point", "coordinates": [ 20.462173, 54.722886 ] } },
{ "type": "Feature", "properties": { "Name": "Хорошенький магазинчик", "address": "Полоцкая ул., 45С, Калининград, Россия", "longitude": 20.498034, "latitude": 54.70106 }, "geometry": { "type": "Point", "coordinates": [ 20.498034, 54.70106 ] } },
{ "type": "Feature", "properties": { "Name": "Rich&Royal", "address": "площадь Победы, 10, Калининград, Россия", "longitude": 20.503934, "latitude": 54.719946 }, "geometry": { "type": "Point", "coordinates": [ 20.503934, 54.719946 ] } },
{ "type": "Feature", "properties": { "Name": "Канзас", "address": "ул. Багратиона, 66, Калининград, Россия", "longitude": 20.50817, "latitude": 54.699451 }, "geometry": { "type": "Point", "coordinates": [ 20.50817, 54.699451 ] } },
{ "type": "Feature", "properties": { "Name": "Green step", "address": "ул. Профессора Баранова, 1, Калининград, Россия", "longitude": 20.513485, "latitude": 54.721093 }, "geometry": { "type": "Point", "coordinates": [ 20.513485, 54.721093 ] } },
{ "type": "Feature", "properties": { "Name": "Магазин одежды", "address": "ул. Фрунзе, 15А, Калининград, Россия", "longitude": 20.521455, "latitude": 54.712827 }, "geometry": { "type": "Point", "coordinates": [ 20.521455, 54.712827 ] } },
{ "type": "Feature", "properties": { "Name": "Elementi", "address": "ул. Сергеева, 2, Калининград, Россия", "longitude": 20.51475, "latitude": 54.714557 }, "geometry": { "type": "Point", "coordinates": [ 20.51475, 54.714557 ] } },
{ "type": "Feature", "properties": { "Name": "Milano", "address": "ул. Гайдара, 120, Калининград, Россия", "longitude": 20.504342, "latitude": 54.743166 }, "geometry": { "type": "Point", "coordinates": [ 20.504342, 54.743166 ] } },
{ "type": "Feature", "properties": { "Name": "Highway", "address": "просп. Мира, 84, Калининград, Россия", "longitude": 20.475611, "latitude": 54.720645 }, "geometry": { "type": "Point", "coordinates": [ 20.475611, 54.720645 ] } },
{ "type": "Feature", "properties": { "Name": "Good Mood", "address": "ул. Подполковника Иванникова, 9, Калининград, Россия", "longitude": 20.505276, "latitude": 54.718982 }, "geometry": { "type": "Point", "coordinates": [ 20.505276, 54.718982 ] } },
{ "type": "Feature", "properties": { "Name": "DreamWhite", "address": "ул. Генерал-Лейтенанта Озерова, 17Б, Калининград, Россия", "longitude": 20.501993, "latitude": 54.725991 }, "geometry": { "type": "Point", "coordinates": [ 20.501993, 54.725991 ] } },
{ "type": "Feature", "properties": { "Name": "Лисий Хвост", "address": "Московский просп., 257, Калининград, Россия", "longitude": 20.580957, "latitude": 54.708008 }, "geometry": { "type": "Point", "coordinates": [ 20.580957, 54.708008 ] } },
{ "type": "Feature", "properties": { "Name": "StockHouse", "address": "Стрелецкая ул., 21В, Калининград, Россия", "longitude": 20.545274, "latitude": 54.719284 }, "geometry": { "type": "Point", "coordinates": [ 20.545274, 54.719284 ] } },
{ "type": "Feature", "properties": { "Name": "Кигуруми", "address": "ул. Юрия Гагарина, 99, Калининград, Россия", "longitude": 20.549656, "latitude": 54.725013 }, "geometry": { "type": "Point", "coordinates": [ 20.549656, 54.725013 ] } },
{ "type": "Feature", "properties": { "Name": "1St", "address": "просп. Мира, 56, Калининград, Россия", "longitude": 20.483292, "latitude": 54.721144 }, "geometry": { "type": "Point", "coordinates": [ 20.483292, 54.721144 ] } },
{ "type": "Feature", "properties": { "Name": "Redcrown", "address": "площадь Победы, 10, Калининград, Россия", "longitude": 20.503762, "latitude": 54.719769 }, "geometry": { "type": "Point", "coordinates": [ 20.503762, 54.719769 ] } },
{ "type": "Feature", "properties": { "Name": "Kartel Brand", "address": "просп. Мира, 124, Калининград, Россия", "longitude": 20.463997, "latitude": 54.722815 }, "geometry": { "type": "Point", "coordinates": [ 20.463997, 54.722815 ] } },
{ "type": "Feature", "properties": { "Name": "EuroBrand", "address": "Ленинский просп., 58, Калининград, Россия", "longitude": 20.50354, "latitude": 54.700969 }, "geometry": { "type": "Point", "coordinates": [ 20.50354, 54.700969 ] } },
{ "type": "Feature", "properties": { "Name": "Origami", "address": "ул. Черняховского, 80, Калининград, Россия", "longitude": 20.522611, "latitude": 54.721017 }, "geometry": { "type": "Point", "coordinates": [ 20.522611, 54.721017 ] } },
{ "type": "Feature", "properties": { "Name": "Guess", "address": "ул. Профессора Баранова, 40, Калининград, Россия", "longitude": 20.498687, "latitude": 54.718565 }, "geometry": { "type": "Point", "coordinates": [ 20.498687, 54.718565 ] } },
{ "type": "Feature", "properties": { "Name": "Аутлет", "address": "просп. Мира, 86, Калининград, Россия", "longitude": 20.474115, "latitude": 54.720882 }, "geometry": { "type": "Point", "coordinates": [ 20.474115, 54.720882 ] } },
{ "type": "Feature", "properties": { "Name": "Stylistics", "address": "ул. 9 Апреля, 1, Калининград, Россия", "longitude": 20.520322, "latitude": 54.713315 }, "geometry": { "type": "Point", "coordinates": [ 20.520322, 54.713315 ] } },
{ "type": "Feature", "properties": { "Name": "Незнакомка", "address": "ул. Генерала Соммера, 4, Калининград, Россия", "longitude": 20.504912, "latitude": 54.715244 }, "geometry": { "type": "Point", "coordinates": [ 20.504912, 54.715244 ] } },
{ "type": "Feature", "properties": { "Name": "Celebrate life", "address": "Пролетарская ул., 9, Калининград, Россия", "longitude": 20.512613, "latitude": 54.712366 }, "geometry": { "type": "Point", "coordinates": [ 20.512613, 54.712366 ] } },
{ "type": "Feature", "properties": { "Name": "Эсквайр", "address": "Ленинский просп., 56, Калининград, Россия", "longitude": 20.503642, "latitude": 54.701152 }, "geometry": { "type": "Point", "coordinates": [ 20.503642, 54.701152 ] } },
{ "type": "Feature", "properties": { "Name": "Konig street", "address": "Уральская ул., 3, Калининград, Россия", "longitude": 20.498819, "latitude": 54.724327 }, "geometry": { "type": "Point", "coordinates": [ 20.498819, 54.724327 ] } },
{ "type": "Feature", "properties": { "Name": "Ямайка", "address": "ул. 9 Апреля, 1, Калининград, Россия", "longitude": 20.521444, "latitude": 54.713281 }, "geometry": { "type": "Point", "coordinates": [ 20.521444, 54.713281 ] } },
{ "type": "Feature", "properties": { "Name": "Re: Clothes", "address": "Гаражная ул., 2А, Калининград, Россия", "longitude": 20.504661, "latitude": 54.724074 }, "geometry": { "type": "Point", "coordinates": [ 20.504661, 54.724074 ] } },
{ "type": "Feature", "properties": { "Name": "Parisienne", "address": "1-й Октябрьский пр., 6, Калининград, Россия", "longitude": 20.480787, "latitude": 54.7203 }, "geometry": { "type": "Point", "coordinates": [ 20.480787, 54.7203 ] } },
{ "type": "Feature", "properties": { "Name": "Bugatti", "address": "Гвардейский просп., 3, Калининград, Россия", "longitude": 20.498836, "latitude": 54.718512 }, "geometry": { "type": "Point", "coordinates": [ 20.498836, 54.718512 ] } },
{ "type": "Feature", "properties": { "Name": "Amilo", "address": "ул. Петра Панина, 1, Ленинградский район, микрорайон Сельма, Калининград, Россия", "longitude": 20.500213, "latitude": 54.746705 }, "geometry": { "type": "Point", "coordinates": [ 20.500213, 54.746705 ] } },
{ "type": "Feature", "properties": { "Name": "Excellent Lady", "address": "ул. Юрия Гагарина, 11, Калининград, Россия", "longitude": 20.53947, "latitude": 54.716412 }, "geometry": { "type": "Point", "coordinates": [ 20.53947, 54.716412 ] } },
{ "type": "Feature", "properties": { "Name": "Street style", "address": "ул. Юрия Гагарина, 16В, Калининград, Россия", "longitude": 20.543748, "latitude": 54.719358 }, "geometry": { "type": "Point", "coordinates": [ 20.543748, 54.719358 ] } },
{ "type": "Feature", "properties": { "Name": "Бомонд", "address": "просп. Мира, 20, Калининград, Россия", "longitude": 20.489465, "latitude": 54.719989 }, "geometry": { "type": "Point", "coordinates": [ 20.489465, 54.719989 ] } },
{ "type": "Feature", "properties": { "Name": "Ok Stock", "address": "ул. Аксакова, 133, Калининград, Россия", "longitude": 20.584627, "latitude": 54.711602 }, "geometry": { "type": "Point", "coordinates": [ 20.584627, 54.711602 ] } },
{ "type": "Feature", "properties": { "Name": "Pronto Moda", "address": "просп. Мира, 84, Калининград, Россия", "longitude": 20.475311, "latitude": 54.720603 }, "geometry": { "type": "Point", "coordinates": [ 20.475311, 54.720603 ] } },
{ "type": "Feature", "properties": { "Name": "Van Cliff", "address": "Театральная ул., 30, Калининград, Россия", "longitude": 20.499915, "latitude": 54.718439 }, "geometry": { "type": "Point", "coordinates": [ 20.499915, 54.718439 ] } },
{ "type": "Feature", "properties": { "Name": "Patrizia Pepe", "address": "площадь Победы, 10, Калининград, Россия", "longitude": 20.504042, "latitude": 54.71999 }, "geometry": { "type": "Point", "coordinates": [ 20.504042, 54.71999 ] } },
{ "type": "Feature", "properties": { "Name": "Сток", "address": "ул. Горького, 107, Калининград, Россия", "longitude": 20.508305, "latitude": 54.73549 }, "geometry": { "type": "Point", "coordinates": [ 20.508305, 54.73549 ] } },
{ "type": "Feature", "properties": { "Name": "Royal Spirit", "address": "площадь Победы, 10, Калининград, Россия", "longitude": 20.503642, "latitude": 54.719596 }, "geometry": { "type": "Point", "coordinates": [ 20.503642, 54.719596 ] } },
{ "type": "Feature", "properties": { "Name": "Антей", "address": "Советский просп., 34, Калининград, Россия", "longitude": 20.496824, "latitude": 54.72548 }, "geometry": { "type": "Point", "coordinates": [ 20.496824, 54.72548 ] } },
{ "type": "Feature", "properties": { "Name": "sela moms & monsters", "address": "ул. Генерала Челнокова, 11, Калининград, Россия", "longitude": 20.487233, "latitude": 54.737533 }, "geometry": { "type": "Point", "coordinates": [ 20.487233, 54.737533 ] } },
{ "type": "Feature", "properties": { "Name": "Karl Lagerfeld", "address": "Театральная ул., 30, Калининград, Россия", "longitude": 20.500859, "latitude": 54.717925 }, "geometry": { "type": "Point", "coordinates": [ 20.500859, 54.717925 ] } },
{ "type": "Feature", "properties": { "Name": "Monroe", "address": "просп. Мира, 84, Калининград, Россия", "longitude": 20.475274, "latitude": 54.720623 }, "geometry": { "type": "Point", "coordinates": [ 20.475274, 54.720623 ] } },
{ "type": "Feature", "properties": { "Name": "Либерал", "address": "ул. Профессора Баранова, 34, Калининград, Россия", "longitude": 20.506405, "latitude": 54.720918 }, "geometry": { "type": "Point", "coordinates": [ 20.506405, 54.720918 ] } },
{ "type": "Feature", "properties": { "Name": "Danke-shop", "address": "Житомирская ул., 20, Калининград, Россия", "longitude": 20.506677, "latitude": 54.710789 }, "geometry": { "type": "Point", "coordinates": [ 20.506677, 54.710789 ] } },
{ "type": "Feature", "properties": { "Name": "Fashion Club", "address": "просп. Мира, 89, Калининград, Россия", "longitude": 20.463332, "latitude": 54.722437 }, "geometry": { "type": "Point", "coordinates": [ 20.463332, 54.722437 ] } },
{ "type": "Feature", "properties": { "Name": "Colibri", "address": "ул. Генерала Галицкого, 5, Калининград, Россия", "longitude": 20.499169, "latitude": 54.715732 }, "geometry": { "type": "Point", "coordinates": [ 20.499169, 54.715732 ] } },
{ "type": "Feature", "properties": { "Name": "BSTFactory", "address": "Театральная ул., 30, Калининград, Россия", "longitude": 20.500661, "latitude": 54.718287 }, "geometry": { "type": "Point", "coordinates": [ 20.500661, 54.718287 ] } },
{ "type": "Feature", "properties": { "Name": "Привет пакет", "address": "Зелёная ул., 76, Калининград, Россия", "longitude": 20.503183, "latitude": 54.739242 }, "geometry": { "type": "Point", "coordinates": [ 20.503183, 54.739242 ] } },
{ "type": "Feature", "properties": { "Name": "Zarina", "address": "ул. Генерал-Лейтенанта Озерова, 17Б, Калининград, Россия", "longitude": 20.502117, "latitude": 54.725624 }, "geometry": { "type": "Point", "coordinates": [ 20.502117, 54.725624 ] } },
{ "type": "Feature", "properties": { "Name": "Статус", "address": "ул. Профессора Баранова, 1, Калининград, Россия", "longitude": 20.513838, "latitude": 54.721128 }, "geometry": { "type": "Point", "coordinates": [ 20.513838, 54.721128 ] } },
{ "type": "Feature", "properties": { "Name": "Freeman", "address": "Советский просп., 159, Калининград, Россия", "longitude": 20.466092, "latitude": 54.743034 }, "geometry": { "type": "Point", "coordinates": [ 20.466092, 54.743034 ] } },
{ "type": "Feature", "properties": { "Name": "Экшн", "address": "просп. Мира, 54, Калининград, Россия", "longitude": 20.483386, "latitude": 54.72111 }, "geometry": { "type": "Point", "coordinates": [ 20.483386, 54.72111 ] } },
{ "type": "Feature", "properties": { "Name": "Tess", "address": "Театральная ул., 21, Калининград, Россия", "longitude": 20.500244, "latitude": 54.716356 }, "geometry": { "type": "Point", "coordinates": [ 20.500244, 54.716356 ] } },
{ "type": "Feature", "properties": { "Name": "SneakerBox", "address": "Гвардейский просп., 3, Калининград, Россия", "longitude": 20.498845, "latitude": 54.718423 }, "geometry": { "type": "Point", "coordinates": [ 20.498845, 54.718423 ] } },
{ "type": "Feature", "properties": { "Name": "Arbiatti", "address": "ул. Горького, 2, Калининград, Россия", "longitude": 20.508609, "latitude": 54.72167 }, "geometry": { "type": "Point", "coordinates": [ 20.508609, 54.72167 ] } },
{ "type": "Feature", "properties": { "Name": "Ква Ква", "address": "ул. Фрунзе, 15А, Калининград, Россия", "longitude": 20.5215, "latitude": 54.712841 }, "geometry": { "type": "Point", "coordinates": [ 20.5215, 54.712841 ] } },
{ "type": "Feature", "properties": { "Name": "Мода центр Сити", "address": "Театральная ул., 35, Калининград, Россия", "longitude": 20.496919, "latitude": 54.71763 }, "geometry": { "type": "Point", "coordinates": [ 20.496919, 54.71763 ] } },
{ "type": "Feature", "properties": { "Name": "Магазин женской одежды", "address": "Киевская ул., 99, Калининград, Россия", "longitude": 20.474458, "latitude": 54.681088 }, "geometry": { "type": "Point", "coordinates": [ 20.474458, 54.681088 ] } },
{ "type": "Feature", "properties": { "Name": "Imperial", "address": "Театральная ул., 30, Калининград, Россия", "longitude": 20.500004, "latitude": 54.718135 }, "geometry": { "type": "Point", "coordinates": [ 20.500004, 54.718135 ] } },
{ "type": "Feature", "properties": { "Name": "Семейный трикотаж", "address": "ул. Космонавта Леонова, 58Б, Калининград, Россия", "longitude": 20.481599, "latitude": 54.732448 }, "geometry": { "type": "Point", "coordinates": [ 20.481599, 54.732448 ] } },
{ "type": "Feature", "properties": { "Name": "Кредо", "address": "Пролетарская ул., 55Б, Калининград, Россия", "longitude": 20.512648, "latitude": 54.717261 }, "geometry": { "type": "Point", "coordinates": [ 20.512648, 54.717261 ] } },
{ "type": "Feature", "properties": { "Name": "Обновка", "address": "ул. Александра Невского, 46, Калининград, Россия", "longitude": 20.53022, "latitude": 54.729675 }, "geometry": { "type": "Point", "coordinates": [ 20.53022, 54.729675 ] } },
{ "type": "Feature", "properties": { "Name": "Лимпопо", "address": "ул. Черняховского, 15, лит.Б, Калининград, Россия", "longitude": 20.511177, "latitude": 54.720529 }, "geometry": { "type": "Point", "coordinates": [ 20.511177, 54.720529 ] } },
{ "type": "Feature", "properties": { "Name": "Трикотаж", "address": "Барнаульская ул., 2, Калининград, Россия", "longitude": 20.502183, "latitude": 54.71471 }, "geometry": { "type": "Point", "coordinates": [ 20.502183, 54.71471 ] } },
{ "type": "Feature", "properties": { "Name": "Carlo Potti", "address": "площадь Калинина, 28, Калининград, Россия", "longitude": 20.502234, "latitude": 54.694698 }, "geometry": { "type": "Point", "coordinates": [ 20.502234, 54.694698 ] } },
{ "type": "Feature", "properties": { "Name": "Барахолка Гав", "address": "просп. Победы, 42, Калининград, Россия", "longitude": 20.457376, "latitude": 54.714507 }, "geometry": { "type": "Point", "coordinates": [ 20.457376, 54.714507 ] } },
{ "type": "Feature", "properties": { "Name": "Egoiste", "address": "Московский просп., 257, Калининград, Россия", "longitude": 20.581133, "latitude": 54.708055 }, "geometry": { "type": "Point", "coordinates": [ 20.581133, 54.708055 ] } },
{ "type": "Feature", "properties": { "Name": "Defile", "address": "Театральная ул., 35, Калининград, Россия", "longitude": 20.496911, "latitude": 54.717509 }, "geometry": { "type": "Point", "coordinates": [ 20.496911, 54.717509 ] } },
{ "type": "Feature", "properties": { "Name": "Arhiv-resale", "address": "Ленинский просп., 3, Калининград, Россия", "longitude": 20.502349, "latitude": 54.718192 }, "geometry": { "type": "Point", "coordinates": [ 20.502349, 54.718192 ] } },
{ "type": "Feature", "properties": { "Name": "Магазин одежды", "address": "Полоцкая ул., 45С, Калининград, Россия", "longitude": 20.498647, "latitude": 54.703286 }, "geometry": { "type": "Point", "coordinates": [ 20.498647, 54.703286 ] } },
{ "type": "Feature", "properties": { "Name": "Миф", "address": "ул. Багратиона, 66, Калининград, Россия", "longitude": 20.508726, "latitude": 54.699476 }, "geometry": { "type": "Point", "coordinates": [ 20.508726, 54.699476 ] } },
{ "type": "Feature", "properties": { "Name": "Привет пакет", "address": "Полоцкая ул., 45, Калининград, Россия", "longitude": 20.498285, "latitude": 54.703068 }, "geometry": { "type": "Point", "coordinates": [ 20.498285, 54.703068 ] } },
{ "type": "Feature", "properties": { "Name": "Старс Мода", "address": "ул. Профессора Баранова, 2, Калининград, Россия", "longitude": 20.513401, "latitude": 54.722062 }, "geometry": { "type": "Point", "coordinates": [ 20.513401, 54.722062 ] } },
{ "type": "Feature", "properties": { "Name": "Магазин одежды", "address": "Алданская ул., 15, Калининград, Россия", "longitude": 20.353576, "latitude": 54.725727 }, "geometry": { "type": "Point", "coordinates": [ 20.353576, 54.725727 ] } },
{ "type": "Feature", "properties": { "Name": "Магазин одежды", "address": "Московский просп., 133А, Калининград, Россия", "longitude": 20.531046, "latitude": 54.710177 }, "geometry": { "type": "Point", "coordinates": [ 20.531046, 54.710177 ] } },
{ "type": "Feature", "properties": { "Name": "Дешевая одежда", "address": "Воскресенская ул., 6, микрорайон Прибрежный, Калининград, Россия", "longitude": 20.333426, "latitude": 54.649002 }, "geometry": { "type": "Point", "coordinates": [ 20.333426, 54.649002 ] } },
{ "type": "Feature", "properties": { "Name": "Dress Code", "address": "ул. Профессора Баранова, 34, Калининград, Россия", "longitude": 20.506563, "latitude": 54.72133 }, "geometry": { "type": "Point", "coordinates": [ 20.506563, 54.72133 ] } },
{ "type": "Feature", "properties": { "Name": "Moon Studio", "address": "ул. Мусоргского, 4, Калининград, Россия", "longitude": 20.49887, "latitude": 54.724961 }, "geometry": { "type": "Point", "coordinates": [ 20.49887, 54.724961 ] } },
{ "type": "Feature", "properties": { "Name": "Дельфин", "address": "ул. Аксакова, 104, Калининград, Россия", "longitude": 20.581687, "latitude": 54.710983 }, "geometry": { "type": "Point", "coordinates": [ 20.581687, 54.710983 ] } },
{ "type": "Feature", "properties": { "Name": "Swan", "address": "Московский просп., 40, Калининград, Россия", "longitude": 20.502787, "latitude": 54.709256 }, "geometry": { "type": "Point", "coordinates": [ 20.502787, 54.709256 ] } },
{ "type": "Feature", "properties": { "Name": "Универмаг № 1", "address": "Камская ул., 2Б, корп. 2, Калининград, Россия", "longitude": 20.45925, "latitude": 54.681939 }, "geometry": { "type": "Point", "coordinates": [ 20.45925, 54.681939 ] } },
{ "type": "Feature", "properties": { "Name": "Галка и Ворона", "address": "ул. Генерал-Лейтенанта Озерова, 6, Калининград, Россия", "longitude": 20.4983, "latitude": 54.725488 }, "geometry": { "type": "Point", "coordinates": [ 20.4983, 54.725488 ] } },
{ "type": "Feature", "properties": { "Name": "Магазин одежды", "address": "ул. Генерал-Лейтенанта Захарова, 2, Калининград, Россия", "longitude": 20.47172, "latitude": 54.73532 }, "geometry": { "type": "Point", "coordinates": [ 20.47172, 54.73532 ] } },
{ "type": "Feature", "properties": { "Name": "Best Style", "address": "ул. Согласия, 46, Калининград, Россия", "longitude": 20.486904, "latitude": 54.750881 }, "geometry": { "type": "Point", "coordinates": [ 20.486904, 54.750881 ] } },
{ "type": "Feature", "properties": { "Name": "МаксиМода", "address": "ул. Виктора Денисова, 16, корп. 2, Калининград, Россия", "longitude": 20.583044, "latitude": 54.713148 }, "geometry": { "type": "Point", "coordinates": [ 20.583044, 54.713148 ] } },
{ "type": "Feature", "properties": { "Name": "Zebra shop", "address": "Советский просп., 159, Калининград, Россия", "longitude": 20.465604, "latitude": 54.742978 }, "geometry": { "type": "Point", "coordinates": [ 20.465604, 54.742978 ] } },
{ "type": "Feature", "properties": { "Name": "Мотор", "address": "ул. Багратиона, 91А, Калининград, Россия", "longitude": 20.504756, "latitude": 54.698968 }, "geometry": { "type": "Point", "coordinates": [ 20.504756, 54.698968 ] } },
{ "type": "Feature", "properties": { "Name": "Привет пакет", "address": "Автомобильная ул., 18Г, Калининград, Россия", "longitude": 20.491751, "latitude": 54.674924 }, "geometry": { "type": "Point", "coordinates": [ 20.491751, 54.674924 ] } },
{ "type": "Feature", "properties": { "Name": "Ямайка", "address": "ул. Профессора Баранова, 41, Калининград, Россия", "longitude": 20.508454, "latitude": 54.720842 }, "geometry": { "type": "Point", "coordinates": [ 20.508454, 54.720842 ] } },
{ "type": "Feature", "properties": { "Name": "Купи мама", "address": "ул. Профессора Баранова, 30, Калининград, Россия", "longitude": 20.510035, "latitude": 54.721582 }, "geometry": { "type": "Point", "coordinates": [ 20.510035, 54.721582 ] } },
{ "type": "Feature", "properties": { "Name": "Maxi moda", "address": "ул. Куйбышева, 39, Калининград, Россия", "longitude": 20.533978, "latitude": 54.726601 }, "geometry": { "type": "Point", "coordinates": [ 20.533978, 54.726601 ] } },
{ "type": "Feature", "properties": { "Name": "Футболки", "address": "ул. Профессора Баранова, 30А, Калининград, Россия", "longitude": 20.50926, "latitude": 54.72125 }, "geometry": { "type": "Point", "coordinates": [ 20.50926, 54.72125 ] } },
{ "type": "Feature", "properties": { "Name": "Одежда мужская", "address": "Барнаульская ул., 2, лит.Б, Калининград, Россия", "longitude": 20.501774, "latitude": 54.714637 }, "geometry": { "type": "Point", "coordinates": [ 20.501774, 54.714637 ] } },
{ "type": "Feature", "properties": { "Name": "Детская одежда", "address": "Полоцкая ул., 45С, Калининград, Россия", "longitude": 20.49786, "latitude": 54.70116 }, "geometry": { "type": "Point", "coordinates": [ 20.49786, 54.70116 ] } },
{ "type": "Feature", "properties": { "Name": "Ква-Ква", "address": "ул. Черняховского, 15, лит.Б, Калининград, Россия", "longitude": 20.510459, "latitude": 54.720372 }, "geometry": { "type": "Point", "coordinates": [ 20.510459, 54.720372 ] } },
{ "type": "Feature", "properties": { "Name": "Felena", "address": "Барнаульская ул., 2, Калининград, Россия", "longitude": 20.502835, "latitude": 54.714488 }, "geometry": { "type": "Point", "coordinates": [ 20.502835, 54.714488 ] } },
{ "type": "Feature", "properties": { "Name": "Наряд", "address": "площадь Калинина, 28, Калининград, Россия", "longitude": 20.50203, "latitude": 54.694658 }, "geometry": { "type": "Point", "coordinates": [ 20.50203, 54.694658 ] } },
{ "type": "Feature", "properties": { "Name": "Westreet", "address": "ул. Профессора Баранова, 34, Калининград, Россия", "longitude": 20.506468, "latitude": 54.721416 }, "geometry": { "type": "Point", "coordinates": [ 20.506468, 54.721416 ] } },
{ "type": "Feature", "properties": { "Name": "Ok stock", "address": "ул. Виктора Денисова, 12, Калининград, Россия", "longitude": 20.582058, "latitude": 54.713412 }, "geometry": { "type": "Point", "coordinates": [ 20.582058, 54.713412 ] } },
{ "type": "Feature", "properties": { "Name": "Lagos", "address": "Барнаульская ул., 2, Калининград, Россия", "longitude": 20.50192, "latitude": 54.714804 }, "geometry": { "type": "Point", "coordinates": [ 20.50192, 54.714804 ] } },
{ "type": "Feature", "properties": { "Name": "Планета одежды и обуви", "address": "ул. Горького, 2, Калининград, Россия", "longitude": 20.508212, "latitude": 54.721741 }, "geometry": { "type": "Point", "coordinates": [ 20.508212, 54.721741 ] } },
{ "type": "Feature", "properties": { "Name": "Красотка", "address": "ул. Профессора Баранова, 34, Калининград, Россия", "longitude": 20.50571, "latitude": 54.721463 }, "geometry": { "type": "Point", "coordinates": [ 20.50571, 54.721463 ] } },
{ "type": "Feature", "properties": { "Name": "Milano", "address": "Театральная ул., 30, Калининград, Россия", "longitude": 20.500088, "latitude": 54.718041 }, "geometry": { "type": "Point", "coordinates": [ 20.500088, 54.718041 ] } },
{ "type": "Feature", "properties": { "Name": "Одежда из Европы", "address": "Зелёная ул., 76, Калининград, Россия", "longitude": 20.503136, "latitude": 54.739204 }, "geometry": { "type": "Point", "coordinates": [ 20.503136, 54.739204 ] } },
{ "type": "Feature", "properties": { "Name": "Детская одежда", "address": "Киевская ул., 72, Калининград, Россия", "longitude": 20.476507, "latitude": 54.681359 }, "geometry": { "type": "Point", "coordinates": [ 20.476507, 54.681359 ] } },
{ "type": "Feature", "properties": { "Name": "Armani Exchange", "address": "Театральная ул., 30, Калининград, Россия", "longitude": 20.499944, "latitude": 54.71845 }, "geometry": { "type": "Point", "coordinates": [ 20.499944, 54.71845 ] } },
{ "type": "Feature", "properties": { "Name": "New Inn", "address": "ул. Генерал-Лейтенанта Озерова, 17, корп. 1, Калининград, Россия", "longitude": 20.501975, "latitude": 54.725886 }, "geometry": { "type": "Point", "coordinates": [ 20.501975, 54.725886 ] } },
{ "type": "Feature", "properties": { "Name": "Одежда из Европы", "address": "Ярославская ул., 1, Калининград, Россия", "longitude": 20.524281, "latitude": 54.712533 }, "geometry": { "type": "Point", "coordinates": [ 20.524281, 54.712533 ] } },
{ "type": "Feature", "properties": { "Name": "Магазин одежды", "address": "Интернациональная ул., 30, Калининград, Россия", "longitude": 20.501354, "latitude": 54.668776 }, "geometry": { "type": "Point", "coordinates": [ 20.501354, 54.668776 ] } },
{ "type": "Feature", "properties": { "Name": "Сток", "address": "ул. Карла Маркса, 56, Калининград, Россия", "longitude": 20.473264, "latitude": 54.726421 }, "geometry": { "type": "Point", "coordinates": [ 20.473264, 54.726421 ] } },
{ "type": "Feature", "properties": { "Name": "Фе. Лена", "address": "ул. Профессора Баранова, 34, Калининград, Россия", "longitude": 20.506598, "latitude": 54.72123 }, "geometry": { "type": "Point", "coordinates": [ 20.506598, 54.72123 ] } },
{ "type": "Feature", "properties": { "Name": "Женский Garderob", "address": "Театральная ул., 21, Калининград, Россия", "longitude": 20.50047, "latitude": 54.716543 }, "geometry": { "type": "Point", "coordinates": [ 20.50047, 54.716543 ] } },
{ "type": "Feature", "properties": { "Name": "ЛёнМари", "address": "ул. Горького, 55, Калининград, Россия", "longitude": 20.508518, "latitude": 54.727685 }, "geometry": { "type": "Point", "coordinates": [ 20.508518, 54.727685 ] } },
{ "type": "Feature", "properties": { "Name": "Loco", "address": "Пролетарская ул., 87, Калининград, Россия", "longitude": 20.513752, "latitude": 54.72021 }, "geometry": { "type": "Point", "coordinates": [ 20.513752, 54.72021 ] } },
{ "type": "Feature", "properties": { "Name": "Арбат", "address": "ул. Профессора Баранова, 34, Калининград, Россия", "longitude": 20.506254, "latitude": 54.721291 }, "geometry": { "type": "Point", "coordinates": [ 20.506254, 54.721291 ] } },
{ "type": "Feature", "properties": { "Name": "Магазин одежды и обуви", "address": "Гражданская ул., 1, Калининград, Россия", "longitude": 20.525923, "latitude": 54.712814 }, "geometry": { "type": "Point", "coordinates": [ 20.525923, 54.712814 ] } },
{ "type": "Feature", "properties": { "Name": "TrendSetter", "address": "ул. Генерал-Лейтенанта Озерова, 17, корп. 1, Калининград, Россия", "longitude": 20.502191, "latitude": 54.725738 }, "geometry": { "type": "Point", "coordinates": [ 20.502191, 54.725738 ] } },
{ "type": "Feature", "properties": { "Name": "Red foxy", "address": "Ленинский просп., 143, Калининград, Россия", "longitude": 20.503111, "latitude": 54.697741 }, "geometry": { "type": "Point", "coordinates": [ 20.503111, 54.697741 ] } },
{ "type": "Feature", "properties": { "Name": "Фаворит", "address": "ул. Багратиона, 95, Калининград, Россия", "longitude": 20.503878, "latitude": 54.69889 }, "geometry": { "type": "Point", "coordinates": [ 20.503878, 54.69889 ] } },
{ "type": "Feature", "properties": { "Name": "День и ночь", "address": "Полоцкая ул., 45В, Калининград, Россия", "longitude": 20.499314, "latitude": 54.702081 }, "geometry": { "type": "Point", "coordinates": [ 20.499314, 54.702081 ] } },
{ "type": "Feature", "properties": { "Name": "Серж", "address": "ул. Профессора Баранова, 34, Калининград, Россия", "longitude": 20.506594, "latitude": 54.721331 }, "geometry": { "type": "Point", "coordinates": [ 20.506594, 54.721331 ] } },
{ "type": "Feature", "properties": { "Name": "Odezda Brend Fashion", "address": "ул. Сержанта Мишина, 22А, Калининград, Россия", "longitude": 20.432451, "latitude": 54.715904 }, "geometry": { "type": "Point", "coordinates": [ 20.432451, 54.715904 ] } },
{ "type": "Feature", "properties": { "Name": "Liu Jo", "address": "ул. Профессора Баранова, 40, Калининград, Россия", "longitude": 20.499141, "latitude": 54.718327 }, "geometry": { "type": "Point", "coordinates": [ 20.499141, 54.718327 ] } },
{ "type": "Feature", "properties": { "Name": "Супер Цены", "address": "ул. Генерал-Лейтенанта Захарова, 2, Калининград, Россия", "longitude": 20.470937, "latitude": 54.735444 }, "geometry": { "type": "Point", "coordinates": [ 20.470937, 54.735444 ] } },
{ "type": "Feature", "properties": { "Name": "Мармелад", "address": "ул. Юрия Гагарина, 16Д, Калининград, Россия", "longitude": 20.544054, "latitude": 54.719979 }, "geometry": { "type": "Point", "coordinates": [ 20.544054, 54.719979 ] } },
{ "type": "Feature", "properties": { "Name": "Colin's", "address": "ул. Профессора Баранова, 40, Калининград, Россия", "longitude": 20.498618, "latitude": 54.718488 }, "geometry": { "type": "Point", "coordinates": [ 20.498618, 54.718488 ] } },
{ "type": "Feature", "properties": { "Name": "Чик чирик", "address": "ул. Аксакова, 133, Калининград, Россия", "longitude": 20.584473, "latitude": 54.711492 }, "geometry": { "type": "Point", "coordinates": [ 20.584473, 54.711492 ] } },
{ "type": "Feature", "properties": { "Name": "Балонка123", "address": "ул. Профессора Баранова, 2Б, Калининград, Россия", "longitude": 20.512598, "latitude": 54.721926 }, "geometry": { "type": "Point", "coordinates": [ 20.512598, 54.721926 ] } },
{ "type": "Feature", "properties": { "Name": "Truman", "address": "ул. Профессора Баранова, 40, Калининград, Россия", "longitude": 20.498763, "latitude": 54.718556 }, "geometry": { "type": "Point", "coordinates": [ 20.498763, 54.718556 ] } },
{ "type": "Feature", "properties": { "Name": "Stella", "address": "ул. Профессора Баранова, 34, Калининград, Россия", "longitude": 20.506581, "latitude": 54.721367 }, "geometry": { "type": "Point", "coordinates": [ 20.506581, 54.721367 ] } },
{ "type": "Feature", "properties": { "Name": "Fashion Outlet", "address": "ул. Горького, 55, Калининград, Россия", "longitude": 20.509267, "latitude": 54.727693 }, "geometry": { "type": "Point", "coordinates": [ 20.509267, 54.727693 ] } },
{ "type": "Feature", "properties": { "Name": "Престиж", "address": "ул. Горького, 104, Калининград, Россия", "longitude": 20.509556, "latitude": 54.735584 }, "geometry": { "type": "Point", "coordinates": [ 20.509556, 54.735584 ] } },
{ "type": "Feature", "properties": { "Name": "Mustang", "address": "ул. Профессора Баранова, 34, Калининград, Россия", "longitude": 20.506017, "latitude": 54.720957 }, "geometry": { "type": "Point", "coordinates": [ 20.506017, 54.720957 ] } },
{ "type": "Feature", "properties": { "Name": "Магазин мужской одежды и обуви", "address": "Киевская ул., 95, Калининград, Россия", "longitude": 20.475388, "latitude": 54.681016 }, "geometry": { "type": "Point", "coordinates": [ 20.475388, 54.681016 ] } },
{ "type": "Feature", "properties": { "Name": "Привет пакет", "address": "ул. Багратиона, 93, Калининград, Россия", "longitude": 20.504116, "latitude": 54.698944 }, "geometry": { "type": "Point", "coordinates": [ 20.504116, 54.698944 ] } },
{ "type": "Feature", "properties": { "Name": "Белиссимо", "address": "ул. Профессора Баранова, 34, Калининград, Россия", "longitude": 20.506823, "latitude": 54.721426 }, "geometry": { "type": "Point", "coordinates": [ 20.506823, 54.721426 ] } },
{ "type": "Feature", "properties": { "Name": "Пуговица", "address": "ул. Черняховского, 15, лит.Б, Калининград, Россия", "longitude": 20.50885, "latitude": 54.720228 }, "geometry": { "type": "Point", "coordinates": [ 20.50885, 54.720228 ] } },
{ "type": "Feature", "properties": { "Name": "Гунна", "address": "ул. Багратиона, 66, Калининград, Россия", "longitude": 20.508006, "latitude": 54.699444 }, "geometry": { "type": "Point", "coordinates": [ 20.508006, 54.699444 ] } },
{ "type": "Feature", "properties": { "Name": "Барыня", "address": "Полоцкая ул., 45, Калининград, Россия", "longitude": 20.498552, "latitude": 54.703425 }, "geometry": { "type": "Point", "coordinates": [ 20.498552, 54.703425 ] } },
{ "type": "Feature", "properties": { "Name": "Джентльмен", "address": "ул. Генерала Челнокова, 11, Калининград, Россия", "longitude": 20.48705, "latitude": 54.73681 }, "geometry": { "type": "Point", "coordinates": [ 20.48705, 54.73681 ] } },
{ "type": "Feature", "properties": { "Name": "Барнаульский", "address": "Барнаульская ул., 2, Калининград, Россия", "longitude": 20.502078, "latitude": 54.714669 }, "geometry": { "type": "Point", "coordinates": [ 20.502078, 54.714669 ] } },
{ "type": "Feature", "properties": { "Name": "Lady shop", "address": "ул. Карла Маркса, 92, Калининград, Россия", "longitude": 20.46843, "latitude": 54.725283 }, "geometry": { "type": "Point", "coordinates": [ 20.46843, 54.725283 ] } },
{ "type": "Feature", "properties": { "Name": "Шанс", "address": "Автомобильная ул., 19, Калининград, Россия", "longitude": 20.494647, "latitude": 54.67472 }, "geometry": { "type": "Point", "coordinates": [ 20.494647, 54.67472 ] } },
{ "type": "Feature", "properties": { "Name": "Ивановский Текстиль и Трикотаж", "address": "ул. Александра Невского, 35, Калининград, Россия", "longitude": 20.527986, "latitude": 54.727952 }, "geometry": { "type": "Point", "coordinates": [ 20.527986, 54.727952 ] } },
{ "type": "Feature", "properties": { "Name": "La Vitrina", "address": "ул. Генерала Соммера, 9, Калининград, Россия", "longitude": 20.505479, "latitude": 54.715974 }, "geometry": { "type": "Point", "coordinates": [ 20.505479, 54.715974 ] } },
{ "type": "Feature", "properties": { "Name": "Freeman", "address": "ул. Профессора Баранова, 34, Калининград, Россия", "longitude": 20.505964, "latitude": 54.721494 }, "geometry": { "type": "Point", "coordinates": [ 20.505964, 54.721494 ] } },
{ "type": "Feature", "properties": { "Name": "Альбион", "address": "ул. Профессора Баранова, 34, Калининград, Россия", "longitude": 20.505856, "latitude": 54.721162 }, "geometry": { "type": "Point", "coordinates": [ 20.505856, 54.721162 ] } },
{ "type": "Feature", "properties": { "Name": "Твои джинсы", "address": "Нарвская ул., 46, Калининград, Россия", "longitude": 20.497834, "latitude": 54.731684 }, "geometry": { "type": "Point", "coordinates": [ 20.497834, 54.731684 ] } },
{ "type": "Feature", "properties": { "Name": "Van Cliff", "address": "ул. Профессора Баранова, 34, Калининград, Россия", "longitude": 20.505912, "latitude": 54.721188 }, "geometry": { "type": "Point", "coordinates": [ 20.505912, 54.721188 ] } },
{ "type": "Feature", "properties": { "Name": "Millena", "address": "ул. Багратиона, 88, Калининград, Россия", "longitude": 20.506841, "latitude": 54.699466 }, "geometry": { "type": "Point", "coordinates": [ 20.506841, 54.699466 ] } },
{ "type": "Feature", "properties": { "Name": "Best Style", "address": "Флотская ул., 9, Калининград, Россия", "longitude": 20.588287, "latitude": 54.708557 }, "geometry": { "type": "Point", "coordinates": [ 20.588287, 54.708557 ] } },
{ "type": "Feature", "properties": { "Name": "Capsula", "address": "площадь Победы, 10, Калининград, Россия", "longitude": 20.503362, "latitude": 54.719545 }, "geometry": { "type": "Point", "coordinates": [ 20.503362, 54.719545 ] } },
{ "type": "Feature", "properties": { "Name": "Solo Tu", "address": "ул. Профессора Баранова, 34, Калининград, Россия", "longitude": 20.506572, "latitude": 54.721537 }, "geometry": { "type": "Point", "coordinates": [ 20.506572, 54.721537 ] } },
{ "type": "Feature", "properties": { "Name": "Franko Fabijani", "address": "ул. Горького, 2, Калининград, Россия", "longitude": 20.509028, "latitude": 54.72167 }, "geometry": { "type": "Point", "coordinates": [ 20.509028, 54.72167 ] } },
{ "type": "Feature", "properties": { "Name": "Модный континент", "address": "Советский просп., 159, Калининград, Россия", "longitude": 20.465908, "latitude": 54.742998 }, "geometry": { "type": "Point", "coordinates": [ 20.465908, 54.742998 ] } },
{ "type": "Feature", "properties": { "Name": "Территория низких цен", "address": "Эльблонгская ул., 18А, Калининград, Россия", "longitude": 20.497303, "latitude": 54.70149 }, "geometry": { "type": "Point", "coordinates": [ 20.497303, 54.70149 ] } },
{ "type": "Feature", "properties": { "Name": "Индиго", "address": "Камская ул., 2Б, корп. 33, Калининград, Россия", "longitude": 20.458557, "latitude": 54.681393 }, "geometry": { "type": "Point", "coordinates": [ 20.458557, 54.681393 ] } },
{ "type": "Feature", "properties": { "Name": "Broadway", "address": "Красносельская ул., 65, Калининград, Россия", "longitude": 20.442692, "latitude": 54.716444 }, "geometry": { "type": "Point", "coordinates": [ 20.442692, 54.716444 ] } },
{ "type": "Feature", "properties": { "Name": "Vояge", "address": "ул. Профессора Баранова, 34, Калининград, Россия", "longitude": 20.507022, "latitude": 54.721352 }, "geometry": { "type": "Point", "coordinates": [ 20.507022, 54.721352 ] } },
{ "type": "Feature", "properties": { "Name": "Kivi", "address": "ул. Профессора Баранова, 34, Калининград, Россия", "longitude": 20.5059, "latitude": 54.721486 }, "geometry": { "type": "Point", "coordinates": [ 20.5059, 54.721486 ] } },
{ "type": "Feature", "properties": { "Name": "Алиса", "address": "ул. Беланова, 3, микрорайон Чкаловск, Калининград, Россия", "longitude": 20.447268, "latitude": 54.768899 }, "geometry": { "type": "Point", "coordinates": [ 20.447268, 54.768899 ] } },
{ "type": "Feature", "properties": { "Name": "Магазин одежды", "address": "Полоцкая ул., 45, Калининград, Россия", "longitude": 20.498371, "latitude": 54.703327 }, "geometry": { "type": "Point", "coordinates": [ 20.498371, 54.703327 ] } },
{ "type": "Feature", "properties": { "Name": "Italiano", "address": "площадь Победы, 10, Калининград, Россия", "longitude": 20.503989, "latitude": 54.719662 }, "geometry": { "type": "Point", "coordinates": [ 20.503989, 54.719662 ] } },
{ "type": "Feature", "properties": { "Name": "100 Den", "address": "ул. Аксакова, 123, Калининград, Россия", "longitude": 20.578374, "latitude": 54.711456 }, "geometry": { "type": "Point", "coordinates": [ 20.578374, 54.711456 ] } },
{ "type": "Feature", "properties": { "Name": "Трикотаж", "address": "Киевская ул., 80, Калининград, Россия", "longitude": 20.474389, "latitude": 54.681847 }, "geometry": { "type": "Point", "coordinates": [ 20.474389, 54.681847 ] } },
{ "type": "Feature", "properties": { "Name": "Danke shop", "address": "Батальная ул., 62А, Калининград, Россия", "longitude": 20.500557, "latitude": 54.674757 }, "geometry": { "type": "Point", "coordinates": [ 20.500557, 54.674757 ] } },
{ "type": "Feature", "properties": { "Name": "Manstyle", "address": "ул. Горького, 55, Калининград, Россия", "longitude": 20.509012, "latitude": 54.727745 }, "geometry": { "type": "Point", "coordinates": [ 20.509012, 54.727745 ] } },
{ "type": "Feature", "properties": { "Name": "Одежда из Европы", "address": "Брусничная ул., 1, Калининград, Россия", "longitude": 20.427811, "latitude": 54.713001 }, "geometry": { "type": "Point", "coordinates": [ 20.427811, 54.713001 ] } },
{ "type": "Feature", "properties": { "Name": "Успех", "address": "площадь Победы, 4А, Калининград, Россия", "longitude": 20.501323, "latitude": 54.721128 }, "geometry": { "type": "Point", "coordinates": [ 20.501323, 54.721128 ] } },
{ "type": "Feature", "properties": { "Name": "Твои джинсы", "address": "Советский просп., 2А, Калининград, Россия", "longitude": 20.499431, "latitude": 54.721695 }, "geometry": { "type": "Point", "coordinates": [ 20.499431, 54.721695 ] } },
{ "type": "Feature", "properties": { "Name": "Electra style", "address": "ул. Гайдара, 120, Калининград, Россия", "longitude": 20.505341, "latitude": 54.74315 }, "geometry": { "type": "Point", "coordinates": [ 20.505341, 54.74315 ] } },
{ "type": "Feature", "properties": { "Name": "Гардероб", "address": "Московский просп., 40, Калининград, Россия", "longitude": 20.502483, "latitude": 54.709334 }, "geometry": { "type": "Point", "coordinates": [ 20.502483, 54.709334 ] } },
{ "type": "Feature", "properties": { "Name": "Verona", "address": "Театральная ул., 21, Калининград, Россия", "longitude": 20.500401, "latitude": 54.716391 }, "geometry": { "type": "Point", "coordinates": [ 20.500401, 54.716391 ] } },
{ "type": "Feature", "properties": { "Name": "Stockholm outlet", "address": "Пролетарская ул., 77, Калининград, Россия", "longitude": 20.51334398188872, "latitude": 54.71931422109558 }, "geometry": { "type": "Point", "coordinates": [ 20.51334398188872, 54.71931422109558 ] } },
{ "type": "Feature", "properties": { "Name": "Комодник", "address": "Ленинский просп., 129, Калининград, Россия", "longitude": 20.503667532075745, "latitude": 54.699372623838499 }, "geometry": { "type": "Point", "coordinates": [ 20.503667532075745, 54.699372623838499 ] } },
{ "type": "Feature", "properties": { "Name": "Italy", "address": "ул. Генерал-Лейтенанта Озерова, 24А, Калининград, Россия", "longitude": 20.507862563598245, "latitude": 54.724516788320777 }, "geometry": { "type": "Point", "coordinates": [ 20.507862563598245, 54.724516788320777 ] } },
{ "type": "Feature", "properties": { "Name": "Gloria Jeans", "address": "ул. Горького, 2, Калининград, Россия", "longitude": 20.50944787575088, "latitude": 54.721607157401785 }, "geometry": { "type": "Point", "coordinates": [ 20.50944787575088, 54.721607157401785 ] } },
{ "type": "Feature", "properties": { "Name": "Era", "address": "ул. Горького, 104Б, Калининград, Россия", "longitude": 20.508655219674566, "latitude": 54.735893379550518 }, "geometry": { "type": "Point", "coordinates": [ 20.508655219674566, 54.735893379550518 ] } },
{ "type": "Feature", "properties": { "Name": "Top trend", "address": "ул. Богдана Хмельницкого, 19, Калининград, Россия", "longitude": 20.503452574495725, "latitude": 54.697105603945268 }, "geometry": { "type": "Point", "coordinates": [ 20.503452574495725, 54.697105603945268 ] } },
{ "type": "Feature", "properties": { "Name": "Twinset", "address": "Ленинский просп., 11, Калининград, Россия", "longitude": 20.502797625619042, "latitude": 54.717447962308817 }, "geometry": { "type": "Point", "coordinates": [ 20.502797625619042, 54.717447962308817 ] } },
{ "type": "Feature", "properties": { "Name": "Сток", "address": "Пролетарская ул., 78, Калининград, Россия", "longitude": 20.514015724326278, "latitude": 54.719151266371227 }, "geometry": { "type": "Point", "coordinates": [ 20.514015724326278, 54.719151266371227 ] } },
{ "type": "Feature", "properties": { "Name": "Эконом+", "address": "ул. Генерала Челнокова, 11А, Калининград, Россия", "longitude": 20.488052879114658, "latitude": 54.737274023589038 }, "geometry": { "type": "Point", "coordinates": [ 20.488052879114658, 54.737274023589038 ] } },
{ "type": "Feature", "properties": { "Name": "Lange", "address": "ул. Черняховского, 58, Калининград, Россия", "longitude": 20.514351595545062, "latitude": 54.71976428312184 }, "geometry": { "type": "Point", "coordinates": [ 20.514351595545062, 54.71976428312184 ] } },
{ "type": "Feature", "properties": { "Name": "Incity", "address": "ул. Генерал-Лейтенанта Озерова, 17Б, Калининград, Россия", "longitude": 20.502199774849636, "latitude": 54.725599117722417 }, "geometry": { "type": "Point", "coordinates": [ 20.502199774849636, 54.725599117722417 ] } },
{ "type": "Feature", "properties": { "Name": "Top trend", "address": "ул. Космонавта Леонова, 42, Калининград, Россия", "longitude": 20.481812391869695, "latitude": 54.730548757663556 }, "geometry": { "type": "Point", "coordinates": [ 20.481812391869695, 54.730548757663556 ] } },
{ "type": "Feature", "properties": { "Name": "Iamlove", "address": "Советский просп., 9, Калининград, Россия", "longitude": 20.498283516438612, "latitude": 54.723484863123787 }, "geometry": { "type": "Point", "coordinates": [ 20.498283516438612, 54.723484863123787 ] } },
{ "type": "Feature", "properties": { "Name": "Завались", "address": "ул. Фрунзе, 44А, Калининград, Россия", "longitude": 20.527010581780821, "latitude": 54.712552989803775 }, "geometry": { "type": "Point", "coordinates": [ 20.527010581780821, 54.712552989803775 ] } },
{ "type": "Feature", "properties": { "Name": "Eva Graffova", "address": "ул. Черняховского, 6А, Калининград, Россия", "longitude": 20.504510568834828, "latitude": 54.719164845956605 }, "geometry": { "type": "Point", "coordinates": [ 20.504510568834828, 54.719164845956605 ] } },
{ "type": "Feature", "properties": { "Name": "Манхеттен", "address": "Уральская ул., 16, Калининград, Россия", "longitude": 20.500842855125764, "latitude": 54.724466356496961 }, "geometry": { "type": "Point", "coordinates": [ 20.500842855125764, 54.724466356496961 ] } },
{ "type": "Feature", "properties": { "Name": "Супер цены", "address": "Портовая ул., 18Б, Калининград, Россия", "longitude": 20.498884725920327, "latitude": 54.705288017499079 }, "geometry": { "type": "Point", "coordinates": [ 20.498884725920327, 54.705288017499079 ] } },
{ "type": "Feature", "properties": { "Name": "Stockholm outlet", "address": "ул. Виктора Денисова, 16, корп. 2, Калининград, Россия", "longitude": 20.583101075316915, "latitude": 54.713371769920698 }, "geometry": { "type": "Point", "coordinates": [ 20.583101075316915, 54.713371769920698 ] } },
{ "type": "Feature", "properties": { "Name": "Вселенная", "address": "Тихорецкая ул., 2Д, Калининград, Россия", "longitude": 20.489275450351087, "latitude": 54.684976448871147 }, "geometry": { "type": "Point", "coordinates": [ 20.489275450351087, 54.684976448871147 ] } },
{ "type": "Feature", "properties": { "Name": "General_Magazin39", "address": "ул. Жиленкова, 10, микрорайон Чкаловск, Калининград, Россия", "longitude": 20.45079468481546, "latitude": 54.770050492743515 }, "geometry": { "type": "Point", "coordinates": [ 20.45079468481546, 54.770050492743515 ] } },
{ "type": "Feature", "properties": { "Name": "Дирам", "address": "ул. Юрия Гагарина, 16Е, Калининград, Россия", "longitude": 20.544146731362929, "latitude": 54.720289995799526 }, "geometry": { "type": "Point", "coordinates": [ 20.544146731362929, 54.720289995799526 ] } },
{ "type": "Feature", "properties": { "Name": "Moda центр Man", "address": "Ленинский просп., 99, Калининград, Россия", "longitude": 20.506112674548454, "latitude": 54.703634588811198 }, "geometry": { "type": "Point", "coordinates": [ 20.506112674548454, 54.703634588811198 ] } },
{ "type": "Feature", "properties": { "Name": "Бархат", "address": "Пролетарская ул., 17, Калининград, Россия", "longitude": 20.512940936426183, "latitude": 54.712974023350689 }, "geometry": { "type": "Point", "coordinates": [ 20.512940936426183, 54.712974023350689 ] } },
{ "type": "Feature", "properties": { "Name": "Marca Vh. 1", "address": "ул. Виктора Гюго, 1, Калининград, Россия", "longitude": 20.506247023035964, "latitude": 54.708695575755669 }, "geometry": { "type": "Point", "coordinates": [ 20.506247023035964, 54.708695575755669 ] } },
{ "type": "Feature", "properties": { "Name": "Магазин одежды", "address": "ул. Багратиона, 49, Калининград, Россия", "longitude": 20.509887867047532, "latitude": 54.698910689992928 }, "geometry": { "type": "Point", "coordinates": [ 20.509887867047532, 54.698910689992928 ] } },
{ "type": "Feature", "properties": { "Name": "UNITED COLORS OF BENETTON", "address": "Ленинский просп., 29, Калининград, Россия", "longitude": 20.504073936250407, "latitude": 54.715698024155586 }, "geometry": { "type": "Point", "coordinates": [ 20.504073936250407, 54.715698024155586 ] } },
{ "type": "Feature", "properties": { "Name": "Престиж", "address": "Шахматная ул., 4В, Калининград, Россия", "longitude": 20.554659500510745, "latitude": 54.734673642232174 }, "geometry": { "type": "Point", "coordinates": [ 20.554659500510745, 54.734673642232174 ] } },
{ "type": "Feature", "properties": { "Name": "Армия России", "address": "Ленинский просп., 39, Калининград, Россия", "longitude": 20.505605509008042, "latitude": 54.714712438155381 }, "geometry": { "type": "Point", "coordinates": [ 20.505605509008042, 54.714712438155381 ] } },
{ "type": "Feature", "properties": { "Name": "Модный континент", "address": "Московский просп., 171А, Калининград, Россия", "longitude": 20.543347357862253, "latitude": 54.710430293269901 }, "geometry": { "type": "Point", "coordinates": [ 20.543347357862253, 54.710430293269901 ] } },
{ "type": "Feature", "properties": { "Name": "Stockholm outlet", "address": "Театральная ул., 31, Калининград, Россия", "longitude": 20.498474963033374, "latitude": 54.717248139488333 }, "geometry": { "type": "Point", "coordinates": [ 20.498474963033374, 54.717248139488333 ] } },
{ "type": "Feature", "properties": { "Name": "Volo", "address": "Зоологическая ул., 9Д, Калининград, Россия", "longitude": 20.484472491922428, "latitude": 54.72265464859391 }, "geometry": { "type": "Point", "coordinates": [ 20.484472491922428, 54.72265464859391 ] } },
{ "type": "Feature", "properties": { "Name": "Мишель", "address": "Пролетарская ул., 66, Калининград, Россия", "longitude": 20.513357416737474, "latitude": 54.717987285004924 }, "geometry": { "type": "Point", "coordinates": [ 20.513357416737474, 54.717987285004924 ] } },
{ "type": "Feature", "properties": { "Name": "Kokka", "address": "просп. Мира, 46, Калининград, Россия", "longitude": 20.484381806693342, "latitude": 54.720928213466955 }, "geometry": { "type": "Point", "coordinates": [ 20.484381806693342, 54.720928213466955 ] } },
{ "type": "Feature", "properties": { "Name": "Белорусская женская одежда", "address": "Ленинский просп., 18, корп. 1, Калининград, Россия", "longitude": 20.505286431350228, "latitude": 54.713752050797716 }, "geometry": { "type": "Point", "coordinates": [ 20.505286431350228, 54.713752050797716 ] } },
{ "type": "Feature", "properties": { "Name": "Mzrt", "address": "ул. Чайковского, 5, Калининград, Россия", "longitude": 20.49694674898787, "latitude": 54.723624523710235 }, "geometry": { "type": "Point", "coordinates": [ 20.49694674898787, 54.723624523710235 ] } },
{ "type": "Feature", "properties": { "Name": "Имидж", "address": "ул. Черняховского, 18, Калининград, Россия", "longitude": 20.506401523796551, "latitude": 54.719479115090358 }, "geometry": { "type": "Point", "coordinates": [ 20.506401523796551, 54.719479115090358 ] } },
{ "type": "Feature", "properties": { "Name": "Малибу", "address": "просп. Мира, 88А, Калининград, Россия", "longitude": 20.473640645116799, "latitude": 54.721064003163676 }, "geometry": { "type": "Point", "coordinates": [ 20.473640645116799, 54.721064003163676 ] } },
{ "type": "Feature", "properties": { "Name": "Konig shop", "address": "ул. Куйбышева, 98, Калининград, Россия", "longitude": 20.545678304120568, "latitude": 54.724697178561549 }, "geometry": { "type": "Point", "coordinates": [ 20.545678304120568, 54.724697178561549 ] } },
{ "type": "Feature", "properties": { "Name": "Глория", "address": "Пролетарская ул., 47, Калининград, Россия", "longitude": 20.512981240972437, "latitude": 54.716194688336749 }, "geometry": { "type": "Point", "coordinates": [ 20.512981240972437, 54.716194688336749 ] } },
{ "type": "Feature", "properties": { "Name": "Папайя", "address": "ул. Юрия Гагарина, 55А, Калининград, Россия", "longitude": 20.541983720713997, "latitude": 54.720600376467388 }, "geometry": { "type": "Point", "coordinates": [ 20.541983720713997, 54.720600376467388 ] } },
{ "type": "Feature", "properties": { "Name": "Паризьен", "address": "ул. Черняховского, 60, Калининград, Россия", "longitude": 20.514472509183815, "latitude": 54.719942754610742 }, "geometry": { "type": "Point", "coordinates": [ 20.514472509183815, 54.719942754610742 ] } },
{ "type": "Feature", "properties": { "Name": "Mustang", "address": "Ленинский просп., 27, Калининград, Россия", "longitude": 20.503912718065394, "latitude": 54.715884273936503 }, "geometry": { "type": "Point", "coordinates": [ 20.503912718065394, 54.715884273936503 ] } },
{ "type": "Feature", "properties": { "Name": "Ассоль", "address": "ул. Черняховского, 4, Калининград, Россия", "longitude": 20.502542363492779, "latitude": 54.718716717237243 }, "geometry": { "type": "Point", "coordinates": [ 20.502542363492779, 54.718716717237243 ] } },
{ "type": "Feature", "properties": { "Name": "Mini Boutique", "address": "ул. Юрия Гагарина, 16В, Калининград, Россия", "longitude": 20.543945208631666, "latitude": 54.719607149964901 }, "geometry": { "type": "Point", "coordinates": [ 20.543945208631666, 54.719607149964901 ] } },
{ "type": "Feature", "properties": { "Name": "Secret Lady Shop", "address": "Мариупольская ул., 14, Калининград, Россия", "longitude": 20.49880411682782, "latitude": 54.708299723776975 }, "geometry": { "type": "Point", "coordinates": [ 20.49880411682782, 54.708299723776975 ] } },
{ "type": "Feature", "properties": { "Name": "Must have", "address": "Пролетарская ул., 41, Калининград, Россия", "longitude": 20.513155894006204, "latitude": 54.715302240530299 }, "geometry": { "type": "Point", "coordinates": [ 20.513155894006204, 54.715302240530299 ] } },
{ "type": "Feature", "properties": { "Name": "Стиль и Мода", "address": "Барнаульская ул., 3, Калининград, Россия", "longitude": 20.50364737980258, "latitude": 54.714402012406659 }, "geometry": { "type": "Point", "coordinates": [ 20.50364737980258, 54.714402012406659 ] } },
{ "type": "Feature", "properties": { "Name": "Мишель", "address": "Барнаульская ул., 1, Калининград, Россия", "longitude": 20.503768293441336, "latitude": 54.714526182991349 }, "geometry": { "type": "Point", "coordinates": [ 20.503768293441336, 54.714526182991349 ] } },
{ "type": "Feature", "properties": { "Name": "Аляска", "address": "Ленинский просп., 57, Калининград, Россия", "longitude": 20.50709677721942, "latitude": 54.713695784974369 }, "geometry": { "type": "Point", "coordinates": [ 20.50709677721942, 54.713695784974369 ] } },
{ "type": "Feature", "properties": { "Name": "Zabava", "address": "Калининград, улица Гайдара", "longitude": 20.50535024688179, "latitude": 54.743207154756341 }, "geometry": { "type": "Point", "coordinates": [ 20.50535024688179, 54.743207154756341 ] } },
{ "type": "Feature", "properties": { "Name": "Пуговица", "address": "ул. Горького, 104, Калининград, Россия", "longitude": 20.509944965154673, "latitude": 54.735133229603122 }, "geometry": { "type": "Point", "coordinates": [ 20.509944965154673, 54.735133229603122 ] } },
{ "type": "Feature", "properties": { "Name": "Магазин одежды", "address": "Красносельская ул., 26, корп. 2, Калининград, Россия", "longitude": 20.443875737708613, "latitude": 54.713129241988476 }, "geometry": { "type": "Point", "coordinates": [ 20.443875737708613, 54.713129241988476 ] } },
{ "type": "Feature", "properties": { "Name": "Eurobrand", "address": "Театральная ул., 17, Калининград, Россия", "longitude": 20.501628793777723, "latitude": 54.716349894645631 }, "geometry": { "type": "Point", "coordinates": [ 20.501628793777723, 54.716349894645631 ] } },
{ "type": "Feature", "properties": { "Name": "Счастье", "address": "ул. Генерала Соммера, 8, Калининград, Россия", "longitude": 20.505578639310542, "latitude": 54.715449689783426 }, "geometry": { "type": "Point", "coordinates": [ 20.505578639310542, 54.715449689783426 ] } },
{ "type": "Feature", "properties": { "Name": "Secret Lady", "address": "ул. Багратиона, 103, Калининград, Россия", "longitude": 20.502041915376854, "latitude": 54.698510860653172 }, "geometry": { "type": "Point", "coordinates": [ 20.502041915376854, 54.698510860653172 ] } },
{ "type": "Feature", "properties": { "Name": "Discovery", "address": "просп. Мира, 59, Калининград, Россия", "longitude": 20.479095193709757, "latitude": 54.720253137937249 }, "geometry": { "type": "Point", "coordinates": [ 20.479095193709757, 54.720253137937249 ] } },
{ "type": "Feature", "properties": { "Name": "Wish Shop 39", "address": "ул. Космонавта Леонова, 36А, Калининград, Россия", "longitude": 20.481832544142829, "latitude": 54.729644989215984 }, "geometry": { "type": "Point", "coordinates": [ 20.481832544142829, 54.729644989215984 ] } },
{ "type": "Feature", "properties": { "Name": "Вот это да!", "address": "площадь Калинина, 33, Калининград, Россия", "longitude": 20.503412269949472, "latitude": 54.69551007392861 }, "geometry": { "type": "Point", "coordinates": [ 20.503412269949472, 54.69551007392861 ] } },
{ "type": "Feature", "properties": { "Name": "Планета одежды и обуви", "address": "Театральная ул., 21, Калининград, Россия", "longitude": 20.500339048297608, "latitude": 54.716512860630502 }, "geometry": { "type": "Point", "coordinates": [ 20.500339048297608, 54.716512860630502 ] } },
{ "type": "Feature", "properties": { "Name": "Hood", "address": "ул. Профессора Баранова, 1, Калининград, Россия", "longitude": 20.513968702355644, "latitude": 54.721203672091477 }, "geometry": { "type": "Point", "coordinates": [ 20.513968702355644, 54.721203672091477 ] } },
{ "type": "Feature", "properties": { "Name": "Супер цены", "address": "ул. Черняховского, 2, Калининград, Россия", "longitude": 20.502240079395879, "latitude": 54.718520780613005 }, "geometry": { "type": "Point", "coordinates": [ 20.502240079395879, 54.718520780613005 ] } },
{ "type": "Feature", "properties": { "Name": "Prenatal", "address": "ул. Профессора Баранова, 40, Калининград, Россия", "longitude": 20.499354945626582, "latitude": 54.718672098089264 }, "geometry": { "type": "Point", "coordinates": [ 20.499354945626582, 54.718672098089264 ] } },
{ "type": "Feature", "properties": { "Name": "Магазин одежды", "address": "Полоцкая ул., 49, Калининград, Россия", "longitude": 20.499462424416635, "latitude": 54.702043197079931 }, "geometry": { "type": "Point", "coordinates": [ 20.499462424416635, 54.702043197079931 ] } },
{ "type": "Feature", "properties": { "Name": "Семпер", "address": "Ленинский просп., 17, Калининград, Россия", "longitude": 20.503073040018446, "latitude": 54.71688923194926 }, "geometry": { "type": "Point", "coordinates": [ 20.503073040018446, 54.71688923194926 ] } },
{ "type": "Feature", "properties": { "Name": "Планета одежды и обуви", "address": "Московский просп., 171А, Калининград, Россия", "longitude": 20.543159269979739, "latitude": 54.710461338992459 }, "geometry": { "type": "Point", "coordinates": [ 20.543159269979739, 54.710461338992459 ] } },
{ "type": "Feature", "properties": { "Name": "Розали", "address": "Пролетарская ул., 70, Калининград, Россия", "longitude": 20.513518634922484, "latitude": 54.718313203156256 }, "geometry": { "type": "Point", "coordinates": [ 20.513518634922484, 54.718313203156256 ] } },
{ "type": "Feature", "properties": { "Name": "Cover Code", "address": "1-й Октябрьский пр., 5, Калининград, Россия", "longitude": 20.481345530875579, "latitude": 54.720183301895979 }, "geometry": { "type": "Point", "coordinates": [ 20.481345530875579, 54.720183301895979 ] } },
{ "type": "Feature", "properties": { "Name": "Пуговица", "address": "ул. Вернадского, 9, Калининград, Россия", "longitude": 20.472186322739521, "latitude": 54.734206292766146 }, "geometry": { "type": "Point", "coordinates": [ 20.472186322739521, 54.734206292766146 ] } },
{ "type": "Feature", "properties": { "Name": "Магазин одежды", "address": "ул. Александра Суворова, 41А, Калининград, Россия", "longitude": 20.470547271191968, "latitude": 54.691297728509063 }, "geometry": { "type": "Point", "coordinates": [ 20.470547271191968, 54.691297728509063 ] } },
{ "type": "Feature", "properties": { "Name": "Ивановский текстиль и трикотаж", "address": "Ленинский просп., 57, Калининград, Россия", "longitude": 20.506787775698143, "latitude": 54.713928608563968 }, "geometry": { "type": "Point", "coordinates": [ 20.506787775698143, 54.713928608563968 ] } },
{ "type": "Feature", "properties": { "Name": "Sla Moda Plus", "address": "Флотская ул., 9, Калининград, Россия", "longitude": 20.589576672414974, "latitude": 54.708528697451435 }, "geometry": { "type": "Point", "coordinates": [ 20.589576672414974, 54.708528697451435 ] } },
{ "type": "Feature", "properties": { "Name": "Трава", "address": "ул. Чайковского, 10А, Калининград, Россия", "longitude": 20.495542807293372, "latitude": 54.724132729004836 }, "geometry": { "type": "Point", "coordinates": [ 20.495542807293372, 54.724132729004836 ] } },
{ "type": "Feature", "properties": { "Name": "Vigoss", "address": "ул. Черняховского, 16, Калининград, Россия", "longitude": 20.506119391972781, "latitude": 54.71941315757293 }, "geometry": { "type": "Point", "coordinates": [ 20.506119391972781, 54.71941315757293 ] } },
{ "type": "Feature", "properties": { "Name": "Soul Brand", "address": "ул. Горького, 195, Калининград, Россия", "longitude": 20.504933766570502, "latitude": 54.739453483860437 }, "geometry": { "type": "Point", "coordinates": [ 20.504933766570502, 54.739453483860437 ] } },
{ "type": "Feature", "properties": { "Name": "Даки", "address": "Киевская ул., 72, Калининград, Россия", "longitude": 20.476767606163776, "latitude": 54.681364956592255 }, "geometry": { "type": "Point", "coordinates": [ 20.476767606163776, 54.681364956592255 ] } },
{ "type": "Feature", "properties": { "Name": "Семейная мода", "address": "Дачная ул., 6, Калининград, Россия", "longitude": 20.546571721562529, "latitude": 54.712448215799405 }, "geometry": { "type": "Point", "coordinates": [ 20.546571721562529, 54.712448215799405 ] } },
{ "type": "Feature", "properties": { "Name": "Soloti", "address": "ул. Профессора Баранова, 34, Калининград, Россия", "longitude": 20.50633099084061, "latitude": 54.721126078302134 }, "geometry": { "type": "Point", "coordinates": [ 20.50633099084061, 54.721126078302134 ] } },
{ "type": "Feature", "properties": { "Name": "Camel active", "address": "Театральная ул., 13, Калининград, Россия", "longitude": 20.501991534694007, "latitude": 54.716190808171419 }, "geometry": { "type": "Point", "coordinates": [ 20.501991534694007, 54.716190808171419 ] } },
{ "type": "Feature", "properties": { "Name": "Твои джинсы", "address": "Пролетарская ул., 71, Калининград, Россия", "longitude": 20.513155894006204, "latitude": 54.71901935016222 }, "geometry": { "type": "Point", "coordinates": [ 20.513155894006204, 54.71901935016222 ] } },
{ "type": "Feature", "properties": { "Name": "Анна Мария", "address": "Киевская ул., 85, Калининград, Россия", "longitude": 20.477573697088847, "latitude": 54.681100877884354 }, "geometry": { "type": "Point", "coordinates": [ 20.477573697088847, 54.681100877884354 ] } },
{ "type": "Feature", "properties": { "Name": "Модный клуб", "address": "ул. Гайдара, 153, Калининград, Россия", "longitude": 20.509044830288357, "latitude": 54.742237748276843 }, "geometry": { "type": "Point", "coordinates": [ 20.509044830288357, 54.742237748276843 ] } },
{ "type": "Feature", "properties": { "Name": "Чик чирик", "address": "ул. Черняховского, 6А, Калининград, Россия", "longitude": 20.503832108972897, "latitude": 54.719025170004031 }, "geometry": { "type": "Point", "coordinates": [ 20.503832108972897, 54.719025170004031 ] } },
{ "type": "Feature", "properties": { "Name": "Сток", "address": "ул. Карла Маркса, 10, Калининград, Россия", "longitude": 20.483679835846115, "latitude": 54.728756716465924 }, "geometry": { "type": "Point", "coordinates": [ 20.483679835846115, 54.728756716465924 ] } },
{ "type": "Feature", "properties": { "Name": "Forum", "address": "просп. Мира, 78, Калининград, Россия", "longitude": 20.478940692949124, "latitude": 54.720652752970629 }, "geometry": { "type": "Point", "coordinates": [ 20.478940692949124, 54.720652752970629 ] } },
{ "type": "Feature", "properties": { "Name": "Milomilo", "address": "Театральная ул., 35, Калининград, Россия", "longitude": 20.497044151641376, "latitude": 54.717591523727215 }, "geometry": { "type": "Point", "coordinates": [ 20.497044151641376, 54.717591523727215 ] } },
{ "type": "Feature", "properties": { "Name": "Luxury", "address": "ул. Черняховского, 74А, Калининград, Россия", "longitude": 20.515950342546443, "latitude": 54.720354012006766 }, "geometry": { "type": "Point", "coordinates": [ 20.515950342546443, 54.720354012006766 ] } },
{ "type": "Feature", "properties": { "Name": "Вот это да!", "address": "Дунайская ул., 18, Калининград, Россия", "longitude": 20.472287084105155, "latitude": 54.73466782463705 }, "geometry": { "type": "Point", "coordinates": [ 20.472287084105155, 54.73466782463705 ] } },
{ "type": "Feature", "properties": { "Name": "Ok stock", "address": "ул. Куйбышева, 40, Калининград, Россия", "longitude": 20.5378860918449, "latitude": 54.724844593646026 }, "geometry": { "type": "Point", "coordinates": [ 20.5378860918449, 54.724844593646026 ] } },
{ "type": "Feature", "properties": { "Name": "Стоковая одежда", "address": "ул. Горького, 191, Калининград, Россия", "longitude": 20.505323377184283, "latitude": 54.738918324761705 }, "geometry": { "type": "Point", "coordinates": [ 20.505323377184283, 54.738918324761705 ] } },
{ "type": "Feature", "properties": { "Name": "Outlet 39", "address": "Ленинский просп., 18, корп. 1, Калининград, Россия", "longitude": 20.505602150295875, "latitude": 54.713771452787647 }, "geometry": { "type": "Point", "coordinates": [ 20.505602150295875, 54.713771452787647 ] } },
{ "type": "Feature", "properties": { "Name": "Женская одежда", "address": "Полоцкая ул., 2, Калининград, Россия", "longitude": 20.504164621479536, "latitude": 54.7027573903597 }, "geometry": { "type": "Point", "coordinates": [ 20.504164621479536, 54.7027573903597 ] } },
{ "type": "Feature", "properties": { "Name": "Добряк", "address": "Нарвская ул., 47А, Калининград, Россия", "longitude": 20.496798965651664, "latitude": 54.73369045680645 }, "geometry": { "type": "Point", "coordinates": [ 20.496798965651664, 54.73369045680645 ] } },
{ "type": "Feature", "properties": { "Name": "Модный Шкаф", "address": "Ленинский просп., 42Б, Калининград, Россия", "longitude": 20.503788445714509, "latitude": 54.702019907956924 }, "geometry": { "type": "Point", "coordinates": [ 20.503788445714509, 54.702019907956924 ] } },
{ "type": "Feature", "properties": { "Name": "Супер Цены", "address": "Московский просп., 133В, Калининград, Россия", "longitude": 20.529422137131661, "latitude": 54.710038338978364 }, "geometry": { "type": "Point", "coordinates": [ 20.529422137131661, 54.710038338978364 ] } },
{ "type": "Feature", "properties": { "Name": "Сток", "address": "Ореховая ул., 1, Калининград, Россия", "longitude": 20.503989968445772, "latitude": 54.698829171709463 }, "geometry": { "type": "Point", "coordinates": [ 20.503989968445772, 54.698829171709463 ] } },
{ "type": "Feature", "properties": { "Name": "Магазин одежды", "address": "Калининград, проспект Калинина", "longitude": 20.504675145732083, "latitude": 54.695183972480329 }, "geometry": { "type": "Point", "coordinates": [ 20.504675145732083, 54.695183972480329 ] } },
{ "type": "Feature", "properties": { "Name": "Лувр", "address": "Полоцкая ул., 6, Калининград, Россия", "longitude": 20.503680966924495, "latitude": 54.70290488523132 }, "geometry": { "type": "Point", "coordinates": [ 20.503680966924495, 54.70290488523132 ] } },
{ "type": "Feature", "properties": { "Name": "Галерея Калининградских дизайнеров", "address": "Октябрьская ул., 12, Калининград, Россия", "longitude": 20.516820249003125, "latitude": 54.70062253610805 }, "geometry": { "type": "Point", "coordinates": [ 20.516820249003125, 54.70062253610805 ] } },
{ "type": "Feature", "properties": { "Name": "Клеопатра", "address": "просп. Мира, 88А, Калининград, Россия", "longitude": 20.473439122385528, "latitude": 54.72105236406464 }, "geometry": { "type": "Point", "coordinates": [ 20.473439122385528, 54.72105236406464 ] } },
{ "type": "Feature", "properties": { "Name": "Паризьен", "address": "ул. Сергеева, 4, Калининград, Россия", "longitude": 20.515802559210179, "latitude": 54.715038382633679 }, "geometry": { "type": "Point", "coordinates": [ 20.515802559210179, 54.715038382633679 ] } },
{ "type": "Feature", "properties": { "Name": "Болеро", "address": "Ленинский просп., 91, Калининград, Россия", "longitude": 20.506703807893508, "latitude": 54.703882995545506 }, "geometry": { "type": "Point", "coordinates": [ 20.506703807893508, 54.703882995545506 ] } },
{ "type": "Feature", "properties": { "Name": "Зимняя сказка", "address": "Ленинский просп., 17, Калининград, Россия", "longitude": 20.50314693168658, "latitude": 54.71676894871181 }, "geometry": { "type": "Point", "coordinates": [ 20.50314693168658, 54.71676894871181 ] } },
{ "type": "Feature", "properties": { "Name": "Чемпион", "address": "ул. Черняховского, 15А, Калининград, Россия", "longitude": 20.511275015181035, "latitude": 54.721145476763404 }, "geometry": { "type": "Point", "coordinates": [ 20.511275015181035, 54.721145476763404 ] } },
{ "type": "Feature", "properties": { "Name": "Стильняшка", "address": "ул. Жиленкова, 10, микрорайон Чкаловск, Калининград, Россия", "longitude": 20.450848424210466, "latitude": 54.770170617850901 }, "geometry": { "type": "Point", "coordinates": [ 20.450848424210466, 54.770170617850901 ] } },
{ "type": "Feature", "properties": { "Name": "Ямайка", "address": "ул. Горького, 104, Калининград, Россия", "longitude": 20.509515049994636, "latitude": 54.735466766540178 }, "geometry": { "type": "Point", "coordinates": [ 20.509515049994636, 54.735466766540178 ] } },
{ "type": "Feature", "properties": { "Name": "Магазин одежды", "address": "Интернациональная ул., 40А, Калининград, Россия", "longitude": 20.502589385463502, "latitude": 54.669200019324606 }, "geometry": { "type": "Point", "coordinates": [ 20.502589385463502, 54.669200019324606 ] } },
{ "type": "Feature", "properties": { "Name": "Антей", "address": "ул. Карла Маркса, 27, Калининград, Россия", "longitude": 20.47543755613728, "latitude": 54.726805551197948 }, "geometry": { "type": "Point", "coordinates": [ 20.47543755613728, 54.726805551197948 ] } },
{ "type": "Feature", "properties": { "Name": "Футболки", "address": "ул. Профессора Баранова, 1, Калининград, Россия", "longitude": 20.513626113712487, "latitude": 54.721114439220926 }, "geometry": { "type": "Point", "coordinates": [ 20.513626113712487, 54.721114439220926 ] } },
{ "type": "Feature", "properties": { "Name": "Лаума", "address": "Пролетарская ул., 82, Калининград, Россия", "longitude": 20.514109768267534, "latitude": 54.719399578070728 }, "geometry": { "type": "Point", "coordinates": [ 20.514109768267534, 54.719399578070728 ] } },
{ "type": "Feature", "properties": { "Name": "Беатрис", "address": "ул. Профессора Баранова, 34, Калининград, Россия", "longitude": 20.506142902958093, "latitude": 54.721420933911467 }, "geometry": { "type": "Point", "coordinates": [ 20.506142902958093, 54.721420933911467 ] } },
{ "type": "Feature", "properties": { "Name": "Secret Lady Shop", "address": "ул. Виктора Денисова, 16, корп. 1, Калининград, Россия", "longitude": 20.583772817754468, "latitude": 54.713883984146207 }, "geometry": { "type": "Point", "coordinates": [ 20.583772817754468, 54.713883984146207 ] } },
{ "type": "Feature", "properties": { "Name": "Сток", "address": "ул. Дзержинского, 79, корп. 14, Калининград, Россия", "longitude": 20.535189045958148, "latitude": 54.684595898163259 }, "geometry": { "type": "Point", "coordinates": [ 20.535189045958148, 54.684595898163259 ] } },
{ "type": "Feature", "properties": { "Name": "Благотворительный магазин Danke-Shop", "address": "Ленинский просп., 66, Калининград, Россия", "longitude": 20.502633048721911, "latitude": 54.701041752716947 }, "geometry": { "type": "Point", "coordinates": [ 20.502633048721911, 54.701041752716947 ] } },
{ "type": "Feature", "properties": { "Name": "Титул", "address": "просп. Мира, 63, Калининград, Россия", "longitude": 20.473204012532388, "latitude": 54.720594556851644 }, "geometry": { "type": "Point", "coordinates": [ 20.473204012532388, 54.720594556851644 ] } },
{ "type": "Feature", "properties": { "Name": "Instory", "address": "Интернациональная ул., 76, Калининград, Россия", "longitude": 20.510838382596702, "latitude": 54.668869821761241 }, "geometry": { "type": "Point", "coordinates": [ 20.510838382596702, 54.668869821761241 ] } },
{ "type": "Feature", "properties": { "Name": "Milano", "address": "ул. Генерала Челнокова, 11, Калининград, Россия", "longitude": 20.487367701828347, "latitude": 54.737359342744369 }, "geometry": { "type": "Point", "coordinates": [ 20.487367701828347, 54.737359342744369 ] } },
{ "type": "Feature", "properties": { "Name": "Tom Farr", "address": "ул. Генерал-Лейтенанта Озерова, 17Б, Калининград, Россия", "longitude": 20.502092296059622, "latitude": 54.726793913747599 }, "geometry": { "type": "Point", "coordinates": [ 20.502092296059622, 54.726793913747599 ] } },
{ "type": "Feature", "properties": { "Name": "Must Have", "address": "Интернациональная ул., 76, Калининград, Россия", "longitude": 20.510045726520385, "latitude": 54.668939746175184 }, "geometry": { "type": "Point", "coordinates": [ 20.510045726520385, 54.668939746175184 ] } },
{ "type": "Feature", "properties": { "Name": "Reporter", "address": "площадь Калинина, 28, Калининград, Россия", "longitude": 20.502092296059672, "latitude": 54.694543408433674 }, "geometry": { "type": "Point", "coordinates": [ 20.502092296059672, 54.694543408433674 ] } },
{ "type": "Feature", "properties": { "Name": "Одежда", "address": "ул. Павлика Морозова, 1-3, Калининград, Россия", "longitude": 20.472676694719052, "latitude": 54.680953303740552 }, "geometry": { "type": "Point", "coordinates": [ 20.472676694719052, 54.680953303740552 ] } },
{ "type": "Feature", "properties": { "Name": "Must have", "address": "Московский просп., 171А, Калининград, Россия", "longitude": 20.542917442702219, "latitude": 54.71049238469125 }, "geometry": { "type": "Point", "coordinates": [ 20.542917442702219, 54.71049238469125 ] } },
{ "type": "Feature", "properties": { "Name": "100 Den", "address": "Театральная ул., 21, Калининград, Россия", "longitude": 20.500567440726378, "latitude": 54.716547781827749 }, "geometry": { "type": "Point", "coordinates": [ 20.500567440726378, 54.716547781827749 ] } },
{ "type": "Feature", "properties": { "Name": "Stilmen", "address": "ул. Мусоргского, 10, корп. 44, Калининград, Россия", "longitude": 20.502428167278403, "latitude": 54.726762880530167 }, "geometry": { "type": "Point", "coordinates": [ 20.502428167278403, 54.726762880530167 ] } },
{ "type": "Feature", "properties": { "Name": "West Coat", "address": "Пролетарская ул., 76, Калининград, Россия", "longitude": 20.513854506141264, "latitude": 54.718871913891235 }, "geometry": { "type": "Point", "coordinates": [ 20.513854506141264, 54.718871913891235 ] } },
{ "type": "Feature", "properties": { "Name": "Супер цены", "address": "ул. Юрия Гагарина, 72А, Калининград, Россия", "longitude": 20.555626809620822, "latitude": 54.726873436258785 }, "geometry": { "type": "Point", "coordinates": [ 20.555626809620822, 54.726873436258785 ] } },
{ "type": "Feature", "properties": { "Name": "Эсфирь", "address": "Автомобильная ул., 18Б, Калининград, Россия", "longitude": 20.49206318146696, "latitude": 54.675543176023609 }, "geometry": { "type": "Point", "coordinates": [ 20.49206318146696, 54.675543176023609 ] } },
{ "type": "Feature", "properties": { "Name": "Дама шик", "address": "Ленинский просп., 31, Калининград, Россия", "longitude": 20.504510568834821, "latitude": 54.715511773519054 }, "geometry": { "type": "Point", "coordinates": [ 20.504510568834821, 54.715511773519054 ] } },
{ "type": "Feature", "properties": { "Name": "Вот это да!", "address": "Советский просп., 2А, Калининград, Россия", "longitude": 20.499391891460583, "latitude": 54.721723546648747 }, "geometry": { "type": "Point", "coordinates": [ 20.499391891460583, 54.721723546648747 ] } },
{ "type": "Feature", "properties": { "Name": "Привет пакет", "address": "Красная ул., 109, Калининград, Россия", "longitude": 20.473590264434016, "latitude": 54.734694973406896 }, "geometry": { "type": "Point", "coordinates": [ 20.473590264434016, 54.734694973406896 ] } },
{ "type": "Feature", "properties": { "Name": "Шляпный бутик", "address": "Ленинский просп., 13, Калининград, Россия", "longitude": 20.502784190770296, "latitude": 54.71728500008269 }, "geometry": { "type": "Point", "coordinates": [ 20.502784190770296, 54.71728500008269 ] } },
{ "type": "Feature", "properties": { "Name": "Одежда из Европы", "address": "просп. Победы, 69, Калининград, Россия", "longitude": 20.457223259942882, "latitude": 54.714060541337901 }, "geometry": { "type": "Point", "coordinates": [ 20.457223259942882, 54.714060541337901 ] } },
{ "type": "Feature", "properties": { "Name": "Tactical39.ru", "address": "Камская ул., 2Б, корп. 4, Калининград, Россия", "longitude": 20.457025095923949, "latitude": 54.681151363652518 }, "geometry": { "type": "Point", "coordinates": [ 20.457025095923949, 54.681151363652518 ] } },
{ "type": "Feature", "properties": { "Name": "1859 Store", "address": "Ореховая ул., 7-19, Калининград, Россия", "longitude": 20.504124316933286, "latitude": 54.698231365959174 }, "geometry": { "type": "Point", "coordinates": [ 20.504124316933286, 54.698231365959174 ] } },
{ "type": "Feature", "properties": { "Name": "Супер Цены", "address": "Железнодорожная ул., 7В, Калининград, Россия", "longitude": 20.500950333915824, "latitude": 54.693728130475847 }, "geometry": { "type": "Point", "coordinates": [ 20.500950333915824, 54.693728130475847 ] } },
{ "type": "Feature", "properties": { "Name": "Sunday", "address": "ул. Генерала Челнокова, 11, Калининград, Россия", "longitude": 20.487018395760817, "latitude": 54.737498955520067 }, "geometry": { "type": "Point", "coordinates": [ 20.487018395760817, 54.737498955520067 ] } },
{ "type": "Feature", "properties": { "Name": "Миледи", "address": "ул. Карла Маркса, 25, Калининград, Россия", "longitude": 20.475316642498523, "latitude": 54.726766759683585 }, "geometry": { "type": "Point", "coordinates": [ 20.475316642498523, 54.726766759683585 ] } },
{ "type": "Feature", "properties": { "Name": "Dressbar", "address": "Гостиная ул., 2, Калининград, Россия", "longitude": 20.487518843876742, "latitude": 54.719298701626172 }, "geometry": { "type": "Point", "coordinates": [ 20.487518843876742, 54.719298701626172 ] } },
{ "type": "Feature", "properties": { "Name": "Polska Moda", "address": "Полоцкая ул., 49, Калининград, Россия", "longitude": 20.499556468357895, "latitude": 54.702221746578729 }, "geometry": { "type": "Point", "coordinates": [ 20.499556468357895, 54.702221746578729 ] } },
{ "type": "Feature", "properties": { "Name": "Berg", "address": "ул. Профессора Баранова, 1, Калининград, Россия", "longitude": 20.513431308405597, "latitude": 54.721017446747524 }, "geometry": { "type": "Point", "coordinates": [ 20.513431308405597, 54.721017446747524 ] } },
{ "type": "Feature", "properties": { "Name": "Deux V", "address": "просп. Мира, 84, Калининград, Россия", "longitude": 20.449219448799386, "latitude": 54.721758463357652 }, "geometry": { "type": "Point", "coordinates": [ 20.449219448799386, 54.721758463357652 ] } },
{ "type": "Feature", "properties": { "Name": "Магазин одежды", "address": "Восточная ул., 1Б, Калининград, Россия", "longitude": 20.476814628134406, "latitude": 54.682079513894763 }, "geometry": { "type": "Point", "coordinates": [ 20.476814628134406, 54.682079513894763 ] } },
{ "type": "Feature", "properties": { "Name": "Triumph", "address": "Гвардейский просп., 3, Калининград, Россия", "longitude": 20.500147601702903, "latitude": 54.717942665054117 }, "geometry": { "type": "Point", "coordinates": [ 20.500147601702903, 54.717942665054117 ] } }
]
}
