{
"type": "FeatureCollection",
"crs": { "type": "name", "properties": { "name": "urn:ogc:def:crs:OGC:1.3:CRS84" } },
"features": [
{ "type": "Feature", "properties": { "Name": "Леонардо", "address": "площадь Победы, 10, Калининград, Россия", "url": "https://leonardo.ru/?utm_campaign=kgd&utm_medium=maps&utm_source=YandexMaps", "phone": "8 (800) 700-51-27", "hours": "ежедневно, 10:00–21:00", "longitude": 20.503589, "latitude": 54.71997 }, "geometry": { "type": "Point", "coordinates": [ 20.503589, 54.71997 ] } },
{ "type": "Feature", "properties": { "Name": "Рукоделоф", "address": "ул. Горького, 3, Калининград, Россия", "url": "http://rukodelof.com/", "phone": "+7 (906) 231-34-34", "hours": "ежедневно, 11:00–19:00", "longitude": 20.508073, "latitude": 54.723294 }, "geometry": { "type": "Point", "coordinates": [ 20.508073, 54.723294 ] } },
{ "type": "Feature", "properties": { "Name": "Арт тюбик", "address": "Ленинский просп., 100, Калининград, Россия", "url": "-", "phone": "+7 (4012) 64-11-99", "hours": "пн-сб 10:00–19:00; вс 10:00–18:00", "longitude": 20.499912, "latitude": 54.696089 }, "geometry": { "type": "Point", "coordinates": [ 20.499912, 54.696089 ] } },
{ "type": "Feature", "properties": { "Name": "Холст с маслом", "address": "ул. Летний пр., 33, Калининград, Россия", "url": "http://smaslom.ru/", "phone": "+7 (963) 738-87-38", "hours": "ежедневно, 10:00–20:00", "longitude": 20.491513, "latitude": 54.673152 }, "geometry": { "type": "Point", "coordinates": [ 20.491513, 54.673152 ] } },
{ "type": "Feature", "properties": { "Name": "Холст с маслом", "address": "площадь Победы, 4, Калининград, Россия", "url": "http://smaslom.ru/", "phone": "+7 (981) 476-69-99", "hours": "ежедневно, 10:00–20:00", "longitude": 20.500166, "latitude": 54.72067 }, "geometry": { "type": "Point", "coordinates": [ 20.500166, 54.72067 ] } },
{ "type": "Feature", "properties": { "Name": "Муза Карловна", "address": "Свободная ул., 2, Калининград, Россия", "url": "https://muzakarlovna.ru/", "phone": "+7 (4012) 95-70-01", "hours": "пн-пт 09:00–19:00; сб,вс 10:00–18:00", "longitude": 20.486644, "latitude": 54.719607 }, "geometry": { "type": "Point", "coordinates": [ 20.486644, 54.719607 ] } },
{ "type": "Feature", "properties": { "Name": "Холст с маслом", "address": "Ленинский просп., 9, Калининград, Россия", "url": "http://smaslom.ru/", "phone": "+7 (906) 238-97-92", "hours": "ежедневно, 10:00–20:00", "longitude": 20.502934, "latitude": 54.717692 }, "geometry": { "type": "Point", "coordinates": [ 20.502934, 54.717692 ] } },
{ "type": "Feature", "properties": { "Name": "Пластилин", "address": "Советский просп., 126, Калининград, Россия", "url": "http://plastil.in/", "phone": "+7 (963) 738-83-84", "hours": "пн-сб 10:00–19:00; вс 10:00–17:00", "longitude": 20.475999, "latitude": 54.740615 }, "geometry": { "type": "Point", "coordinates": [ 20.475999, 54.740615 ] } },
{ "type": "Feature", "properties": { "Name": "Дом рукоделий", "address": "ул. Александра Невского, 36В, Калининград, Россия", "url": "http://www.hobbyhome39.ru/", "phone": "+7 (952) 056-16-63", "hours": "пн 10:15–15:30; вт 10:15–17:45", "longitude": 20.528875, "latitude": 54.727847 }, "geometry": { "type": "Point", "coordinates": [ 20.528875, 54.727847 ] } },
{ "type": "Feature", "properties": { "Name": "Катарсис", "address": "Гаражная ул., 2А, Калининград, Россия", "url": "http://katarsis.company.site/", "phone": "+7 (4012) 61-10-77", "hours": "пн-сб 11:00–20:00; вс 12:00–18:00", "longitude": 20.506008, "latitude": 54.724562 }, "geometry": { "type": "Point", "coordinates": [ 20.506008, 54.724562 ] } },
{ "type": "Feature", "properties": { "Name": "Канцтовары", "address": "просп. Мира, 80, Калининград, Россия", "url": "-", "phone": "+7 (908) 290-47-40", "hours": "ежедневно, 10:00–19:00", "longitude": 20.478223, "latitude": 54.720598 }, "geometry": { "type": "Point", "coordinates": [ 20.478223, 54.720598 ] } },
{ "type": "Feature", "properties": { "Name": "Picasso", "address": "ул. Горького, 2, Калининград, Россия", "url": "-", "phone": "+7 (4012) 42-25-05", "hours": "ежедневно, 10:00–21:00", "longitude": 20.508617, "latitude": 54.721552 }, "geometry": { "type": "Point", "coordinates": [ 20.508617, 54.721552 ] } },
{ "type": "Feature", "properties": { "Name": "Дамское счастье", "address": "ул. Багратиона, 105, Калининград, Россия", "url": "-", "phone": "+7 (4012) 65-59-51", "hours": "ежедневно, 10:00–20:00", "longitude": 20.501364, "latitude": 54.698449 }, "geometry": { "type": "Point", "coordinates": [ 20.501364, 54.698449 ] } },
{ "type": "Feature", "properties": { "Name": "Рукоделие", "address": "Советский просп., 20, Калининград, Россия", "url": "http://fraunitka.ru/", "phone": "-", "hours": "пн-пт 10:00–20:00; сб 11:00–18:00", "longitude": 20.498513, "latitude": 54.724318 }, "geometry": { "type": "Point", "coordinates": [ 20.498513, 54.724318 ] } },
{ "type": "Feature", "properties": { "Name": "Магазин Лавка Творчества", "address": "ул. Карташева, 48, Калининград, Россия", "url": "-", "phone": "+7 (909) 796-74-60", "hours": "пн-сб 12:00–19:00", "longitude": 20.369416, "latitude": 54.722675 }, "geometry": { "type": "Point", "coordinates": [ 20.369416, 54.722675 ] } },
{ "type": "Feature", "properties": { "Name": "Клякса", "address": "ул. Ульяны Громовой, 99, Калининград, Россия", "url": "-", "phone": "+7 (952) 110-80-08", "hours": "пн-пт 10:00–19:00; сб,вс 11:00–18:00", "longitude": 20.501331, "latitude": 54.665545 }, "geometry": { "type": "Point", "coordinates": [ 20.501331, 54.665545 ] } },
{ "type": "Feature", "properties": { "Name": "Отличник", "address": "ул. Аксакова, 137, Калининград, Россия", "url": "-", "phone": "-", "hours": "ежедневно, 10:00–20:00", "longitude": 20.586253, "latitude": 54.711209 }, "geometry": { "type": "Point", "coordinates": [ 20.586253, 54.711209 ] } },
{ "type": "Feature", "properties": { "Name": "Мир рамок", "address": "Ленинский просп., 100, Калининград, Россия", "url": "http://artbaget39.ru/", "phone": "+7 (4012) 64-11-55", "hours": "пн-сб 10:00–19:00; вс 10:00–18:00", "longitude": 20.499881, "latitude": 54.696062 }, "geometry": { "type": "Point", "coordinates": [ 20.499881, 54.696062 ] } },
{ "type": "Feature", "properties": { "Name": "Канцтовары39", "address": "Советский просп., 192В, Калининград, Россия", "url": "-", "phone": "+7 (4012) 37-97-71", "hours": "пн-пт 09:00–18:00; сб 09:00–15:00", "longitude": 20.46696, "latitude": 54.74554 }, "geometry": { "type": "Point", "coordinates": [ 20.46696, 54.74554 ] } },
{ "type": "Feature", "properties": { "Name": "Веретено39", "address": "ул. Менделеева, 61В, Калининград, Россия", "url": "https://vereteno39.ru/", "phone": "+7 (952) 111-33-42", "hours": "-", "longitude": 20.437491, "latitude": 54.722494 }, "geometry": { "type": "Point", "coordinates": [ 20.437491, 54.722494 ] } },
{ "type": "Feature", "properties": { "Name": "КанцПарк", "address": "просп. Мира, 64, Калининград, Россия", "url": "http://www.offices39.ru/", "phone": "+7 (952) 119-00-11", "hours": "пн-сб 09:00–20:00; вс 10:00–20:00", "longitude": 20.481768, "latitude": 54.721205 }, "geometry": { "type": "Point", "coordinates": [ 20.481768, 54.721205 ] } },
{ "type": "Feature", "properties": { "Name": "Мел'Ок", "address": "ул. Старшины Дадаева, 58, Калининград, Россия", "url": "-", "phone": "+7 (911) 464-90-15", "hours": "ежедневно, 10:00–20:00", "longitude": 20.542553, "latitude": 54.729269 }, "geometry": { "type": "Point", "coordinates": [ 20.542553, 54.729269 ] } },
{ "type": "Feature", "properties": { "Name": "Mart", "address": "Дачная ул., 8, Калининград, Россия", "url": "http://martmart.ru/", "phone": "+7 (931) 604-35-70", "hours": "пн-сб 10:00–19:00; вс 11:00–16:00", "longitude": 20.545675, "latitude": 54.712515 }, "geometry": { "type": "Point", "coordinates": [ 20.545675, 54.712515 ] } },
{ "type": "Feature", "properties": { "Name": "Клякса", "address": "ул. Виктора Гакуна, 5, Калининград, Россия", "url": "-", "phone": "+7 (952) 110-80-08", "hours": "пн-пт 10:00–19:00; сб,вс 11:00–18:00", "longitude": 20.529539, "latitude": 54.748292 }, "geometry": { "type": "Point", "coordinates": [ 20.529539, 54.748292 ] } },
{ "type": "Feature", "properties": { "Name": "Волшебное руно", "address": "Интернациональная ул., 30, Калининград, Россия", "url": "-", "phone": "+7 (906) 230-33-79", "hours": "пн-сб 10:00–19:00; вс 10:00–18:00", "longitude": 20.501268, "latitude": 54.668888 }, "geometry": { "type": "Point", "coordinates": [ 20.501268, 54.668888 ] } },
{ "type": "Feature", "properties": { "Name": "Карандашик", "address": "ул. Генерала Челнокова, 11, лит.Ж, Калининград, Россия", "url": "-", "phone": "+7 (911) 499-12-88", "hours": "ежедневно, 10:00–20:00", "longitude": 20.486168, "latitude": 54.738045 }, "geometry": { "type": "Point", "coordinates": [ 20.486168, 54.738045 ] } },
{ "type": "Feature", "properties": { "Name": "Трудное детство", "address": "Серпуховская ул., 18, Калининград, Россия", "url": "https://knigaopt.ru/", "phone": "+7 (4012) 63-10-88", "hours": "пн-пт 10:00–18:00; сб 10:00–16:00", "longitude": 20.502189, "latitude": 54.703902 }, "geometry": { "type": "Point", "coordinates": [ 20.502189, 54.703902 ] } },
{ "type": "Feature", "properties": { "Name": "Товары для шитья и рукоделия", "address": "ул. Фрунзе, 15А, Калининград, Россия", "url": "-", "phone": "+7 (911) 455-15-12", "hours": "пн-пт 10:00–19:00; сб 10:00–15:00", "longitude": 20.521438, "latitude": 54.712872 }, "geometry": { "type": "Point", "coordinates": [ 20.521438, 54.712872 ] } },
{ "type": "Feature", "properties": { "Name": "Волшебница", "address": "ул. Горького, 195, Калининград, Россия", "url": "-", "phone": "-", "hours": "пн-пт 11:00–19:00, перерыв 14:00–15:00", "longitude": 20.504913, "latitude": 54.739639 }, "geometry": { "type": "Point", "coordinates": [ 20.504913, 54.739639 ] } },
{ "type": "Feature", "properties": { "Name": "Фрау Ниточка", "address": "Советский просп., 20, Калининград, Россия", "url": "http://fraunitka.ru/", "phone": "-", "hours": "пн-пт 09:00–20:00; сб,вс 10:00–20:00", "longitude": 20.49846, "latitude": 54.724299 }, "geometry": { "type": "Point", "coordinates": [ 20.49846, 54.724299 ] } },
{ "type": "Feature", "properties": { "Name": "Яркие Нитки", "address": "Нарвская ул., 112, Калининград, Россия", "url": "-", "phone": "+7 (911) 492-78-02", "hours": "пн-пт 10:00–20:00; сб,вс 11:00–19:00", "longitude": 20.499597, "latitude": 54.74245 }, "geometry": { "type": "Point", "coordinates": [ 20.499597, 54.74245 ] } },
{ "type": "Feature", "properties": { "Name": "Кот Ученый", "address": "ул. Сергеева, 10, Калининград, Россия", "url": "-", "phone": "+7 (906) 211-10-08", "hours": "пн-сб 11:00–18:00; вс 11:00–16:00", "longitude": 20.518187, "latitude": 54.717688 }, "geometry": { "type": "Point", "coordinates": [ 20.518187, 54.717688 ] } },
{ "type": "Feature", "properties": { "Name": "Bobinetta", "address": "Уральская ул., 7, Калининград, Россия", "url": "-", "phone": "+7 (911) 476-36-00", "hours": "пн-пт 11:00–19:00; сб 11:00–17:00", "longitude": 20.499317, "latitude": 54.724513 }, "geometry": { "type": "Point", "coordinates": [ 20.499317, 54.724513 ] } },
{ "type": "Feature", "properties": { "Name": "Wargame39 - Магазин-клуб настольных игр", "address": "ул. Карташева, 48, Калининград, Россия", "url": "http://wargame39.ru/", "phone": "+7 (900) 569-05-44", "hours": "ежедневно, 12:00–20:00", "longitude": 20.369409, "latitude": 54.722682 }, "geometry": { "type": "Point", "coordinates": [ 20.369409, 54.722682 ] } },
{ "type": "Feature", "properties": { "Name": "Магия рукоделия", "address": "Киевская ул., 95-101, Калининград, Россия", "url": "-", "phone": "+7 (952) 790-54-04", "hours": "пн-пт 10:00–19:00; сб,вс 10:00–18:00", "longitude": 20.474538, "latitude": 54.681095 }, "geometry": { "type": "Point", "coordinates": [ 20.474538, 54.681095 ] } },
{ "type": "Feature", "properties": { "Name": "Клубок", "address": "Московский просп., 40, Калининград, Россия", "url": "-", "phone": "+7 (911) 464-60-54", "hours": "пн-пт 11:00–19:00; сб 12:00–18:00", "longitude": 20.502371, "latitude": 54.70931 }, "geometry": { "type": "Point", "coordinates": [ 20.502371, 54.70931 ] } },
{ "type": "Feature", "properties": { "Name": "Шить красиво", "address": "ул. Профессора Баранова, 36, Калининград, Россия", "url": "-", "phone": "+7 (921) 005-01-11", "hours": "ежедневно, 10:00–18:00", "longitude": 20.504966, "latitude": 54.720706 }, "geometry": { "type": "Point", "coordinates": [ 20.504966, 54.720706 ] } },
{ "type": "Feature", "properties": { "Name": "Канцтовары", "address": "ул. Горького, 55, Калининград, Россия", "url": "-", "phone": "+7 (952) 797-44-26", "hours": "пн-пт 09:15–18:30; сб 11:30–16:00", "longitude": 20.508545, "latitude": 54.727741 }, "geometry": { "type": "Point", "coordinates": [ 20.508545, 54.727741 ] } },
{ "type": "Feature", "properties": { "Name": "Швейная фурнитура", "address": "ул. Мусоргского, 10, Калининград, Россия", "url": "-", "phone": "+7 (4012) 90-07-64", "hours": "пн-пт 09:00–17:30; сб 09:00–14:30", "longitude": 20.500645, "latitude": 54.727015 }, "geometry": { "type": "Point", "coordinates": [ 20.500645, 54.727015 ] } },
{ "type": "Feature", "properties": { "Name": "Biskvit. Su", "address": "Театральная ул., 35, Калининград, Россия", "url": "https://biskvit.su/", "phone": "+7 (921) 712-05-20", "hours": "-", "longitude": 20.497057, "latitude": 54.717413 }, "geometry": { "type": "Point", "coordinates": [ 20.497057, 54.717413 ] } },
{ "type": "Feature", "properties": { "Name": "Школа вязания Натальи Откосовой", "address": "ул. Багратиона, 45, Калининград, Россия", "url": "-", "phone": "+7 (911) 473-73-04", "hours": "вт 12:00–19:00; ср 12:00–21:00; чт,сб,вс 12:00–19:00", "longitude": 20.511044, "latitude": 54.699295 }, "geometry": { "type": "Point", "coordinates": [ 20.511044, 54.699295 ] } },
{ "type": "Feature", "properties": { "Name": "Рукодельница", "address": "ул. Генерала Челнокова, 11Г, Калининград, Россия", "url": "-", "phone": "+7 (911) 860-75-08", "hours": "вт-сб 10:00–19:00; вс 10:00–16:00", "longitude": 20.484854, "latitude": 54.738051 }, "geometry": { "type": "Point", "coordinates": [ 20.484854, 54.738051 ] } },
{ "type": "Feature", "properties": { "Name": "Рукоделие", "address": "ул. Беланова, 6, микрорайон Чкаловск, Калининград, Россия", "url": "-", "phone": "+7 (905) 246-26-81", "hours": "пн-пт 11:00–19:00; сб,вс 11:00–16:00", "longitude": 20.447759, "latitude": 54.771084 }, "geometry": { "type": "Point", "coordinates": [ 20.447759, 54.771084 ] } },
{ "type": "Feature", "properties": { "Name": "КанцПарк", "address": "Московский просп., 257, Калининград, Россия", "url": "http://kancpark39.ru/", "phone": "+7 (4012) 37-44-00", "hours": "ежедневно, 10:00–20:00", "longitude": 20.581041, "latitude": 54.707778 }, "geometry": { "type": "Point", "coordinates": [ 20.581041, 54.707778 ] } },
{ "type": "Feature", "properties": { "Name": "Хурма", "address": "Интернациональная ул., 30, Калининград, Россия", "url": "https://vk.link/pryazha_v_kld", "phone": "-", "hours": "ежедневно, 10:09–19:00", "longitude": 20.501197, "latitude": 54.668968 }, "geometry": { "type": "Point", "coordinates": [ 20.501197, 54.668968 ] } },
{ "type": "Feature", "properties": { "Name": "Товары для творчества", "address": "ул. Черняховского, 56, Калининград, Россия", "url": "-", "phone": "-", "hours": "-", "longitude": 20.513641, "latitude": 54.71972 }, "geometry": { "type": "Point", "coordinates": [ 20.513641, 54.71972 ] } },
{ "type": "Feature", "properties": { "Name": "Вышивка и рукоделие", "address": "Батальная ул., 62А, Калининград, Россия", "url": "-", "phone": "+7 (906) 213-21-58", "hours": "пн-пт 11:00–19:00; сб 11:00–18:00; вс 11:00–16:00", "longitude": 20.500028, "latitude": 54.674772 }, "geometry": { "type": "Point", "coordinates": [ 20.500028, 54.674772 ] } },
{ "type": "Feature", "properties": { "Name": "Рамки-Рамочки", "address": "ул. Горького, 1, Калининград, Россия", "url": "http://ramki-ramochki.ru/", "phone": "+7 (911) 855-60-39", "hours": "пн-сб 10:00–20:00; вс 10:00–19:00", "longitude": 20.507981, "latitude": 54.723213 }, "geometry": { "type": "Point", "coordinates": [ 20.507981, 54.723213 ] } },
{ "type": "Feature", "properties": { "Name": "Kenig_decor", "address": "Судостроительная ул., 6/1, Калининград, Россия", "url": "-", "phone": "+7 (950) 146-80-65", "hours": "пн-сб 09:00–20:00", "longitude": 20.486317, "latitude": 54.681125 }, "geometry": { "type": "Point", "coordinates": [ 20.486317, 54.681125 ] } },
{ "type": "Feature", "properties": { "Name": "Бижутерия и пряжа", "address": "ул. Карла Маркса, 46, Калининград, Россия", "url": "-", "phone": "+7 (911) 462-48-40", "hours": "пн-пт 11:00–19:00; сб 11:00–18:00", "longitude": 20.475539, "latitude": 54.726826 }, "geometry": { "type": "Point", "coordinates": [ 20.475539, 54.726826 ] } },
{ "type": "Feature", "properties": { "Name": "Hand made", "address": "Красная ул., 109, Калининград, Россия", "url": "-", "phone": "+7 (906) 237-56-84", "hours": "пн-пт 10:00–19:00, перерыв 13:00–13:30; сб 10:00–18:00", "longitude": 20.473604, "latitude": 54.734601 }, "geometry": { "type": "Point", "coordinates": [ 20.473604, 54.734601 ] } },
{ "type": "Feature", "properties": { "Name": "С иголочки", "address": "ул. Согласия, 50, Калининград, Россия", "url": "-", "phone": "+7 (921) 006-28-10", "hours": "пн-пт 10:00–19:00", "longitude": 20.485823, "latitude": 54.752125 }, "geometry": { "type": "Point", "coordinates": [ 20.485823, 54.752125 ] } },
{ "type": "Feature", "properties": { "Name": "Деко", "address": "Московский просп., 257, Калининград, Россия", "url": "-", "phone": "+7 (921) 007-99-44", "hours": "ежедневно, 09:00–20:00", "longitude": 20.581127, "latitude": 54.707702 }, "geometry": { "type": "Point", "coordinates": [ 20.581127, 54.707702 ] } },
{ "type": "Feature", "properties": { "Name": "3к", "address": "ул. Горького, 55, Калининград, Россия", "url": "-", "phone": "+7 (952) 111-68-18", "hours": "пн-пт 10:00–17:00; сб 10:00–15:00", "longitude": 20.509207, "latitude": 54.727706 }, "geometry": { "type": "Point", "coordinates": [ 20.509207, 54.727706 ] } },
{ "type": "Feature", "properties": { "Name": "Яркий мир", "address": "ул. Генерала Челнокова, 11А, Калининград, Россия", "url": "-", "phone": "+7 (900) 354-69-69", "hours": "пн-пт 11:00–18:30; сб,вс 11:00–16:00", "longitude": 20.48666, "latitude": 54.736902 }, "geometry": { "type": "Point", "coordinates": [ 20.48666, 54.736902 ] } },
{ "type": "Feature", "properties": { "Name": "Тюлька", "address": "ул. Аксакова, 137, Калининград, Россия", "url": "-", "phone": "+7 (921) 603-50-13", "hours": "ежедневно, 10:00–19:00", "longitude": 20.586718, "latitude": 54.71121 }, "geometry": { "type": "Point", "coordinates": [ 20.586718, 54.71121 ] } },
{ "type": "Feature", "properties": { "Name": "Валентина", "address": "ул. Черняховского, 14, Калининград, Россия", "url": "http://pryazha39.com/", "phone": "+7 (4012) 53-28-49", "hours": "пн-пт 09:00–19:30; сб,вс 10:00–18:30", "longitude": 20.506132267036136, "latitude": 54.719411540965538 }, "geometry": { "type": "Point", "coordinates": [ 20.506132267036136, 54.719411540965538 ] } },
{ "type": "Feature", "properties": { "Name": "Творческий", "address": "Советский просп., 20, Калининград, Россия", "url": "http://fraunitka.ru/", "phone": "+7 (906) 217-36-61", "hours": "пн-пт 09:00–20:00; сб,вс 10:00–20:00", "longitude": 20.498447533550461, "latitude": 54.724354177791803 }, "geometry": { "type": "Point", "coordinates": [ 20.498447533550461, 54.724354177791803 ] } },
{ "type": "Feature", "properties": { "Name": "Холст с маслом", "address": "Флотская ул., 3, Калининград, Россия", "url": "http://smaslom.ru/", "phone": "+7 (906) 237-74-75", "hours": "ежедневно, 10:00–20:00", "longitude": 20.588595368670745, "latitude": 54.712310780352119 }, "geometry": { "type": "Point", "coordinates": [ 20.588595368670745, 54.712310780352119 ] } },
{ "type": "Feature", "properties": { "Name": "Ультрамарин", "address": "просп. Победы, 3А, Калининград, Россия", "url": "http://alagonart.ru/", "phone": "+7 (4012) 95-51-22", "hours": "пн-пт 10:00–19:00; сб,вс 10:00–18:00", "longitude": 20.474795482324062, "latitude": 54.718821798369802 }, "geometry": { "type": "Point", "coordinates": [ 20.474795482324062, 54.718821798369802 ] } },
{ "type": "Feature", "properties": { "Name": "Рукавичка", "address": "ул. Сергеева, 2, Калининград, Россия", "url": "-", "phone": "+7 (902) 418-40-03", "hours": "вт 11:00–19:00; ср 11:00–16:00; пт 11:00–18:00; сб 12:00–15:00", "longitude": 20.514394699018112, "latitude": 54.714732163044324 }, "geometry": { "type": "Point", "coordinates": [ 20.514394699018112, 54.714732163044324 ] } },
{ "type": "Feature", "properties": { "Name": "Дамское счастье", "address": "просп. Мира, 49, Калининград, Россия", "url": "https://www.argo-ds.ru/", "phone": "+7 (4012) 93-25-00", "hours": "ежедневно, 10:00–20:00", "longitude": 20.481257644573372, "latitude": 54.720195264559592 }, "geometry": { "type": "Point", "coordinates": [ 20.481257644573372, 54.720195264559592 ] } },
{ "type": "Feature", "properties": { "Name": "Карандаш и Кисточка", "address": "ул. Юрия Гагарина, 55А, Калининград, Россия", "url": "-", "phone": "+7 (906) 239-85-89", "hours": "пн-сб 10:00–19:00; вс 10:00–18:00", "longitude": 20.541895834411726, "latitude": 54.720559962452263 }, "geometry": { "type": "Point", "coordinates": [ 20.541895834411726, 54.720559962452263 ] } },
{ "type": "Feature", "properties": { "Name": "Канцтовары", "address": "Флотская ул., 9, Калининград, Россия", "url": "-", "phone": "+7 (921) 853-71-21", "hours": "пн-пт 10:00–19:00; сб,вс 11:00–18:00", "longitude": 20.588662542914491, "latitude": 54.70855424669346 }, "geometry": { "type": "Point", "coordinates": [ 20.588662542914491, 54.70855424669346 ] } },
{ "type": "Feature", "properties": { "Name": "Ажур 39", "address": "ул. Грига, 2, Калининград, Россия", "url": "http://ajour39.ru/", "phone": "+7 (981) 476-08-76", "hours": "пн-пт 10:00–19:00; сб,вс 11:00–17:00", "longitude": 20.531739088755856, "latitude": 54.710556739761792 }, "geometry": { "type": "Point", "coordinates": [ 20.531739088755856, 54.710556739761792 ] } },
{ "type": "Feature", "properties": { "Name": "Модная пряжа", "address": "Нарвская ул., 68А, Калининград, Россия", "url": "-", "phone": "+7 (906) 210-75-75", "hours": "пн-сб 10:00–19:00; вс 10:00–18:00", "longitude": 20.497943726722298, "latitude": 54.736083737997127 }, "geometry": { "type": "Point", "coordinates": [ 20.497943726722298, 54.736083737997127 ] } },
{ "type": "Feature", "properties": { "Name": "Клубок", "address": "Московский просп., 172, Калининград, Россия", "url": "http://klubok39.ru/", "phone": "+7 (4012) 50-87-15", "hours": "пн-пт 10:00–19:00; сб 11:00–18:00", "longitude": 20.542312314723016, "latitude": 54.709415796528468 }, "geometry": { "type": "Point", "coordinates": [ 20.542312314723016, 54.709415796528468 ] } },
{ "type": "Feature", "properties": { "Name": "Золушка Zewseya", "address": "просп. Победы, 88, Калининград, Россия", "url": "-", "phone": "+7 (911) 061-54-01", "hours": "пн,вт,чт,пт,сб 10:30–18:00", "longitude": 20.442511540775051, "latitude": 54.710960331042706 }, "geometry": { "type": "Point", "coordinates": [ 20.442511540775051, 54.710960331042706 ] } },
{ "type": "Feature", "properties": { "Name": "Пани Ани", "address": "Ленинский просп., 67Б, Калининград, Россия", "url": "-", "phone": "+7 (952) 117-53-18", "hours": "пн-пт 10:30–20:00; сб,вс 10:30–18:00", "longitude": 20.508080320105073, "latitude": 54.712838529928796 }, "geometry": { "type": "Point", "coordinates": [ 20.508080320105073, 54.712838529928796 ] } },
{ "type": "Feature", "properties": { "Name": "Мир пряжи", "address": "ул. Генерала Челнокова, 11А, Калининград, Россия", "url": "http://1001pinetka.ru/", "phone": "-", "hours": "ежедневно, 10:00–18:00", "longitude": 20.487115238628867, "latitude": 54.736859382862463 }, "geometry": { "type": "Point", "coordinates": [ 20.487115238628867, 54.736859382862463 ] } },
{ "type": "Feature", "properties": { "Name": "Опт Декор", "address": "Судостроительная ул., 103Б, Калининград, Россия", "url": "-", "phone": "+7 (908) 290-45-89", "hours": "пн-сб 09:00–18:00; вс 10:00–19:00", "longitude": 20.510189591359005, "latitude": 54.681301202453405 }, "geometry": { "type": "Point", "coordinates": [ 20.510189591359005, 54.681301202453405 ] } },
{ "type": "Feature", "properties": { "Name": "Artfreshmind", "address": "ул. Мусоргского, 10, корп. 5, Калининград, Россия", "url": "-", "phone": "-", "hours": "ежедневно, 10:00–22:00", "longitude": 20.502182421503296, "latitude": 54.726123138388964 }, "geometry": { "type": "Point", "coordinates": [ 20.502182421503296, 54.726123138388964 ] } },
{ "type": "Feature", "properties": { "Name": "Рамки-Рамочки", "address": "ул. Профессора Баранова, 43, Калининград, Россия", "url": "http://ramki-ramochki.ru/", "phone": "+7 (981) 450-57-24", "hours": "пн-сб 10:00–20:00; вс 10:00–19:00", "longitude": 20.506978662507468, "latitude": 54.720327176942085 }, "geometry": { "type": "Point", "coordinates": [ 20.506978662507468, 54.720327176942085 ] } },
{ "type": "Feature", "properties": { "Name": "Рамки-Рамочки", "address": "Интернациональная ул., 27А, Калининград, Россия", "url": "http://ramki-ramochki.ru/", "phone": "+7 (911) 467-68-67", "hours": "ежедневно, 10:00–19:00", "longitude": 20.501134503300722, "latitude": 54.669781095772215 }, "geometry": { "type": "Point", "coordinates": [ 20.501134503300722, 54.669781095772215 ] } },
{ "type": "Feature", "properties": { "Name": "Топодом", "address": "ул. Каблукова, 11А, Калининград, Россия", "url": "-", "phone": "-", "hours": "пн-пт 10:00–19:00; сб 11:00–17:00", "longitude": 20.369936487821317, "latitude": 54.723438632777196 }, "geometry": { "type": "Point", "coordinates": [ 20.369936487821317, 54.723438632777196 ] } }
]
}
