{
"type": "FeatureCollection",
"name": "doityourself",
"crs": { "type": "name", "properties": { "name": "urn:ogc:def:crs:OGC:1.3:CRS84" } },
"features": [
{ "type": "Feature", "properties": { "Name": "Сила", "address": "ул. Черняховского, 15, лит.Б, Калининград, Россия", "url": "-", "phone": "+7 (911) 459-10-21", "hours": "ежедневно, 08:30–18:00", "longitude": 20.511373, "latitude": 54.720557 }, "geometry": { "type": "Point", "coordinates": [ 20.511373, 54.720557 ] } },
{ "type": "Feature", "properties": { "Name": "Инструмент-39", "address": "Ленинский просп., 67Б, Калининград, Россия", "url": "http://instrument-39.ru/", "phone": "+7 (4012) 90-00-05", "hours": "пн-пт 10:00–19:00; сб 10:00–18:00", "longitude": 20.507936, "latitude": 54.712872 }, "geometry": { "type": "Point", "coordinates": [ 20.507936, 54.712872 ] } },
{ "type": "Feature", "properties": { "Name": "БолтМастер", "address": "Красносельская ул., 65, Калининград, Россия", "url": "http://boltmaster.pro/", "phone": "+7 (4012) 97-36-00", "hours": "пн-пт 09:00–19:00; сб,вс 10:00–16:00", "longitude": 20.442545, "latitude": 54.716552 }, "geometry": { "type": "Point", "coordinates": [ 20.442545, 54.716552 ] } },
{ "type": "Feature", "properties": { "Name": "Germaflex", "address": "ул. Багратиона, 41, Калининград, Россия", "url": "http://www.germaflex.ru/", "phone": "+7 (4012) 64-61-78", "hours": "пн-пт 09:00–18:00; сб 09:00–16:00", "longitude": 20.511789, "latitude": 54.699383 }, "geometry": { "type": "Point", "coordinates": [ 20.511789, 54.699383 ] } },
{ "type": "Feature", "properties": { "Name": "Stihl", "address": "ул. Профессора Баранова, 2, Калининград, Россия", "url": "-", "phone": "+7 (909) 786-60-00", "hours": "ежедневно, 09:00–17:00", "longitude": 20.513294, "latitude": 54.722044 }, "geometry": { "type": "Point", "coordinates": [ 20.513294, 54.722044 ] } },
{ "type": "Feature", "properties": { "Name": "Техно Лидер", "address": "Советский просп., 192А, Калининград, Россия", "url": "http://www.instrument-39.ru/", "phone": "+7 (4012) 90-00-05", "hours": "пн-сб 09:00–18:00", "longitude": 20.467536, "latitude": 54.74552 }, "geometry": { "type": "Point", "coordinates": [ 20.467536, 54.74552 ] } },
{ "type": "Feature", "properties": { "Name": "Servis39.ru", "address": "Первомайская ул., 17, Калининград, Россия", "url": "http://servis39.ru/", "phone": "+7 (4012) 40-05-36", "hours": "пн-пт 09:00–18:00; сб 10:00–15:00", "longitude": 20.514486, "latitude": 54.734866 }, "geometry": { "type": "Point", "coordinates": [ 20.514486, 54.734866 ] } },
{ "type": "Feature", "properties": { "Name": "Завхоз39.ру", "address": "ул. Аллея Смелых, 31Г, Калининград, Россия", "url": "http://zavhoz39.ru/", "phone": "+7 (4012) 92-25-66", "hours": "пн-пт 09:00–18:00; сб 10:00–16:00", "longitude": 20.523605, "latitude": 54.688678 }, "geometry": { "type": "Point", "coordinates": [ 20.523605, 54.688678 ] } },
{ "type": "Feature", "properties": { "Name": "Мир инструмента", "address": "ул. Александра Невского, 137, Калининград, Россия", "url": "https://instrument39.ru/", "phone": "+7 (4012) 36-52-10", "hours": "пн-пт 09:00–18:00; сб 09:00–14:00", "longitude": 20.531285, "latitude": 54.741746 }, "geometry": { "type": "Point", "coordinates": [ 20.531285, 54.741746 ] } },
{ "type": "Feature", "properties": { "Name": "Инструменты", "address": "ул. Генерала Челнокова, 37, Калининград, Россия", "url": "-", "phone": "+7 (906) 234-04-89", "hours": "ежедневно, 09:00–18:00", "longitude": 20.483224, "latitude": 54.743506 }, "geometry": { "type": "Point", "coordinates": [ 20.483224, 54.743506 ] } },
{ "type": "Feature", "properties": { "Name": "Вюрт Маркет", "address": "Московский просп., 262, Калининград, Россия", "url": "https://wuerthmarket.ru/", "phone": "+7 (4012) 21-87-59", "hours": "пн-пт 09:00–18:00, перерыв 13:00–13:30", "longitude": 20.583008, "latitude": 54.706422 }, "geometry": { "type": "Point", "coordinates": [ 20.583008, 54.706422 ] } },
{ "type": "Feature", "properties": { "Name": "Магазин инструмента", "address": "ул. Подполковника Емельянова, 228А, Калининград, Россия", "url": "-", "phone": "-", "hours": "-", "longitude": 20.578208, "latitude": 54.681639 }, "geometry": { "type": "Point", "coordinates": [ 20.578208, 54.681639 ] } },
{ "type": "Feature", "properties": { "Name": "Ящик инструментов", "address": "ул. Профессора Баранова, 2, Калининград, Россия", "url": "-", "phone": "+7 (952) 053-60-17", "hours": "ежедневно, 09:00–18:00", "longitude": 20.513657, "latitude": 54.722159 }, "geometry": { "type": "Point", "coordinates": [ 20.513657, 54.722159 ] } },
{ "type": "Feature", "properties": { "Name": "ПРОвар - Сварочное оборудование", "address": "ул. Дзержинского, 136, Калининград, Россия", "url": "https://provar.shop/", "phone": "+7 (911) 460-91-00", "hours": "пн-пт 08:00–18:00; сб 10:00–15:00", "longitude": 20.532043, "latitude": 54.681755 }, "geometry": { "type": "Point", "coordinates": [ 20.532043, 54.681755 ] } },
{ "type": "Feature", "properties": { "Name": "Инструмент", "address": "Московский просп., 277, Калининград, Россия", "url": "-", "phone": "-", "hours": "-", "longitude": 20.589289, "latitude": 54.70634 }, "geometry": { "type": "Point", "coordinates": [ 20.589289, 54.70634 ] } },
{ "type": "Feature", "properties": { "Name": "ПанДом", "address": "Киевская ул., 95, Калининград, Россия", "url": "-", "phone": "-", "hours": "пн-пт 10:00–19:00; сб,вс 10:00–18:00", "longitude": 20.475465, "latitude": 54.681057 }, "geometry": { "type": "Point", "coordinates": [ 20.475465, 54.681057 ] } },
{ "type": "Feature", "properties": { "Name": "Электро и бензоинструмент", "address": "Партизанская ул., 2Б, Калининград, Россия", "url": "-", "phone": "-", "hours": "ежедневно, 10:00–16:00", "longitude": 20.511232, "latitude": 54.721619 }, "geometry": { "type": "Point", "coordinates": [ 20.511232, 54.721619 ] } },
{ "type": "Feature", "properties": { "Name": "Электро- и бензоинструмент", "address": "ул. Профессора Баранова, 2, Калининград, Россия", "url": "-", "phone": "+7 (911) 485-24-13", "hours": "ежедневно, 09:00–16:30", "longitude": 20.513365, "latitude": 54.722102 }, "geometry": { "type": "Point", "coordinates": [ 20.513365, 54.722102 ] } },
{ "type": "Feature", "properties": { "Name": "Инструменты", "address": "ул. Тенистая Аллея, 67, Калининград, Россия", "url": "-", "phone": "-", "hours": "ежедневно, 09:00–18:00", "longitude": 20.421087, "latitude": 54.721236 }, "geometry": { "type": "Point", "coordinates": [ 20.421087, 54.721236 ] } },
{ "type": "Feature", "properties": { "Name": "Прогресс инструмент", "address": "Партизанская ул., 2Б, Калининград, Россия", "url": "-", "phone": "-", "hours": "ежедневно, 10:00–16:00", "longitude": 20.511203, "latitude": 54.721672 }, "geometry": { "type": "Point", "coordinates": [ 20.511203, 54.721672 ] } },
{ "type": "Feature", "properties": { "Name": "Электро- и бензоинструмент", "address": "просп. Мира, 144Б, Калининград, Россия", "url": "-", "phone": "-", "hours": "-", "longitude": 20.448546, "latitude": 54.721729 }, "geometry": { "type": "Point", "coordinates": [ 20.448546, 54.721729 ] } },
{ "type": "Feature", "properties": { "Name": "Инструмент", "address": "ул. Богдана Хмельницкого, 17, Калининград, Россия", "url": "https://instrumentshop39.ru/", "phone": "+7 (908) 290-49-99", "hours": "пн-пт 09:00–19:00; сб 11:00–17:00; вс 11:00–16:00", "longitude": 20.503187796018054, "latitude": 54.697261206819668 }, "geometry": { "type": "Point", "coordinates": [ 20.503187796018054, 54.697261206819668 ] } },
{ "type": "Feature", "properties": { "Name": "Профиль", "address": "Московский просп., 275, Калининград, Россия", "url": "http://www.profinst.ru/", "phone": "+7 (4012) 55-52-73", "hours": "пн-пт 09:00–18:00", "longitude": 20.588579694680146, "latitude": 54.706556182678234 }, "geometry": { "type": "Point", "coordinates": [ 20.588579694680146, 54.706556182678234 ] } },
{ "type": "Feature", "properties": { "Name": "Germaflex", "address": "ул. Подполковника Емельянова, 228А, Калининград, Россия", "url": "http://www.germaflex.ru/", "phone": "+7 (4012) 72-00-55", "hours": "пн-пт 09:00–18:00; сб 09:00–16:00", "longitude": 20.578418470741365, "latitude": 54.681541331733236 }, "geometry": { "type": "Point", "coordinates": [ 20.578418470741365, 54.681541331733236 ] } },
{ "type": "Feature", "properties": { "Name": "Инструменты", "address": "ул. Александра Суворова, 46А, Калининград, Россия", "url": "http://www.intools.ru/", "phone": "+7 (4012) 69-00-00", "hours": "пн-пт 09:00–17:00", "longitude": 20.469327498882304, "latitude": 54.692962336617548 }, "geometry": { "type": "Point", "coordinates": [ 20.469327498882304, 54.692962336617548 ] } },
{ "type": "Feature", "properties": { "Name": "Новый круг", "address": "Камская ул., 49, Калининград, Россия", "url": "https://noviykrug.ru/", "phone": "+7 (4012) 65-31-14", "hours": "пн-пт 09:00–16:45", "longitude": 20.465610524061169, "latitude": 54.672437431861518 }, "geometry": { "type": "Point", "coordinates": [ 20.465610524061169, 54.672437431861518 ] } },
{ "type": "Feature", "properties": { "Name": "Эвокс", "address": "ул. Александра Невского, 54, Калининград, Россия", "url": "http://festool.com/legal-links", "phone": "+7 (909) 838-88-88", "hours": "пн-пт 10:00–15:00", "longitude": 20.532126460227964, "latitude": 54.731656460667374 }, "geometry": { "type": "Point", "coordinates": [ 20.532126460227964, 54.731656460667374 ] } },
{ "type": "Feature", "properties": { "Name": "Юпитер", "address": "Московский просп., 253, Калининград, Россия", "url": "http://www.upiter-tech.ru/", "phone": "+7 (4012) 51-07-77", "hours": "пн-пт 09:00–18:00", "longitude": 20.577348161124213, "latitude": 54.708243126977365 }, "geometry": { "type": "Point", "coordinates": [ 20.577348161124213, 54.708243126977365 ] } },
{ "type": "Feature", "properties": { "Name": "Технополис", "address": "ул. Генерала Челнокова, 35, Калининград, Россия", "url": "http://tps39.ru/", "phone": "+7 (4012) 77-00-06", "hours": "ежедневно, 09:00–18:00", "longitude": 20.483425133505175, "latitude": 54.743257240127356 }, "geometry": { "type": "Point", "coordinates": [ 20.483425133505175, 54.743257240127356 ] } },
{ "type": "Feature", "properties": { "Name": "Utake.ru", "address": "Ялтинская ул., 129, Калининград, Россия", "url": "https://kaliningrad.utake.ru/", "phone": "8 (800) 777-35-42", "hours": "пн-пт 08:30–17:00", "longitude": 20.567549678101731, "latitude": 54.70215737828115 }, "geometry": { "type": "Point", "coordinates": [ 20.567549678101731, 54.70215737828115 ] } },
{ "type": "Feature", "properties": { "Name": "Stihl Viking", "address": "ул. Генерала Челнокова, 35, Калининград, Россия", "url": "http://shop.tps39.ru/", "phone": "+7 (4012) 77-00-06", "hours": "ежедневно, 09:00–18:00", "longitude": 20.483308698149337, "latitude": 54.743329621457448 }, "geometry": { "type": "Point", "coordinates": [ 20.483308698149337, 54.743329621457448 ] } },
{ "type": "Feature", "properties": { "Name": "Стройхозтовары", "address": "ул. Олега Кошевого, 17, Калининград, Россия", "url": "-", "phone": "+7 (4012) 75-06-07", "hours": "пн-сб 10:00–19:00", "longitude": 20.512354841149207, "latitude": 54.673638973564678 }, "geometry": { "type": "Point", "coordinates": [ 20.512354841149207, 54.673638973564678 ] } },
{ "type": "Feature", "properties": { "Name": "Профессионал", "address": "Курганская ул., 3, Калининград, Россия", "url": "-", "phone": "+7 (921) 261-90-60", "hours": "пн-пт 09:00–17:00", "longitude": 20.487563066920526, "latitude": 54.730893645387496 }, "geometry": { "type": "Point", "coordinates": [ 20.487563066920526, 54.730893645387496 ] } },
{ "type": "Feature", "properties": { "Name": "ХодТех", "address": "ул. Аллея Смелых, 265/1, Калининград, Россия", "url": "http://xodtex.business.site/", "phone": "+7 (952) 050-40-39", "hours": "пн-пт 09:00–18:00; сб 10:00–16:00", "longitude": 20.516725645276225, "latitude": 54.664825978765691 }, "geometry": { "type": "Point", "coordinates": [ 20.516725645276225, 54.664825978765691 ] } },
{ "type": "Feature", "properties": { "Name": "Моторная техника", "address": "просп. Калинина, 83, Калининград, Россия", "url": "-", "phone": "+7 (4012) 64-23-36", "hours": "пн-пт 09:00–17:00", "longitude": 20.513165410357217, "latitude": 54.695439224729625 }, "geometry": { "type": "Point", "coordinates": [ 20.513165410357217, 54.695439224729625 ] } },
{ "type": "Feature", "properties": { "Name": "Электроинструмент", "address": "просп. Мира, 142, Калининград, Россия", "url": "-", "phone": "-", "hours": "ежедневно, 10:00–19:00", "longitude": 20.449493183842776, "latitude": 54.721151619607511 }, "geometry": { "type": "Point", "coordinates": [ 20.449493183842776, 54.721151619607511 ] } },
{ "type": "Feature", "properties": { "Name": "Ремонт электро-бензо инструмента", "address": "ул. Горького, 107, Калининград, Россия", "url": "http://gorkogo107.ru/", "phone": "+7 (911) 472-80-51", "hours": "пн-пт 09:00–18:00; сб,вс 10:00–16:00", "longitude": 20.508481126426016, "latitude": 54.73529708966236 }, "geometry": { "type": "Point", "coordinates": [ 20.508481126426016, 54.73529708966236 ] } },
{ "type": "Feature", "properties": { "Name": "ЗИП 39", "address": "ул. Генерала Челнокова, 33, Калининград, Россия", "url": "http://www.zip-39.ru/", "phone": "+7 (911) 451-87-73", "hours": "пн-пт 09:00–18:00; сб,вс 09:00–16:00", "longitude": 20.483756526441042, "latitude": 54.742481717758885 }, "geometry": { "type": "Point", "coordinates": [ 20.483756526441042, 54.742481717758885 ] } },
{ "type": "Feature", "properties": { "Name": "Группа компаний комплекс", "address": "Двинская ул., 91А, Калининград, Россия", "url": "-", "phone": "+7 (4012) 52-37-00", "hours": "пн-пт 09:00–18:00", "longitude": 20.526819694971245, "latitude": 54.657334854302512 }, "geometry": { "type": "Point", "coordinates": [ 20.526819694971245, 54.657334854302512 ] } },
{ "type": "Feature", "properties": { "Name": "Атомото", "address": "ул. Аллея Смелых, 31Г, корп. 4, Калининград, Россия", "url": "https://atomoto.ru/servisnyy-tsentr/", "phone": "+7 (911) 480-01-36", "hours": "пн-пт 09:00–18:00; сб 10:00–16:00", "longitude": 20.524817902507333, "latitude": 54.688585354877482 }, "geometry": { "type": "Point", "coordinates": [ 20.524817902507333, 54.688585354877482 ] } },
{ "type": "Feature", "properties": { "Name": "Бензопилы", "address": "ул. Дзержинского, 79, корп. 14, Калининград, Россия", "url": "-", "phone": "+7 (950) 677-88-11", "hours": "вт-пт 09:00–18:00; сб,вс 09:00–16:00", "longitude": 20.534737299168572, "latitude": 54.684202723404034 }, "geometry": { "type": "Point", "coordinates": [ 20.534737299168572, 54.684202723404034 ] } },
{ "type": "Feature", "properties": { "Name": "АлмазСервис", "address": "Запорожская ул., 5В, Калининград, Россия", "url": "-", "phone": "+7 (963) 738-42-25", "hours": "ежедневно, 10:00–19:00", "longitude": 20.53518064917737, "latitude": 54.693958804035908 }, "geometry": { "type": "Point", "coordinates": [ 20.53518064917737, 54.693958804035908 ] } },
{ "type": "Feature", "properties": { "Name": "Storent", "address": "4-я Большая Окружная ул., 33, Калининград, Россия", "url": "https://www.storent.com/", "phone": "+7 (4012) 77-62-22", "hours": "пн-пт 08:00–17:00", "longitude": 20.559990336537773, "latitude": 54.751014231698136 }, "geometry": { "type": "Point", "coordinates": [ 20.559990336537773, 54.751014231698136 ] } },
{ "type": "Feature", "properties": { "Name": "Зубр", "address": "просп. Победы, 139А, Калининград, Россия", "url": "-", "phone": "-", "hours": "-", "longitude": 20.441526318533374, "latitude": 54.710475891666725 }, "geometry": { "type": "Point", "coordinates": [ 20.441526318533374, 54.710475891666725 ] } },
{ "type": "Feature", "properties": { "Name": "R. A. T.", "address": "Нарвская ул., 54, корп. 2, Калининград, Россия", "url": "-", "phone": "+7 (900) 346-14-66", "hours": "пн-пт 10:00–17:00", "longitude": 20.498275119658089, "latitude": 54.733078620302301 }, "geometry": { "type": "Point", "coordinates": [ 20.498275119658089, 54.733078620302301 ] } },
{ "type": "Feature", "properties": { "Name": "Stihl", "address": "ул. Горького, 107, Калининград, Россия", "url": "-", "phone": "+7 (911) 472-80-51", "hours": "пн-пт 09:00–18:00; сб 10:00–16:00", "longitude": 20.508355734504342, "latitude": 54.735364314110349 }, "geometry": { "type": "Point", "coordinates": [ 20.508355734504342, 54.735364314110349 ] } },
{ "type": "Feature", "properties": { "Name": "Инструмент", "address": "ул. Черняховского, 15, лит.Б, Калининград, Россия", "url": "-", "phone": "-", "hours": "-", "longitude": 20.510881486069533, "latitude": 54.720882626823958 }, "geometry": { "type": "Point", "coordinates": [ 20.510881486069533, 54.720882626823958 ] } },
{ "type": "Feature", "properties": { "Name": "Klingspor", "address": "Советский просп., 274, Калининград, Россия", "url": "-", "phone": "+7 (911) 463-07-19", "hours": "пн-пт 09:00–17:00", "longitude": 20.447760088353892, "latitude": 54.757100400573961 }, "geometry": { "type": "Point", "coordinates": [ 20.447760088353892, 54.757100400573961 ] } },
{ "type": "Feature", "properties": { "Name": "Husqvara", "address": "ул. Аллея Смелых, 31Г, Калининград, Россия", "url": "-", "phone": "-", "hours": "пн-сб 09:00–18:00", "longitude": 20.523743114607242, "latitude": 54.688740666861271 }, "geometry": { "type": "Point", "coordinates": [ 20.523743114607242, 54.688740666861271 ] } }
]
}
