{
"type": "FeatureCollection",
"features": [
{ "type": "Feature", "properties": { "Name": "М.Видео", "address": "ул. Профессора Баранова, 40, ТРЦ Европа", "latitude": 54.718599996864, "longitude": 20.499109970637999 }, "geometry": { "type": "Point", "coordinates": [ 20.499109970637999, 54.718599996864 ] } },
{ "type": "Feature", "properties": { "Name": "IRoom-store", "address": "ул. Профессора Баранова, 34, этаж 1", "latitude": 54.721149981358003, "longitude": 20.506389988822001 }, "geometry": { "type": "Point", "coordinates": [ 20.506389988822001, 54.721149981358003 ] } },
{ "type": "Feature", "properties": { "Name": "IPlatinum", "address": "Октябрьская ул., 37", "latitude": 54.701859995117999, "longitude": 20.517349997776002 }, "geometry": { "type": "Point", "coordinates": [ 20.517349997776002, 54.701859995117999 ] } },
{ "type": "Feature", "properties": { "Name": "Цифра", "address": "Ленинский просп., 9", "latitude": 54.717879991380997, "longitude": 20.502879983048 }, "geometry": { "type": "Point", "coordinates": [ 20.502879983048, 54.717879991380997 ] } },
{ "type": "Feature", "properties": { "Name": "Протехника", "address": "Нарвская ул., 6А", "latitude": 54.727779982949997, "longitude": 20.495589990399999 }, "geometry": { "type": "Point", "coordinates": [ 20.495589990399999, 54.727779982949997 ] } },
{ "type": "Feature", "properties": { "Name": "Техногид", "address": "Ленинский просп., 4, этаж цокольный", "latitude": 54.715859994626001, "longitude": 20.502849975835002 }, "geometry": { "type": "Point", "coordinates": [ 20.502849975835002, 54.715859994626001 ] } },
{ "type": "Feature", "properties": { "Name": "Мобилион", "address": "ул. Генерала Галицкого, 4Б, этаж 1", "latitude": 54.716399998737998, "longitude": 20.499150036134999 }, "geometry": { "type": "Point", "coordinates": [ 20.499150036134999, 54.716399998737998 ] } },
{ "type": "Feature", "properties": { "Name": "ICenter Apple Premium Reseller", "address": "Театральная ул., 30, этаж 1", "latitude": 54.717749988062998, "longitude": 20.498990025604002 }, "geometry": { "type": "Point", "coordinates": [ 20.498990025604002, 54.717749988062998 ] } },
{ "type": "Feature", "properties": { "Name": "Sony Centre", "address": "ул. Профессора Баранова, 40", "latitude": 54.718599996864, "longitude": 20.499109970637999 }, "geometry": { "type": "Point", "coordinates": [ 20.499109970637999, 54.718599996864 ] } },
{ "type": "Feature", "properties": { "Name": "Xiaomi", "address": "Театральная ул., 30, этаж 1", "latitude": 54.717749988062998, "longitude": 20.498990025604002 }, "geometry": { "type": "Point", "coordinates": [ 20.498990025604002, 54.717749988062998 ] } },
{ "type": "Feature", "properties": { "Name": "Online", "address": "Театральная ул., 17", "latitude": 54.716380007898998, "longitude": 20.501520019257999 }, "geometry": { "type": "Point", "coordinates": [ 20.501520019257999, 54.716380007898998 ] } },
{ "type": "Feature", "properties": { "Name": "Samsung", "address": "Театральная ул., 30, этаж 1", "latitude": 54.717749988062998, "longitude": 20.498990025604002 }, "geometry": { "type": "Point", "coordinates": [ 20.498990025604002, 54.717749988062998 ] } },
{ "type": "Feature", "properties": { "Name": "Gastore.ru", "address": "Космическая ул., 2", "latitude": 54.717599993905999, "longitude": 20.58828000938 }, "geometry": { "type": "Point", "coordinates": [ 20.58828000938, 54.717599993905999 ] } },
{ "type": "Feature", "properties": { "Name": "Xiaomi", "address": "ул. Черняховского, 6А", "latitude": 54.718910001552999, "longitude": 20.503580039601999 }, "geometry": { "type": "Point", "coordinates": [ 20.503580039601999, 54.718910001552999 ] } },
{ "type": "Feature", "properties": { "Name": "Сохо", "address": "ул. Профессора Баранова, 34, этаж -1", "latitude": 54.721149981358003, "longitude": 20.506389988822001 }, "geometry": { "type": "Point", "coordinates": [ 20.506389988822001, 54.721149981358003 ] } },
{ "type": "Feature", "properties": { "Name": "DNS", "address": "Ленинский просп., 30, этаж 2", "latitude": 54.711210008110001, "longitude": 20.508229984206999 }, "geometry": { "type": "Point", "coordinates": [ 20.508229984206999, 54.711210008110001 ] } },
{ "type": "Feature", "properties": { "Name": "KDmarket.ru", "address": "площадь Победы, 4, этаж 1", "latitude": 54.720830002204004, "longitude": 20.499880016083001 }, "geometry": { "type": "Point", "coordinates": [ 20.499880016083001, 54.720830002204004 ] } },
{ "type": "Feature", "properties": { "Name": "gastore.ru", "address": "просп. Мира, 74, этаж цокольный", "latitude": 54.720899991095003, "longitude": 20.479869982451 }, "geometry": { "type": "Point", "coordinates": [ 20.479869982451, 54.720899991095003 ] } },
{ "type": "Feature", "properties": { "Name": "DNS", "address": "просп. Мира, 61", "latitude": 54.720439992248998, "longitude": 20.4735999836 }, "geometry": { "type": "Point", "coordinates": [ 20.4735999836, 54.720439992248998 ] } },
{ "type": "Feature", "properties": { "Name": "DNS", "address": "ул. Юрия Маточкина, 2А, Ленинградский район, микрорайон Сельма", "latitude": 54.740950006405001, "longitude": 20.488560004387001 }, "geometry": { "type": "Point", "coordinates": [ 20.488560004387001, 54.740950006405001 ] } },
{ "type": "Feature", "properties": { "Name": "Сохо", "address": "ул. Карла Маркса, 18, этаж 2", "latitude": 54.729219993915997, "longitude": 20.480840020106001 }, "geometry": { "type": "Point", "coordinates": [ 20.480840020106001, 54.729219993915997 ] } },
{ "type": "Feature", "properties": { "Name": "Gastore.ru", "address": "ул. Юрия Маточкина, 2А, Ленинградский район, микрорайон Сельма", "latitude": 54.740950006405001, "longitude": 20.488560004387001 }, "geometry": { "type": "Point", "coordinates": [ 20.488560004387001, 54.740950006405001 ] } },
{ "type": "Feature", "properties": { "Name": "DNS", "address": "Московский просп., 118", "latitude": 54.709589995774003, "longitude": 20.531339980908999 }, "geometry": { "type": "Point", "coordinates": [ 20.531339980908999, 54.709589995774003 ] } },
{ "type": "Feature", "properties": { "Name": "DNS", "address": "Ленинский просп., 84", "latitude": 54.69931998509, "longitude": 20.502610001947001 }, "geometry": { "type": "Point", "coordinates": [ 20.502610001947001, 54.69931998509 ] } },
{ "type": "Feature", "properties": { "Name": "Boom Store", "address": "ул. Фрунзе, 51, этаж 1", "latitude": 54.712839994911, "longitude": 20.526430029667001 }, "geometry": { "type": "Point", "coordinates": [ 20.526430029667001, 54.712839994911 ] } },
{ "type": "Feature", "properties": { "Name": "DNS", "address": "Киевская ул., 80, Калининград, этаж 2", "latitude": 54.681800005344002, "longitude": 20.474559962970002 }, "geometry": { "type": "Point", "coordinates": [ 20.474559962970002, 54.681800005344002 ] } },
{ "type": "Feature", "properties": { "Name": "Ультра", "address": "ул. Горького, 2, Калининград, подъезд 1, этаж 1", "latitude": 54.721559982152002, "longitude": 20.509249978004998 }, "geometry": { "type": "Point", "coordinates": [ 20.509249978004998, 54.721559982152002 ] } },
{ "type": "Feature", "properties": { "Name": "DNS", "address": "ул. Черняховского, 15, лит.Б, Калининград", "latitude": 54.721700001843999, "longitude": 20.513440007583 }, "geometry": { "type": "Point", "coordinates": [ 20.513440007583, 54.721700001843999 ] } },
{ "type": "Feature", "properties": { "Name": "Сохо", "address": "Артиллерийская ул., 22, Калининград", "latitude": 54.732100015847003, "longitude": 20.539899999527002 }, "geometry": { "type": "Point", "coordinates": [ 20.539899999527002, 54.732100015847003 ] } },
{ "type": "Feature", "properties": { "Name": "Иотроник", "address": "Комсомольская ул., 12, Калининград, 15, этаж 3", "latitude": 54.722609983162002, "longitude": 20.479530012458 }, "geometry": { "type": "Point", "coordinates": [ 20.479530012458, 54.722609983162002 ] } },
{ "type": "Feature", "properties": { "Name": "Сохо", "address": "ул. Куйбышева, 40, Калининград", "latitude": 54.724910019303003, "longitude": 20.538090011356001 }, "geometry": { "type": "Point", "coordinates": [ 20.538090011356001, 54.724910019303003 ] } },
{ "type": "Feature", "properties": { "Name": "Техно", "address": "ул. Черняховского, 15А, Калининград", "latitude": 54.720159994774001, "longitude": 20.508389994739002 }, "geometry": { "type": "Point", "coordinates": [ 20.508389994739002, 54.720159994774001 ] } },
{ "type": "Feature", "properties": { "Name": "Electronic", "address": "ул. Аксакова, 125, Калининград", "latitude": 54.711700014169999, "longitude": 20.579210035772999 }, "geometry": { "type": "Point", "coordinates": [ 20.579210035772999, 54.711700014169999 ] } },
{ "type": "Feature", "properties": { "Name": "Сохо", "address": "ул. Генерала Челнокова, 11, Калининград, этаж 1", "latitude": 54.738030002796002, "longitude": 20.486049959662001 }, "geometry": { "type": "Point", "coordinates": [ 20.486049959662001, 54.738030002796002 ] } },
{ "type": "Feature", "properties": { "Name": "Сохо", "address": "ул. Ульяны Громовой, 10, Калининград", "latitude": 54.672820011467003, "longitude": 20.500089982757 }, "geometry": { "type": "Point", "coordinates": [ 20.500089982757, 54.672820011467003 ] } },
{ "type": "Feature", "properties": { "Name": "Uima", "address": "площадь Победы, 10, Калининград, этаж 2", "latitude": 54.719599999822002, "longitude": 20.503890002380999 }, "geometry": { "type": "Point", "coordinates": [ 20.503890002380999, 54.719599999822002 ] } },
{ "type": "Feature", "properties": { "Name": "KenigSmart", "address": "Московский просп., 40, Калининград, офис 033, этаж цокольный", "latitude": 54.709370012725003, "longitude": 20.502689965302999 }, "geometry": { "type": "Point", "coordinates": [ 20.502689965302999, 54.709370012725003 ] } },
{ "type": "Feature", "properties": { "Name": "Xiaomi", "address": "Ленинский просп., 80, Калининград", "latitude": 54.71219, "longitude": 20.50964 }, "geometry": { "type": "Point", "coordinates": [ 20.50964, 54.71219 ] } },
{ "type": "Feature", "properties": { "Name": "Uniplace", "address": "Советский просп., 2А, Калининград", "latitude": 54.721600005738999, "longitude": 20.499320021132 }, "geometry": { "type": "Point", "coordinates": [ 20.499320021132, 54.721600005738999 ] } },
{ "type": "Feature", "properties": { "Name": "Xiaomi", "address": "Ленинский просп., 76, Калининград", "latitude": 54.71219, "longitude": 20.50964 }, "geometry": { "type": "Point", "coordinates": [ 20.50964, 54.71219 ] } },
{ "type": "Feature", "properties": { "Name": "Z Store", "address": "Ленинский просп., 26, Калининград, этаж 1", "latitude": 54.713130008760999, "longitude": 20.506240036573999 }, "geometry": { "type": "Point", "coordinates": [ 20.506240036573999, 54.713130008760999 ] } },
{ "type": "Feature", "properties": { "Name": "Розетка39", "address": "ул. 9 Апреля, 104, Калининград", "latitude": 54.720070015043, "longitude": 20.526900002978 }, "geometry": { "type": "Point", "coordinates": [ 20.526900002978, 54.720070015043 ] } },
{ "type": "Feature", "properties": { "Name": "Baltmaximus", "address": "Ленинский просп., 72, Калининград", "latitude": 54.71219, "longitude": 20.50964 }, "geometry": { "type": "Point", "coordinates": [ 20.50964, 54.71219 ] } },
{ "type": "Feature", "properties": { "Name": "Аvалон", "address": "площадь Маршала Василевского, 2, Калининград, этаж 1", "latitude": 54.719849990085002, "longitude": 20.523610022162998 }, "geometry": { "type": "Point", "coordinates": [ 20.523610022162998, 54.719849990085002 ] } },
{ "type": "Feature", "properties": { "Name": "Gastore.ru", "address": "Московский просп., 257, Калининград, этаж 1", "latitude": 54.707969983437998, "longitude": 20.580950035053 }, "geometry": { "type": "Point", "coordinates": [ 20.580950035053, 54.707969983437998 ] } },
{ "type": "Feature", "properties": { "Name": "Gastore.ru", "address": "ул. Литовский Вал, 2, Калининград, подъезд 3, этаж 1", "latitude": 54.719669057582998, "longitude": 20.52859332773 }, "geometry": { "type": "Point", "coordinates": [ 20.52859332773, 54.719669057582998 ] } },
{ "type": "Feature", "properties": { "Name": "DNS", "address": "бул. Любови Шевцовой, 1В, Калининград, этаж 2", "latitude": 54.671659997977002, "longitude": 20.501090027625001 }, "geometry": { "type": "Point", "coordinates": [ 20.501090027625001, 54.671659997977002 ] } },
{ "type": "Feature", "properties": { "Name": "М.Видео", "address": "ул. Николая Карамзина, 42, Калининград, ТЦ Балтийский пассаж", "latitude": 54.666292724706999, "longitude": 20.510619073744 }, "geometry": { "type": "Point", "coordinates": [ 20.510619073744, 54.666292724706999 ] } },
{ "type": "Feature", "properties": { "Name": "Microflash", "address": "ул. Генерал-Лейтенанта Захарова, 2, Калининград", "latitude": 54.735120015561002, "longitude": 20.472200038131 }, "geometry": { "type": "Point", "coordinates": [ 20.472200038131, 54.735120015561002 ] } },
{ "type": "Feature", "properties": { "Name": "Audioclan", "address": "Киевская ул., 121В, Калининград, офис 2, этаж цокольный", "latitude": 54.680229991060003, "longitude": 20.466079991528002 }, "geometry": { "type": "Point", "coordinates": [ 20.466079991528002, 54.680229991060003 ] } },
{ "type": "Feature", "properties": { "Name": "DNS", "address": "Московский просп., 257, Калининград, этаж 1", "latitude": 54.707969983437998, "longitude": 20.580950035053 }, "geometry": { "type": "Point", "coordinates": [ 20.580950035053, 54.707969983437998 ] } },
{ "type": "Feature", "properties": { "Name": "МТС", "address": "просп. Мира, 96, Калининград", "latitude": 54.721530016848, "longitude": 20.471050041015999 }, "geometry": { "type": "Point", "coordinates": [ 20.471050041015999, 54.721530016848 ] } },
{ "type": "Feature", "properties": { "Name": "DNS Технопоинт", "address": "Орудийная ул., 105, стр. 6, Калининград", "latitude": 54.747150016364998, "longitude": 20.562779996806 }, "geometry": { "type": "Point", "coordinates": [ 20.562779996806, 54.747150016364998 ] } },
{ "type": "Feature", "properties": { "Name": "Jobscalling", "address": "Житомирская ул., 6, Калининград, этаж 1", "latitude": 54.712199994694998, "longitude": 20.506389988822001 }, "geometry": { "type": "Point", "coordinates": [ 20.506389988822001, 54.712199994694998 ] } },
{ "type": "Feature", "properties": { "Name": "Номер раз", "address": "Малый пер., 32, Калининград", "latitude": 54.700490014953999, "longitude": 20.511100031672999 }, "geometry": { "type": "Point", "coordinates": [ 20.511100031672999, 54.700490014953999 ] } }
]
}
