{
"type": "FeatureCollection",
"name": "jewelry",
"features": [
{ "type": "Feature", "properties": { "Name": "Центр Ювелирного Сервиса", "address": "Зоологическая ул., 50", "latitude": 54.726909983310001, "longitude": 20.484829973655 }, "geometry": { "type": "Point", "coordinates": [ 20.484848640686266, 54.72695525815287 ] } },
{ "type": "Feature", "properties": { "Name": "Лазер ювелир 39", "address": "Ленинский просп., 7", "latitude": 54.717810002489998, "longitude": 20.502570020269001 }, "geometry": { "type": "Point", "coordinates": [ 20.502570020269001, 54.717810002489998 ] } },
{ "type": "Feature", "properties": { "Name": "Ювелирная мастерская", "address": "Зоологическая ул., 50", "latitude": 54.726909983310001, "longitude": 20.484829973655 }, "geometry": { "type": "Point", "coordinates": [ 20.484800106404975, 54.727032872058089 ] } },
{ "type": "Feature", "properties": { "Name": "Ювелирная мастерская Сулеймана", "address": "Больничная ул., 45, офис 22, этаж 2", "latitude": 54.711039981204998, "longitude": 20.503699984636 }, "geometry": { "type": "Point", "coordinates": [ 20.503699984636, 54.711039981204998 ] } },
{ "type": "Feature", "properties": { "Name": "Тигель Ригель", "address": "Кирпичная ул., 9, этаж 2", "latitude": 54.711410000320001, "longitude": 20.524019981047001 }, "geometry": { "type": "Point", "coordinates": [ 20.524019981047001, 54.711410000320001 ] } },
{ "type": "Feature", "properties": { "Name": "Ювелирная мастерская", "address": "ул. Космонавта Леонова, 48, этаж цокольный", "latitude": 54.731159985406002, "longitude": 20.481769992263001 }, "geometry": { "type": "Point", "coordinates": [ 20.481769992263001, 54.731159985406002 ] } },
{ "type": "Feature", "properties": { "Name": "Ювелирная студия Евгения Зиновьева", "address": "Гаражная ул., 2А", "latitude": 54.724479985761, "longitude": 20.505349962276 }, "geometry": { "type": "Point", "coordinates": [ 20.505349962276, 54.724479985761 ] } },
{ "type": "Feature", "properties": { "Name": "Ювелирная мастерская", "address": "просп. Победы, 3, этаж -1", "latitude": 54.719059995709998, "longitude": 20.474419985187001 }, "geometry": { "type": "Point", "coordinates": [ 20.474419985187001, 54.719059995709998 ] } },
{ "type": "Feature", "properties": { "Name": "Ювелир", "address": "Киевская ул., 83", "latitude": 54.681090016234997, "longitude": 20.477809962108001 }, "geometry": { "type": "Point", "coordinates": [ 20.477809962108001, 54.681090016234997 ] } },
{ "type": "Feature", "properties": { "Name": "Ювелир", "address": "ул. Черняховского, 15, лит.Б", "latitude": 54.721700001843999, "longitude": 20.513440007583 }, "geometry": { "type": "Point", "coordinates": [ 20.51275803870746, 54.720601750682356 ] } },
{ "type": "Feature", "properties": { "Name": "Ювелирная мастерская", "address": "ул. Фрунзе, 87", "latitude": 54.713290019292998, "longitude": 20.530809993171999 }, "geometry": { "type": "Point", "coordinates": [ 20.530809993171999, 54.713290019292998 ] } },
{ "type": "Feature", "properties": { "Name": "Ювелирная мастерская", "address": "ул. Генерал-Лейтенанта Захарова, 2, офис 10, этаж 1", "latitude": 54.735120015561002, "longitude": 20.472200038131 }, "geometry": { "type": "Point", "coordinates": [ 20.472200038131, 54.735120015561002 ] } },
{ "type": "Feature", "properties": { "Name": "Gugerr", "address": "ул. Габайдулина, 8А, этаж 1", "latitude": 54.766809979811001, "longitude": 20.446010027288001 }, "geometry": { "type": "Point", "coordinates": [ 20.445954466676277, 54.766871033526591 ] } },
{ "type": "Feature", "properties": { "Name": "Ювелирная мастерская", "address": "Интернациональная ул., 30", "latitude": 54.668830016008002, "longitude": 20.501130009303001 }, "geometry": { "type": "Point", "coordinates": [ 20.501130009303001, 54.668830016008002 ] } },
{ "type": "Feature", "properties": { "Name": "Ювелирная мастерская", "address": "Киевская ул., 95А, этаж 1", "latitude": 54.681019985433998, "longitude": 20.475320033949998 }, "geometry": { "type": "Point", "coordinates": [ 20.475320033949998, 54.681019985433998 ] } },
{ "type": "Feature", "properties": { "Name": "Amber. Town", "address": "Юношеская ул., 4, помещение 4", "latitude": 54.723229992539999, "longitude": 20.507270004835998 }, "geometry": { "type": "Point", "coordinates": [ 20.507329739336051, 54.723296114160554 ] } },
{ "type": "Feature", "properties": { "Name": "Ювелирная мастерская", "address": "Театральная ул., 21, этаж 1", "latitude": 54.716560009269003, "longitude": 20.500379996606998 }, "geometry": { "type": "Point", "coordinates": [ 20.500379996606998, 54.716560009269003 ] } },
{ "type": "Feature", "properties": { "Name": "Магия камня", "address": "ул. Горького, 3, этаж цокольный", "latitude": 54.723470008337998, "longitude": 20.508139962567 }, "geometry": { "type": "Point", "coordinates": [ 20.508139962567, 54.723470008337998 ] } },
{ "type": "Feature", "properties": { "Name": "Ювелирная мастерская", "address": "Советский просп., 159, корп. 3", "latitude": 54.742440015423, "longitude": 20.465250015475 }, "geometry": { "type": "Point", "coordinates": [ 20.465250015475, 54.742440015423 ] } },
{ "type": "Feature", "properties": { "Name": "Martidis", "address": "ул. 9 Апреля, 1, этаж цокольный", "latitude": 54.716968282876003, "longitude": 20.523714513893999 }, "geometry": { "type": "Point", "coordinates": [ 20.523694602393984, 54.717020038260237 ] } },
{ "type": "Feature", "properties": { "Name": "Ювелирная мастерская", "address": "Красная ул., 4", "latitude": 54.721109999680003, "longitude": 20.475190030632 }, "geometry": { "type": "Point", "coordinates": [ 20.475190030632, 54.721109999680003 ] } },
{ "type": "Feature", "properties": { "Name": "Зоро", "address": "ул. Профессора Баранова, 30, подъезд 2, этаж 1", "latitude": 54.721619996577999, "longitude": 20.509179989113001 }, "geometry": { "type": "Point", "coordinates": [ 20.509179989113001, 54.721619996577999 ] } },
{ "type": "Feature", "properties": { "Name": "Ювелир", "address": "ул. Горького, 195, павильон 16, этаж 1", "latitude": 54.739509995440002, "longitude": 20.504730036717 }, "geometry": { "type": "Point", "coordinates": [ 20.504730036717, 54.739509995440002 ] } },
{ "type": "Feature", "properties": { "Name": "Ювелир", "address": "Пролетарская ул., 90, этаж 1", "latitude": 54.720739980563998, "longitude": 20.514699975268002 }, "geometry": { "type": "Point", "coordinates": [ 20.514749754018045, 54.720734230501634 ] } },
{ "type": "Feature", "properties": { "Name": "Риксо", "address": "ул. Фрунзе, 15А, павильон 23, этаж 2", "latitude": 54.712700017128, "longitude": 20.521129984651001 }, "geometry": { "type": "Point", "coordinates": [ 20.521129984651001, 54.712700017128 ] } },
{ "type": "Feature", "properties": { "Name": "Ювелирная мастерская", "address": "Красносельская ул., 26, Калининград, этаж 1", "latitude": 54.713319984597, "longitude": 20.443740040270001 }, "geometry": { "type": "Point", "coordinates": [ 20.443740040270001, 54.713319984597 ] } },
{ "type": "Feature", "properties": { "Name": "Ювелир", "address": "ул. Профессора Баранова, 30, Калининград, этаж 2", "latitude": 54.721619996577999, "longitude": 20.509179989113001 }, "geometry": { "type": "Point", "coordinates": [ 20.509179989113001, 54.721619996577999 ] } },
{ "type": "Feature", "properties": { "Name": "Мастерская ручной гравировки", "address": "Московский просп., 171А, Калининград, этаж 2", "latitude": 54.710589998732999, "longitude": 20.542910024777001 }, "geometry": { "type": "Point", "coordinates": [ 20.542910024777001, 54.710589998732999 ] } },
{ "type": "Feature", "properties": { "Name": "LabJart", "address": "Кирпичная ул., 7, Калининград, этаж 2", "latitude": 54.711190017271001, "longitude": 20.524620041495002 }, "geometry": { "type": "Point", "coordinates": [ 20.524620041495002, 54.711190017271001 ] } },
{ "type": "Feature", "properties": { "Name": "Karapetyan Jewelry", "address": "ул. Профессора Баранова, 1, Калининград, ТЦ Z Форт, этаж 1", "latitude": 54.721635198698998, "longitude": 20.512596672718999 }, "geometry": { "type": "Point", "coordinates": [ 20.512984946969308, 54.721448325270764 ] } },
{ "type": "Feature", "properties": { "Name": "Драмблис", "address": "Октябрьская ул., 12, Калининград", "latitude": 54.700929981050997, "longitude": 20.516609959545001 }, "geometry": { "type": "Point", "coordinates": [ 20.51639591091983, 54.701047914792625 ] } },
{ "type": "Feature", "properties": { "Name": "Ювелирная мастерская", "address": "ул. Фрунзе, 105, Калининград, этаж -1", "latitude": 54.713670012873003, "longitude": 20.533609967926999 }, "geometry": { "type": "Point", "coordinates": [ 20.533609967926999, 54.713670012873003 ] } },
{ "type": "Feature", "properties": { "Name": "Амулет", "address": "ул. Юрия Гагарина, 106, Калининград", "latitude": 54.729670018297, "longitude": 20.562580004596001 }, "geometry": { "type": "Point", "coordinates": [ 20.562580004596001, 54.729670018297 ] } },
{ "type": "Feature", "properties": { "Name": "585 ЗОЛОТОЙ", "address": "ул. Черняховского, 2, Калининград", "latitude": 54.718549998812001, "longitude": 20.502189984779001 }, "geometry": { "type": "Point", "coordinates": [ 20.502189984779001, 54.718549998812001 ] } },
{ "type": "Feature", "properties": { "Name": "Балтийский янтарь", "address": "Запорожская ул., 5А, Калининград, Вход со стороны променада, этаж 1-й", "latitude": 54.693250020356999, "longitude": 20.533880032848 }, "geometry": { "type": "Point", "coordinates": [ 20.533880032848, 54.693250020356999 ] } },
{ "type": "Feature", "properties": { "Name": "Ювелир", "address": "ул. Горького, 2, Калининград, этаж 1", "latitude": 54.721559982152002, "longitude": 20.509249978004998 }, "geometry": { "type": "Point", "coordinates": [ 20.509249978004998, 54.721559982152002 ] } },
{ "type": "Feature", "properties": { "Name": "Ювелир", "address": "ул. Профессора Баранова, 41, Калининград, этаж 2", "latitude": 54.720674618185001, "longitude": 20.506070554457999 }, "geometry": { "type": "Point", "coordinates": [ 20.506070554457999, 54.720674618185001 ] } },
{ "type": "Feature", "properties": { "Name": "Ювелирная мастерская", "address": "Гвардейский просп., 15, Калининград, территория завода КалининградГазАвтоматика, этаж 2, офис 213", "latitude": 55.91417, "longitude": 37.82556 }, "geometry": { "type": "Point", "coordinates": [ 37.82556, 55.91417 ] } },
{ "type": "Feature", "properties": { "Name": "Всё для ювелиров", "address": "Гаражная ул., 2А, Калининград, офис А102, этаж 1", "latitude": 54.724479985761, "longitude": 20.505349962276 }, "geometry": { "type": "Point", "coordinates": [ 20.505349962276, 54.724479985761 ] } },
{ "type": "Feature", "properties": { "Name": "Ювелирный магазин", "address": "ул. Багратиона, 49, Калининград, этаж 1", "latitude": 54.69892000067, "longitude": 20.509500010176001 }, "geometry": { "type": "Point", "coordinates": [ 20.509500010176001, 54.69892000067 ] } },
{ "type": "Feature", "properties": { "Name": "МариНик", "address": "Интернациональная ул., 59А, Калининград, этаж 1", "latitude": 54.669789995378999, "longitude": 20.508710015801999 }, "geometry": { "type": "Point", "coordinates": [ 20.508710015801999, 54.669789995378999 ] } },
{ "type": "Feature", "properties": { "Name": "Ювелир", "address": "Ленинский просп., 37, Калининград", "latitude": 54.71219, "longitude": 20.50964 }, "geometry": { "type": "Point", "coordinates": [ 20.50964, 54.71219 ] } },
{ "type": "Feature", "properties": { "Name": "585 ЗОЛОТОЙ", "address": "просп. Мира, 51, Калининград", "latitude": 54.720420001409998, "longitude": 20.481119975672001 }, "geometry": { "type": "Point", "coordinates": [ 20.481119975672001, 54.720420001409998 ] } },
{ "type": "Feature", "properties": { "Name": "Русский ломбард", "address": "ул. Профессора Баранова, 6, Калининград, этаж 1", "latitude": 54.721450855886999, "longitude": 20.511667429428002 }, "geometry": { "type": "Point", "coordinates": [ 20.511533026802894, 54.721677978863937 ] } },
{ "type": "Feature", "properties": { "Name": "Ювелирная мастерская", "address": "Киевская ул., 83, Калининград", "latitude": 54.681090016234997, "longitude": 20.477809962108001 }, "geometry": { "type": "Point", "coordinates": [ 20.477809962108001, 54.681090016234997 ] } },
{ "type": "Feature", "properties": { "Name": "Агат", "address": "Гвардейский просп., 3, Калининград, этаж 1", "latitude": 54.715892059867002, "longitude": 20.49416874524 }, "geometry": { "type": "Point", "coordinates": [ 20.492414044301107, 54.716500197095122 ] } },
{ "type": "Feature", "properties": { "Name": "ЭПЛ Якутские бриллианты", "address": "Юношеская ул., 4, Калининград", "latitude": 54.723229992539999, "longitude": 20.507270004835998 }, "geometry": { "type": "Point", "coordinates": [ 20.507270004835998, 54.723229992539999 ] } },
{ "type": "Feature", "properties": { "Name": "Золотой телец", "address": "ул. Аксакова, 100А, Калининград, этаж цокольный", "latitude": 54.711149993684003, "longitude": 20.579610020192 }, "geometry": { "type": "Point", "coordinates": [ 20.579610020192, 54.711149993684003 ] } },
{ "type": "Feature", "properties": { "Name": "Прайд Голд", "address": "Правая наб., 21, Калининград", "latitude": 54.704480010413, "longitude": 20.453089969444001 }, "geometry": { "type": "Point", "coordinates": [ 20.453089969444001, 54.704480010413 ] } },
{ "type": "Feature", "properties": { "Name": "Ювелирная мастерская", "address": "просп. Мира, 7, Калининград, офис 203, этаж 2", "latitude": 54.719560018144001, "longitude": 20.496000033103002 }, "geometry": { "type": "Point", "coordinates": [ 20.496000033103002, 54.719560018144001 ] } },
{ "type": "Feature", "properties": { "Name": "Студия гравировки", "address": "ул. Аксакова, 100А, Калининград", "latitude": 54.711149993684003, "longitude": 20.579610020192 }, "geometry": { "type": "Point", "coordinates": [ 20.579610020192, 54.711149993684003 ] } },
{ "type": "Feature", "properties": { "Name": "Комиссионка", "address": "ул. Черняховского, 68, Калининград", "latitude": 54.720279981718001, "longitude": 20.515070036293999 }, "geometry": { "type": "Point", "coordinates": [ 20.515070036293999, 54.720354733345154 ] } }
]
}
