{
"type": "FeatureCollection",
"name": "pawnbroker",
"features": [
{ "type": "Feature", "properties": { "Name": "Прайд Голд", "address": "ул. Аксакова, 100А, этаж цокольный", "latitude": 54.711149993684003, "longitude": 20.579610020192 }, "geometry": { "type": "Point", "coordinates": [ 20.579610020192, 54.711149993684003 ] } },
{ "type": "Feature", "properties": { "Name": "Первый Городской Ломбард", "address": "Артиллерийская ул., 22", "latitude": 54.732100015847003, "longitude": 20.539899999527002 }, "geometry": { "type": "Point", "coordinates": [ 20.539899999527002, 54.732100015847003 ] } },
{ "type": "Feature", "properties": { "Name": "Ломбард онлайн", "address": "ул. Грига, 4", "latitude": 54.710490002627999, "longitude": 20.531759998077 }, "geometry": { "type": "Point", "coordinates": [ 20.531759998077, 54.710490002627999 ] } },
{ "type": "Feature", "properties": { "Name": "Ривика", "address": "ул. Горького, 127, этаж цокольный", "latitude": 54.737140012316999, "longitude": 20.506859962132999 }, "geometry": { "type": "Point", "coordinates": [ 20.506859962132999, 54.737140012316999 ] } },
{ "type": "Feature", "properties": { "Name": "Ломбард онлайн", "address": "ул. Гайдара, 157", "latitude": 54.742651390936999, "longitude": 20.507186895715002 }, "geometry": { "type": "Point", "coordinates": [ 20.50987428675943, 54.742534751930378 ] } },
{ "type": "Feature", "properties": { "Name": "Кёниг ломбард", "address": "ул. Дзержинского, 98, этаж цокольный", "latitude": 54.688840007730001, "longitude": 20.531639969223999 }, "geometry": { "type": "Point", "coordinates": [ 20.531639969223999, 54.688840007730001 ] } },
{ "type": "Feature", "properties": { "Name": "Ломбард онлайн", "address": "просп. Победы, 65, этаж цокольный", "latitude": 54.714080013667001, "longitude": 20.457679983441999 }, "geometry": { "type": "Point", "coordinates": [ 20.457679983441999, 54.714080013667001 ] } },
{ "type": "Feature", "properties": { "Name": "Первый городской ломбард", "address": "Киевская ул., 161", "latitude": 54.681939983127002, "longitude": 20.46148997753 }, "geometry": { "type": "Point", "coordinates": [ 20.46148997753, 54.681939983127002 ] } },
{ "type": "Feature", "properties": { "Name": "Ломбард онлайн", "address": "Красная ул., 109", "latitude": 54.734699998392998, "longitude": 20.473480038565 }, "geometry": { "type": "Point", "coordinates": [ 20.473480038565, 54.734699998392998 ] } },
{ "type": "Feature", "properties": { "Name": "Ломбард онлайн", "address": "Киевская ул., 105", "latitude": 54.681110007073997, "longitude": 20.473330002497999 }, "geometry": { "type": "Point", "coordinates": [ 20.473330002497999, 54.681110007073997 ] } },
{ "type": "Feature", "properties": { "Name": "Ломбард", "address": "ул. Юрия Гагарина, 121", "latitude": 54.726520015265002, "longitude": 20.553369969386999 }, "geometry": { "type": "Point", "coordinates": [ 20.553369969386999, 54.726520015265002 ] } },
{ "type": "Feature", "properties": { "Name": "ПРОСТО 585", "address": "ул. Профессора Баранова, 34, ТЦ Акрополь", "latitude": 54.72115, "longitude": 20.50639 }, "geometry": { "type": "Point", "coordinates": [ 20.50639, 54.72115 ] } },
{ "type": "Feature", "properties": { "Name": "Сигма-Балтия", "address": "Барнаульская ул., 2А", "latitude": 54.714950013307003, "longitude": 20.503230011325002 }, "geometry": { "type": "Point", "coordinates": [ 20.503230011325002, 54.714950013307003 ] } },
{ "type": "Feature", "properties": { "Name": "Гермес", "address": "ул. Фрунзе, 17", "latitude": 54.713280002918999, "longitude": 20.520620029661998 }, "geometry": { "type": "Point", "coordinates": [ 20.520620029661998, 54.713280002918999 ] } },
{ "type": "Feature", "properties": { "Name": "ПРОСТО 585", "address": "Ленинский просп., 34А", "latitude": 54.703940006301004, "longitude": 20.505009992283 }, "geometry": { "type": "Point", "coordinates": [ 20.505030198230706, 54.703928331274533 ] } },
{ "type": "Feature", "properties": { "Name": "Ломбард резерв", "address": "Московский просп., 171А, этаж 1", "latitude": 54.710589998732999, "longitude": 20.542910024777001 }, "geometry": { "type": "Point", "coordinates": [ 20.542910024777001, 54.710589998732999 ] } },
{ "type": "Feature", "properties": { "Name": "Регион золото", "address": "ул. Черняховского, 15", "latitude": 54.720459983087999, "longitude": 20.510680014504999 }, "geometry": { "type": "Point", "coordinates": [ 20.510680014504999, 54.720459983087999 ] } },
{ "type": "Feature", "properties": { "Name": "Сигма Балтия", "address": "ул. Горького, 197, этаж 1", "latitude": 54.739750011237, "longitude": 20.504740011182001 }, "geometry": { "type": "Point", "coordinates": [ 20.504740011182001, 54.739750011237 ] } },
{ "type": "Feature", "properties": { "Name": "Резерв Ломбард", "address": "ул. Куйбышева, 91", "latitude": 54.726340013894003, "longitude": 20.536659974854999 }, "geometry": { "type": "Point", "coordinates": [ 20.536659974854999, 54.726340013894003 ] } },
{ "type": "Feature", "properties": { "Name": "Резерв", "address": "ул. Черняховского, 15, лит.Б, помещение 1", "latitude": 54.721700001843999, "longitude": 20.513440007583 }, "geometry": { "type": "Point", "coordinates": [ 20.510954676015597, 54.720540773608583 ] } },
{ "type": "Feature", "properties": { "Name": "Ваш ломбард", "address": "ул. Горького, 117", "latitude": 54.736630015418001, "longitude": 20.507430015368001 }, "geometry": { "type": "Point", "coordinates": [ 20.507430015368001, 54.736630015418001 ] } },
{ "type": "Feature", "properties": { "Name": "Люкс", "address": "ул. Грига, 4", "latitude": 54.710490002627999, "longitude": 20.531759998077 }, "geometry": { "type": "Point", "coordinates": [ 20.531759998077, 54.710490002627999 ] } },
{ "type": "Feature", "properties": { "Name": "Ломбард", "address": "Батальная ул., 48, этаж цокольный", "latitude": 54.676029987017003, "longitude": 20.499020032817 }, "geometry": { "type": "Point", "coordinates": [ 20.499020032817, 54.676029987017003 ] } },
{ "type": "Feature", "properties": { "Name": "Джинн", "address": "ул. Александра Невского, 5, Калининград, офис 1, этаж 1", "latitude": 54.724620005452998, "longitude": 20.525550013653 }, "geometry": { "type": "Point", "coordinates": [ 20.525550013653, 54.724620005452998 ] } },
{ "type": "Feature", "properties": { "Name": "Ломбард онлайн", "address": "ул. Профессора Баранова, 41, Калининград", "latitude": 54.720674618185001, "longitude": 20.506070554457999 }, "geometry": { "type": "Point", "coordinates": [ 20.506070554457999, 54.720674618185001 ] } },
{ "type": "Feature", "properties": { "Name": "Первый Городской Ломбард", "address": "Батальная ул., 29, Калининград", "latitude": 54.677530012409001, "longitude": 20.497840028488 }, "geometry": { "type": "Point", "coordinates": [ 20.497840028488, 54.677530012409001 ] } },
{ "type": "Feature", "properties": { "Name": "Джинн", "address": "Киевская ул., 72, Калининград", "latitude": 54.681390004550003, "longitude": 20.476399958356001 }, "geometry": { "type": "Point", "coordinates": [ 20.476399958356001, 54.681390004550003 ] } },
{ "type": "Feature", "properties": { "Name": "Ломбардик", "address": "Ленинский просп., 143, Калининград", "latitude": 54.69775998718, "longitude": 20.503179971363 }, "geometry": { "type": "Point", "coordinates": [ 20.503179971363, 54.69775998718 ] } },
{ "type": "Feature", "properties": { "Name": "Ломбард", "address": "ул. Космонавта Леонова, 52А, Калининград", "latitude": 54.731820018371003, "longitude": 20.481899995580999 }, "geometry": { "type": "Point", "coordinates": [ 20.481765289262977, 54.731843352363676 ] } },
{ "type": "Feature", "properties": { "Name": "Ломбард", "address": "ул. Зои Космодемьянской, 49, Калининград", "latitude": 54.685160016959998, "longitude": 20.532559966916001 }, "geometry": { "type": "Point", "coordinates": [ 20.532559966916001, 54.685160016959998 ] } },
{ "type": "Feature", "properties": { "Name": "Ваш Ломбард", "address": "ул. Черняховского, 7, Калининград, помещение 1", "latitude": 54.72012998756, "longitude": 20.507230023158002 }, "geometry": { "type": "Point", "coordinates": [ 20.507230023158002, 54.72012998756 ] } },
{ "type": "Feature", "properties": { "Name": "Сигма Балтия Ломбард", "address": "ул. Ульяны Громовой, 13Б, Калининград", "latitude": 54.672399994298999, "longitude": 20.500879977132001 }, "geometry": { "type": "Point", "coordinates": [ 20.500879977132001, 54.672399994298999 ] } },
{ "type": "Feature", "properties": { "Name": "ПРОСТО 585", "address": "ул. Аксакова, 137, Калининград", "latitude": 54.711559994478002, "longitude": 20.585699975762999 }, "geometry": { "type": "Point", "coordinates": [ 20.585699975762999, 54.711559994478002 ] } },
{ "type": "Feature", "properties": { "Name": "Региональный залоговый дом", "address": "Советский просп., 6А, Калининград, этаж 1", "latitude": 54.722179991529003, "longitude": 20.499450024449999 }, "geometry": { "type": "Point", "coordinates": [ 20.499450024449999, 54.722179991529003 ] } },
{ "type": "Feature", "properties": { "Name": "Золотой жук", "address": "ул. Гайдара, 102, Калининград, этаж 1", "latitude": 54.742119994360003, "longitude": 20.497540040173 }, "geometry": { "type": "Point", "coordinates": [ 20.497540040173, 54.742119994360003 ] } },
{ "type": "Feature", "properties": { "Name": "Золотой жук", "address": "ул. Черняховского, 15, лит.Б, Калининград", "latitude": 54.721700001843999, "longitude": 20.513440007583 }, "geometry": { "type": "Point", "coordinates": [ 20.513440007583, 54.721700001843999 ] } },
{ "type": "Feature", "properties": { "Name": "Ломбард", "address": "ул. Космонавта Леонова, 17/2, Калининград", "latitude": 54.724129999394002, "longitude": 20.481460029484001 }, "geometry": { "type": "Point", "coordinates": [ 20.481540853274815, 54.724129999394002 ] } },
{ "type": "Feature", "properties": { "Name": "Ваш Ломбард", "address": "ул. Ульяны Громовой, 6, Калининград", "latitude": 54.673020003677003, "longitude": 20.500280000501999 }, "geometry": { "type": "Point", "coordinates": [ 20.500280000501999, 54.673020003677003 ] } },
{ "type": "Feature", "properties": { "Name": "Ломбард онлайн", "address": "Батальная ул., 75, Калининград, магазин \"Лавка Бахуса\"", "latitude": 54.675239992641998, "longitude": 20.510150026767999 }, "geometry": { "type": "Point", "coordinates": [ 20.510150026767999, 54.675239992641998 ] } },
{ "type": "Feature", "properties": { "Name": "Ваш ломбард", "address": "просп. Мира, 51, Калининград", "latitude": 54.720420001409998, "longitude": 20.481119975672001 }, "geometry": { "type": "Point", "coordinates": [ 20.481119975672001, 54.720420001409998 ] } },
{ "type": "Feature", "properties": { "Name": "Пандора", "address": "ул. Ульяны Громовой, 7, Калининград, этаж цокольный", "latitude": 54.673349999205001, "longitude": 20.501109976555 }, "geometry": { "type": "Point", "coordinates": [ 20.501109976555, 54.673349999205001 ] } },
{ "type": "Feature", "properties": { "Name": "Русский ломбард", "address": "ул. Черняховского, 4А, Калининград", "latitude": 54.718769981861001, "longitude": 20.502660041908999 }, "geometry": { "type": "Point", "coordinates": [ 20.502660041908999, 54.718769981861001 ] } },
{ "type": "Feature", "properties": { "Name": "Ломбард", "address": "Московский просп., 21А, Калининград", "latitude": 54.710910019796003, "longitude": 20.501350034262 }, "geometry": { "type": "Point", "coordinates": [ 20.501350034262, 54.710910019796003 ] } },
{ "type": "Feature", "properties": { "Name": "Ваш ломбард", "address": "Киевская ул., 83, Калининград", "latitude": 54.681090016234997, "longitude": 20.477809962108001 }, "geometry": { "type": "Point", "coordinates": [ 20.477809962108001, 54.681090016234997 ] } },
{ "type": "Feature", "properties": { "Name": "Лабрадор", "address": "ул. Ульяны Громовой, 15, Калининград", "latitude": 54.671030014133997, "longitude": 20.501079969340999 }, "geometry": { "type": "Point", "coordinates": [ 20.501079969340999, 54.671030014133997 ] } },
{ "type": "Feature", "properties": { "Name": "Агат", "address": "Театральная ул., 21, Калининград, этаж 1", "latitude": 54.716560009269003, "longitude": 20.500379996606998 }, "geometry": { "type": "Point", "coordinates": [ 20.500379996606998, 54.716560009269003 ] } },
{ "type": "Feature", "properties": { "Name": "Ломбард", "address": "Комсомольская ул., 77А, Калининград, этаж цокольный", "latitude": 54.732309982521997, "longitude": 20.477679958789 }, "geometry": { "type": "Point", "coordinates": [ 20.477679958789, 54.732309982521997 ] } },
{ "type": "Feature", "properties": { "Name": "Резерв ломбард", "address": "ул. Черняховского, 15, лит.Б, Калининград", "latitude": 54.721700001843999, "longitude": 20.513440007583 }, "geometry": { "type": "Point", "coordinates": [ 20.513440007583, 54.721700001843999 ] } },
{ "type": "Feature", "properties": { "Name": "Джинн", "address": "Ленинский просп., 84, Калининград, этаж цокольный", "latitude": 54.69931998509, "longitude": 20.502610001947001 }, "geometry": { "type": "Point", "coordinates": [ 20.502610001947001, 54.69931998509 ] } },
{ "type": "Feature", "properties": { "Name": "Сигма голд", "address": "ул. Чайковского, 2, Калининград, этаж цокольный", "latitude": 54.724140015768, "longitude": 20.497799962990999 }, "geometry": { "type": "Point", "coordinates": [ 20.497799962990999, 54.724140015768 ] } },
{ "type": "Feature", "properties": { "Name": "Техносток 39", "address": "ул. Белинского, 42, Калининград, этаж цокольный", "latitude": 54.716150008474997, "longitude": 20.439640032332001 }, "geometry": { "type": "Point", "coordinates": [ 20.439640032332001, 54.716150008474997 ] } },
{ "type": "Feature", "properties": { "Name": "Ювелирный ломбард", "address": "Киевская ул., 72, Калининград", "latitude": 54.681390004550003, "longitude": 20.476399958356001 }, "geometry": { "type": "Point", "coordinates": [ 20.476399958356001, 54.681390004550003 ] } },
{ "type": "Feature", "properties": { "Name": "Золото", "address": "ул. Генерала Челнокова, 11, лит.Ж, Калининград", "latitude": 54.736719995149002, "longitude": 20.488039991114 }, "geometry": { "type": "Point", "coordinates": [ 20.486288808979729, 54.73791764433598 ] } },
{ "type": "Feature", "properties": { "Name": "5 Копеек", "address": "Интернациональная ул., 30, Калининград, павильон 209, этаж 2", "latitude": 54.668830016008002, "longitude": 20.501130009303001 }, "geometry": { "type": "Point", "coordinates": [ 20.501130009303001, 54.668830016008002 ] } },
{ "type": "Feature", "properties": { "Name": "Резерв", "address": "Нарвская ул., 112, Калининград", "latitude": 54.743200980354999, "longitude": 20.499180091776001 }, "geometry": { "type": "Point", "coordinates": [ 20.499227238987309, 54.742365071365818 ] } },
{ "type": "Feature", "properties": { "Name": "One", "address": "ул. Гайдара, 120, Калининград, этаж 1", "latitude": 54.743410011168002, "longitude": 20.504710003968999 }, "geometry": { "type": "Point", "coordinates": [ 20.504710003968999, 54.743410011168002 ] } },
{ "type": "Feature", "properties": { "Name": "Сигма", "address": "Ленинский просп., 25, Калининград", "latitude": 54.71219, "longitude": 20.50964 }, "geometry": { "type": "Point", "coordinates": [ 20.50964, 54.71219 ] } },
{ "type": "Feature", "properties": { "Name": "Русский Ломбард", "address": "просп. Мира, 121, Калининград, этаж цокольный", "latitude": 54.720559979192998, "longitude": 20.450600041285998 }, "geometry": { "type": "Point", "coordinates": [ 20.450600041285998, 54.720559979192998 ] } },
{ "type": "Feature", "properties": { "Name": "Русский ювелирный дом", "address": "ул. Черняховского, 2, Калининград", "latitude": 54.718549998812001, "longitude": 20.502189984779001 }, "geometry": { "type": "Point", "coordinates": [ 20.502189984779001, 54.718549998812001 ] } },
{ "type": "Feature", "properties": { "Name": "Сигма балтия", "address": "ул. Фрунзе, 26, Калининград", "latitude": 54.712160013016003, "longitude": 20.523389997203999 }, "geometry": { "type": "Point", "coordinates": [ 20.523389997203999, 54.712160013016003 ] } },
{ "type": "Feature", "properties": { "Name": "Виктория", "address": "Московский просп., 179А, Калининград, этаж 1", "latitude": 54.710160007100001, "longitude": 20.550890015695 }, "geometry": { "type": "Point", "coordinates": [ 20.550890015695, 54.710160007100001 ] } },
{ "type": "Feature", "properties": { "Name": "585 ЗОЛОТОЙ", "address": "Ленинский просп., 47, Калининград", "latitude": 54.71219, "longitude": 20.50964 }, "geometry": { "type": "Point", "coordinates": [ 20.50964, 54.71219 ] } },
{ "type": "Feature", "properties": { "Name": "Ломбард", "address": "Московский просп., 133Г, Калининград", "latitude": 54.709989980194003, "longitude": 20.531149963164001 }, "geometry": { "type": "Point", "coordinates": [ 20.531149963164001, 54.709989980194003 ] } },
{ "type": "Feature", "properties": { "Name": "ТопРент", "address": "Красносельская ул., 49, Калининград", "latitude": 54.713310010131998, "longitude": 20.442849965972002 }, "geometry": { "type": "Point", "coordinates": [ 20.442849965972002, 54.713310010131998 ] } },
{ "type": "Feature", "properties": { "Name": "ПРОСТО 585", "address": "Машиностроительная ул., 68, Калининград", "latitude": 54.678580119411002, "longitude": 20.504875761272 }, "geometry": { "type": "Point", "coordinates": [ 20.505919735236663, 54.679024045422963 ] } },
{ "type": "Feature", "properties": { "Name": "Сигма голд", "address": "просп. Победы, 137, Калининград, этаж 1", "latitude": 54.709960014890001, "longitude": 20.442549977658 }, "geometry": { "type": "Point", "coordinates": [ 20.442549977658, 54.709960014890001 ] } },
{ "type": "Feature", "properties": { "Name": "Дон", "address": "просп. Мира, 80, Калининград", "latitude": 54.720600002780998, "longitude": 20.478710010871001 }, "geometry": { "type": "Point", "coordinates": [ 20.478710010871001, 54.720600002780998 ] } },
{ "type": "Feature", "properties": { "Name": "Региональный залоговый дом", "address": "Батальная ул., 46-54, Калининград", "latitude": 54.676090001443001, "longitude": 20.499009974532999 }, "geometry": { "type": "Point", "coordinates": [ 20.499009974532999, 54.676090001443001 ] } },
{ "type": "Feature", "properties": { "Name": "Русский ювелирный дом", "address": "ул. Черняховского, 68, Калининград", "latitude": 54.720279981718001, "longitude": 20.515070036293999 }, "geometry": { "type": "Point", "coordinates": [ 20.515070036293999, 54.720279981718001 ] } },
{ "type": "Feature", "properties": { "Name": "Сигма Балтия Ломбард", "address": "Красная ул., 2А, Гурьевск, этаж 2", "latitude": 54.721029348012003, "longitude": 20.474865493861 }, "geometry": { "type": "Point", "coordinates": [ 20.475188789024251, 54.720869856278199 ] } },
{ "type": "Feature", "properties": { "Name": "Ювелирные изделия", "address": "ул. Генерала Челнокова, 11, Калининград, этаж 1", "latitude": 54.738030002796002, "longitude": 20.486049959662001 }, "geometry": { "type": "Point", "coordinates": [ 20.486049959662001, 54.738030002796002 ] } },
{ "type": "Feature", "properties": { "Name": "Ростовщикъ", "address": "ул. Багратиона, 104, Калининград", "latitude": 54.699349992302999, "longitude": 20.504949977856999 }, "geometry": { "type": "Point", "coordinates": [ 20.504949977856999, 54.699349992302999 ] } },
{ "type": "Feature", "properties": { "Name": "Русский Ювелирный Дом", "address": "ул. 9 Апреля, 5, Калининград", "latitude": 54.714030015615002, "longitude": 20.521719986815999 }, "geometry": { "type": "Point", "coordinates": [ 20.521719986815999, 54.714030015615002 ] } },
{ "type": "Feature", "properties": { "Name": "585 ЗОЛОТОЙ", "address": "Ленинский просп., 42, Калининград", "latitude": 54.71219, "longitude": 20.50964 }, "geometry": { "type": "Point", "coordinates": [ 20.50964, 54.71219 ] } },
{ "type": "Feature", "properties": { "Name": "Региональный залоговый дом", "address": "Ленинский просп., 36А, Калининград", "latitude": 54.703640017985997, "longitude": 20.504860040036 }, "geometry": { "type": "Point", "coordinates": [ 20.504886981299602, 54.703634180428935 ] } },
{ "type": "Feature", "properties": { "Name": "Региональный залоговый дом", "address": "Ленинский просп., 37, Калининград", "latitude": 54.71219, "longitude": 20.50964 }, "geometry": { "type": "Point", "coordinates": [ 20.50964, 54.71219 ] } },
{ "type": "Feature", "properties": { "Name": "Ювелирторг", "address": "просп. Мира, 49, Калининград, этаж 1", "latitude": 54.720539988353998, "longitude": 20.481460029484001 }, "geometry": { "type": "Point", "coordinates": [ 20.481460029484001, 54.720539988353998 ] } },
{ "type": "Feature", "properties": { "Name": "585 ЗОЛОТОЙ", "address": "Артиллерийская ул., 22, Калининград", "latitude": 54.732100015847003, "longitude": 20.539899999527002 }, "geometry": { "type": "Point", "coordinates": [ 20.539899999527002, 54.732100015847003 ] } },
{ "type": "Feature", "properties": { "Name": "585 ЗОЛОТОЙ", "address": "ул. Профессора Баранова, 41, Калининград, этаж 2", "latitude": 54.720674618185001, "longitude": 20.506070554457999 }, "geometry": { "type": "Point", "coordinates": [ 20.506070554457999, 54.720674618185001 ] } },
{ "type": "Feature", "properties": { "Name": "Naif", "address": "ул. Горького, 2, Калининград, этаж 1", "latitude": 54.721559982152002, "longitude": 20.509249978004998 }, "geometry": { "type": "Point", "coordinates": [ 20.509249978004998, 54.721559982152002 ] } },
{ "type": "Feature", "properties": { "Name": "Ломбард онлайн", "address": "Советский просп., 159, Калининград, этаж 1", "latitude": 54.742440015423, "longitude": 20.465250015475 }, "geometry": { "type": "Point", "coordinates": [ 20.465250015475, 54.742440015423 ] } },
{ "type": "Feature", "properties": { "Name": "ТехноБ/Утик", "address": "ул. Черняховского, 68, Калининград", "latitude": 54.720279981718001, "longitude": 20.515070036293999 }, "geometry": { "type": "Point", "coordinates": [ 20.515070036293999, 54.720279981718001 ] } },
{ "type": "Feature", "properties": { "Name": "Ломбард", "address": "Ленинский просп., 38, Калининград", "latitude": 54.71219, "longitude": 20.50964 }, "geometry": { "type": "Point", "coordinates": [ 20.50964, 54.71219 ] } },
{ "type": "Feature", "properties": { "Name": "Резерв", "address": "4, микрорайон Малое Борисово, Калининград", "latitude": 54.681060009021998, "longitude": 20.626390008548 }, "geometry": { "type": "Point", "coordinates": [ 20.626390008548, 54.681060009021998 ] } },
{ "type": "Feature", "properties": { "Name": "Зеленая жемчужина", "address": "Барнаульская ул., 2А, Калининград", "latitude": 54.714950013307003, "longitude": 20.503230011325002 }, "geometry": { "type": "Point", "coordinates": [ 20.503230011325002, 54.714950013307003 ] } },
{ "type": "Feature", "properties": { "Name": "Русский ломбард", "address": "Юбилейная ул., 2, Калининград", "latitude": 54.718059992752003, "longitude": 20.539590036747999 }, "geometry": { "type": "Point", "coordinates": [ 20.539590036747999, 54.718059992752003 ] } },
{ "type": "Feature", "properties": { "Name": "Ломбард Кёниг", "address": "ул. Гайдара, 157, Калининград", "latitude": 54.742651390936999, "longitude": 20.507186895715002 }, "geometry": { "type": "Point", "coordinates": [ 20.507186895715002, 54.742651390936999 ] } },
{ "type": "Feature", "properties": { "Name": "Городской ломбард", "address": "Киевская ул., 105, Калининград", "latitude": 54.681110007073997, "longitude": 20.473330002497999 }, "geometry": { "type": "Point", "coordinates": [ 20.473330002497999, 54.681110007073997 ] } },
{ "type": "Feature", "properties": { "Name": "Найди Кредит", "address": "Красносельская ул., 51, Калининград", "latitude": 54.713490011502998, "longitude": 20.442839991507 }, "geometry": { "type": "Point", "coordinates": [ 20.442839991507, 54.713490011502998 ] } },
{ "type": "Feature", "properties": { "Name": "Ломбард онлайн", "address": "ул. Генерала Соммера, 2-4, Калининград", "latitude": 54.715089991089997, "longitude": 20.504749985646999 }, "geometry": { "type": "Point", "coordinates": [ 20.504749985646999, 54.715089991089997 ] } },
{ "type": "Feature", "properties": { "Name": "Ломбард ЛГ", "address": "просп. Мира, 78, Калининград", "latitude": 54.720680008046998, "longitude": 20.478919977545001 }, "geometry": { "type": "Point", "coordinates": [ 20.478919977545001, 54.720680008046998 ] } },
{ "type": "Feature", "properties": { "Name": "Ваш Ломбард", "address": "ул. Чайковского, 2, Калининград", "latitude": 54.724140015768, "longitude": 20.497799962990999 }, "geometry": { "type": "Point", "coordinates": [ 20.497799962990999, 54.724140015768 ] } },
{ "type": "Feature", "properties": { "Name": "585 Золотой, ломбарды", "address": "ул. Черняховского, 2А, Калининград", "latitude": 54.718640020452, "longitude": 20.502319988097 }, "geometry": { "type": "Point", "coordinates": [ 20.502319988097, 54.718640020452 ] } },
{ "type": "Feature", "properties": { "Name": "585 ЗОЛОТОЙ", "address": "ул. Космонавта Леонова, 17/2, Калининград", "latitude": 54.724129999394002, "longitude": 20.481460029484001 }, "geometry": { "type": "Point", "coordinates": [ 20.481527382643012, 54.724071653278465 ] } },
{ "type": "Feature", "properties": { "Name": "Региональный залоговый дом", "address": "ул. Генерала Челнокова, 11, Калининград, этаж 1", "latitude": 54.738030002796002, "longitude": 20.486049959662001 }, "geometry": { "type": "Point", "coordinates": [ 20.486049959662001, 54.738030002796002 ] } },
{ "type": "Feature", "properties": { "Name": "Региональный залоговый дом", "address": "ул. Генерала Челнокова, 11, Калининград", "latitude": 54.738030002796002, "longitude": 20.486049959662001 }, "geometry": { "type": "Point", "coordinates": [ 20.486049959662001, 54.738030002796002 ] } },
{ "type": "Feature", "properties": { "Name": "585 ЗОЛОТОЙ", "address": "ул. Гайдара, 117Б, Калининград", "latitude": 54.733136428389997, "longitude": 20.496581665484999 }, "geometry": { "type": "Point", "coordinates": [ 20.496581665484999, 54.733136428389997 ] } },
{ "type": "Feature", "properties": { "Name": "Дон Экономъ", "address": "площадь Победы, 4А, Калининград", "latitude": 54.721149981358003, "longitude": 20.501139983767999 }, "geometry": { "type": "Point", "coordinates": [ 20.501139983767999, 54.721149981358003 ] } },
{ "type": "Feature", "properties": { "Name": "Техносток", "address": "ул. Черняховского, 15, лит.Б, Калининград", "latitude": 54.721700001843999, "longitude": 20.513440007583 }, "geometry": { "type": "Point", "coordinates": [ 20.513440007583, 54.721700001843999 ] } },
{ "type": "Feature", "properties": { "Name": "Русский ювелирный дом", "address": "ул. Чайковского, 2, Калининград, этаж цокольный", "latitude": 54.724140015768, "longitude": 20.497799962990999 }, "geometry": { "type": "Point", "coordinates": [ 20.497799962990999, 54.724140015768 ] } },
{ "type": "Feature", "properties": { "Name": "585 Золотой, ломбарды", "address": "ул. Профессора Баранова, 6, Калининград, этаж 1", "latitude": 54.721450855886999, "longitude": 20.511667429428002 }, "geometry": { "type": "Point", "coordinates": [ 20.511546193741786, 54.721832073656472 ] } },
{ "type": "Feature", "properties": { "Name": "Ювелирный", "address": "Коммунистическая ул., 47-51, Калининград", "latitude": 54.674150009953003, "longitude": 20.483349981012001 }, "geometry": { "type": "Point", "coordinates": [ 20.483349981012001, 54.674150009953003 ] } }
]
}
