{
"type": "FeatureCollection",
"name": "shop_sport",
"features": [
{ "type": "Feature", "properties": { "Name": "Спортмастер", "address": "Театральная ул., 30, ТРЦ Европа, этаж 3", "latitude": 54.717749988062998, "longitude": 20.498990025604002 }, "geometry": { "type": "Point", "coordinates": [ 20.499064529839153, 54.717842203697344 ] } },
{ "type": "Feature", "properties": { "Name": "Energy sport", "address": "ул. 9 Апреля, 1", "latitude": 54.716968282876003, "longitude": 20.523714513893999 }, "geometry": { "type": "Point", "coordinates": [ 20.523661296583175, 54.717048204534635 ] } },
{ "type": "Feature", "properties": { "Name": "Равновесие", "address": "ул. Александра Невского, 51В, этаж 1", "latitude": 54.731419992041999, "longitude": 20.530419983217001 }, "geometry": { "type": "Point", "coordinates": [ 20.530419983217001, 54.731419992041999 ] } },
{ "type": "Feature", "properties": { "Name": "Сетка", "address": "ул. Согласия, 39, ДС Янтарный Малая Арена", "latitude": 54.74931, "longitude": 20.48531 }, "geometry": { "type": "Point", "coordinates": [ 20.48531, 54.74931 ] } },
{ "type": "Feature", "properties": { "Name": "Tennis-store.ru", "address": "ул. Александра Суворова, 56", "latitude": 54.688350001670997, "longitude": 20.461010029754 }, "geometry": { "type": "Point", "coordinates": [ 20.461010029754, 54.688350001670997 ] } },
{ "type": "Feature", "properties": { "Name": "Илан Спорт", "address": "Гаражная ул., 2, офис А112, этаж 1", "latitude": 54.720890016631003, "longitude": 20.502819968621999 }, "geometry": { "type": "Point", "coordinates": [ 20.502819968621999, 54.720890016631003 ] } },
{ "type": "Feature", "properties": { "Name": "Глобалдрайв", "address": "Нарвская ул., 54, корп. 5", "latitude": 54.731380010363999, "longitude": 20.500500025461001 }, "geometry": { "type": "Point", "coordinates": [ 20.500500025461001, 54.731380010363999 ] } },
{ "type": "Feature", "properties": { "Name": "Аленушка Спорт", "address": "ул. Аксакова, 123, этаж цокольный", "latitude": 54.711490005586001, "longitude": 20.577810006484999 }, "geometry": { "type": "Point", "coordinates": [ 20.577810006484999, 54.711490005586001 ] } },
{ "type": "Feature", "properties": { "Name": "General", "address": "ул. Генерала Буткова, 21", "latitude": 54.708739986973001, "longitude": 20.495389998189999 }, "geometry": { "type": "Point", "coordinates": [ 20.495342102610255, 54.708776881437522 ] } },
{ "type": "Feature", "properties": { "Name": "Basketball-store", "address": "ул. Александра Суворова, 54Б, 1, 1", "latitude": 54.689129979671002, "longitude": 20.464000022255 }, "geometry": { "type": "Point", "coordinates": [ 20.464000022255, 54.689129979671002 ] } },
{ "type": "Feature", "properties": { "Name": "Планета Спорт", "address": "ул. Горького, 162Б", "latitude": 54.743449992846003, "longitude": 20.502960030223999 }, "geometry": { "type": "Point", "coordinates": [ 20.502960030223999, 54.743449992846003 ] } },
{ "type": "Feature", "properties": { "Name": "Экстрим К2", "address": "ул. Юрия Гагарина, 11", "latitude": 54.716319993471998, "longitude": 20.539500015108 }, "geometry": { "type": "Point", "coordinates": [ 20.539500015108, 54.716319993471998 ] } },
{ "type": "Feature", "properties": { "Name": "Планета спорт", "address": "просп. Мира, 132", "latitude": 54.723049991168999, "longitude": 20.460290024271 }, "geometry": { "type": "Point", "coordinates": [ 20.460290024271, 54.723049991168999 ] } },
{ "type": "Feature", "properties": { "Name": "Ммавеар", "address": "ул. Горького, 170В", "latitude": 54.750869988813001, "longitude": 20.503130015219998 }, "geometry": { "type": "Point", "coordinates": [ 20.503130015219998, 54.750869988813001 ] } },
{ "type": "Feature", "properties": { "Name": "Спортия", "address": "ул. Юрия Гагарина, 99, этаж 2", "latitude": 54.724939984606998, "longitude": 20.549649996938999 }, "geometry": { "type": "Point", "coordinates": [ 20.549649996938999, 54.724939984606998 ] } },
{ "type": "Feature", "properties": { "Name": "Piyera", "address": "ул. Профессора Баранова, 34, этаж 0", "latitude": 54.721149981358003, "longitude": 20.506389988822001 }, "geometry": { "type": "Point", "coordinates": [ 20.506389988822001, 54.721149981358003 ] } },
{ "type": "Feature", "properties": { "Name": "Фигурист", "address": "Ленинский просп., 30, ТЦ Плаза, этаж 3", "latitude": 54.711210008110001, "longitude": 20.508229984206999 }, "geometry": { "type": "Point", "coordinates": [ 20.508229984206999, 54.711210008110001 ] } },
{ "type": "Feature", "properties": { "Name": "Планета Спорт", "address": "Батальная ул., 65А", "latitude": 54.674580001586001, "longitude": 20.503639970209001 }, "geometry": { "type": "Point", "coordinates": [ 20.503739309189196, 54.674625132610721 ] } },
{ "type": "Feature", "properties": { "Name": "Товары для плавания Mad wave", "address": "просп. Калинина, 6, этаж 1", "latitude": 54.695338218015003, "longitude": 20.520753381348001 }, "geometry": { "type": "Point", "coordinates": [ 20.513430679378775, 54.69328779445928 ] } },
{ "type": "Feature", "properties": { "Name": "Energy Sport", "address": "ул. Ульяны Громовой, 48", "latitude": 54.670590006127, "longitude": 20.500270026037999 }, "geometry": { "type": "Point", "coordinates": [ 20.500270026037999, 54.670590006127 ] } },
{ "type": "Feature", "properties": { "Name": "Спорттовары", "address": "ул. Профессора Баранова, 36, СК Динамо", "latitude": 54.72078, "longitude": 20.5047 }, "geometry": { "type": "Point", "coordinates": [ 20.5047, 54.72078 ] } },
{ "type": "Feature", "properties": { "Name": "Спорттовары", "address": "ул. Дзержинского, 130, Калининград", "latitude": 54.683600019050999, "longitude": 20.533569986248999 }, "geometry": { "type": "Point", "coordinates": [ 20.533569986248999, 54.683600019050999 ] } },
{ "type": "Feature", "properties": { "Name": "Venum", "address": "Московский просп., 257, Калининград, ТЦ Гиант, этаж 2", "latitude": 54.707969983437998, "longitude": 20.580950035053 }, "geometry": { "type": "Point", "coordinates": [ 20.580950035053, 54.707969983437998 ] } },
{ "type": "Feature", "properties": { "Name": "Platinum", "address": "Озёрная ул., 31А, Калининград", "latitude": 54.739550019027, "longitude": 20.509930001809 }, "geometry": { "type": "Point", "coordinates": [ 20.509930001809, 54.739550019027 ] } },
{ "type": "Feature", "properties": { "Name": "Конькоff", "address": "ул. Горького, 87, Калининград, этаж 1", "latitude": 54.732619987211002, "longitude": 20.508919982477 }, "geometry": { "type": "Point", "coordinates": [ 20.508919982477, 54.732619987211002 ] } },
{ "type": "Feature", "properties": { "Name": "Billiard Market", "address": "ул. Мусоргского, 10, корп. 44, Калининград, павильон 41, этаж 2", "latitude": 54.726900008846002, "longitude": 20.501959985355999 }, "geometry": { "type": "Point", "coordinates": [ 20.501959985355999, 54.726900008846002 ] } },
{ "type": "Feature", "properties": { "Name": "Спортик 39", "address": "ул. Черняховского, 15, лит.Б, Калининград, этаж 1", "latitude": 54.721700001843999, "longitude": 20.513440007583 }, "geometry": { "type": "Point", "coordinates": [ 20.509775995732852, 54.720323792250753 ] } },
{ "type": "Feature", "properties": { "Name": "Эвита", "address": "Камская ул., 2Б, корп. 6, Калининград, этаж 2", "latitude": 54.681949999501001, "longitude": 20.456720004070998 }, "geometry": { "type": "Point", "coordinates": [ 20.456720004070998, 54.681949999501001 ] } }
]
}
