{
"type": "FeatureCollection",
"crs": { "type": "name", "properties": { "name": "urn:ogc:def:crs:OGC:1.3:CRS84" } },
"features": [
{ "type": "Feature", "properties": { "Name": "Калининградский областной музыкальный колледж имени С. В. Рахманинова", "address": "ул. Фрунзе, 4, Калининград, Россия", "longitude": 20.519074, "latitude": 54.711555 }, "geometry": { "type": "Point", "coordinates": [ 20.519074, 54.711555 ] } },
{ "type": "Feature", "properties": { "Name": "Калининградский бизнес-колледж", "address": "2-я Судостроительная ул., 1А, Калининград, Россия", "longitude": 20.505212, "latitude": 54.681046 }, "geometry": { "type": "Point", "coordinates": [ 20.505212, 54.681046 ] } },
{ "type": "Feature", "properties": { "Name": "Калининградский морской рыбопромышленный колледж", "address": "Мореходная ул., 3, Калининград, Россия", "longitude": 20.506988, "latitude": 54.701408 }, "geometry": { "type": "Point", "coordinates": [ 20.506988, 54.701408 ] } },
{ "type": "Feature", "properties": { "Name": "Колледж предпринимательства", "address": "ул. Брамса, 9, Калининград, Россия", "longitude": 20.494011, "latitude": 54.721076 }, "geometry": { "type": "Point", "coordinates": [ 20.494011, 54.721076 ] } },
{ "type": "Feature", "properties": { "Name": "Колледж Экономики и Права", "address": "ул. Клавы Назаровой, 6, Калининград, Россия", "longitude": 20.523706, "latitude": 54.683496 }, "geometry": { "type": "Point", "coordinates": [ 20.523706, 54.683496 ] } },
{ "type": "Feature", "properties": { "Name": "Колледж сервиса и туризма, корпус № 1", "address": "Ленинский просп., 42Б, Калининград, Россия", "longitude": 20.503503, "latitude": 54.701844 }, "geometry": { "type": "Point", "coordinates": [ 20.503503, 54.701844 ] } },
{ "type": "Feature", "properties": { "Name": "Калининградский торгово-экономический колледж", "address": "Артиллерийская ул., 18, Калининград, Россия", "longitude": 20.538655, "latitude": 54.732257 }, "geometry": { "type": "Point", "coordinates": [ 20.538655, 54.732257 ] } },
{ "type": "Feature", "properties": { "Name": "Автономная некоммерческая профессиональная образовательная организация Калининградский колледж управления", "address": "ул. Баженова, 4, Калининград, Россия", "longitude": 20.561943, "latitude": 54.704888 }, "geometry": { "type": "Point", "coordinates": [ 20.561943, 54.704888 ] } },
{ "type": "Feature", "properties": { "Name": "Калининградский гуманитарный колледж", "address": "ул. Аллея Смелых, 182, Калининград, Россия", "longitude": 20.519261, "latitude": 54.670061 }, "geometry": { "type": "Point", "coordinates": [ 20.519261, 54.670061 ] } },
{ "type": "Feature", "properties": { "Name": "Академия Топ", "address": "ул. Куйбышева, 11, Калининград, Россия", "longitude": 20.529768, "latitude": 54.726844 }, "geometry": { "type": "Point", "coordinates": [ 20.529768, 54.726844 ] } },
{ "type": "Feature", "properties": { "Name": "Колледж сервиса и туризма, корпус № 3", "address": "ул. Литовский Вал, 27А, Калининград, Россия", "longitude": 20.537812, "latitude": 54.712926 }, "geometry": { "type": "Point", "coordinates": [ 20.537812, 54.712926 ] } },
{ "type": "Feature", "properties": { "Name": "Синергия", "address": "Театральная ул., 35, Калининград, Россия", "longitude": 20.497427, "latitude": 54.717605 }, "geometry": { "type": "Point", "coordinates": [ 20.497427, 54.717605 ] } },
{ "type": "Feature", "properties": { "Name": "Прибалтийский судостроительный техникум, учебно-производственная мастерская", "address": "ул. Маршала Новикова, 5, корп. 1, Калининград, Россия", "longitude": 20.48222, "latitude": 54.679854 }, "geometry": { "type": "Point", "coordinates": [ 20.48222, 54.679854 ] } },
{ "type": "Feature", "properties": { "Name": "Колледж информационных технологий и строительства", "address": "ул. Горького, 166, Калининград, Россия", "longitude": 20.502194212766195, "latitude": 54.748294235691191 }, "geometry": { "type": "Point", "coordinates": [ 20.502194212766195, 54.748294235691191 ] } },
{ "type": "Feature", "properties": { "Name": "Колледж предпринимательства", "address": "Спортивная ул., 6, Калининград, Россия", "longitude": 20.457901217447137, "latitude": 54.724033409271968 }, "geometry": { "type": "Point", "coordinates": [ 20.457901217447137, 54.724033409271968 ] } },
{ "type": "Feature", "properties": { "Name": "Городская поликлиника № 3", "address": "Транспортный тупик, 10, Калининград, Россия", "longitude": 20.445221186007455, "latitude": 54.695271932811465 }, "geometry": { "type": "Point", "coordinates": [ 20.445221186007455, 54.695271932811465 ] } }
]
}
