{
"type": "FeatureCollection",
"name": "college",
"crs": { "type": "name", "properties": { "name": "urn:ogc:def:crs:OGC:1.3:CRS84" } },
"features": [
{ "type": "Feature", "properties": { "Name": "Калининградский областной музыкальный колледж имени С. В. Рахманинова", "address": "ул. Фрунзе, 4, Калининград, Россия", "longitude": 20.519074, "latitude": 54.711555 }, "geometry": { "type": "Point", "coordinates": [ 20.519074, 54.711555 ] } },
{ "type": "Feature", "properties": { "Name": "Калининградский бизнес-колледж", "address": "2-я Судостроительная ул., 1А, Калининград, Россия", "longitude": 20.505212, "latitude": 54.681046 }, "geometry": { "type": "Point", "coordinates": [ 20.505212, 54.681046 ] } },
{ "type": "Feature", "properties": { "Name": "Калининградский морской рыбопромышленный колледж", "address": "Мореходная ул., 3, Калининград, Россия", "longitude": 20.506988, "latitude": 54.701408 }, "geometry": { "type": "Point", "coordinates": [ 20.506988, 54.701408 ] } },
{ "type": "Feature", "properties": { "Name": "Колледж предпринимательства", "address": "ул. Брамса, 9, Калининград, Россия", "longitude": 20.494011, "latitude": 54.721076 }, "geometry": { "type": "Point", "coordinates": [ 20.494011, 54.721076 ] } },
{ "type": "Feature", "properties": { "Name": "Колледж Экономики и Права", "address": "ул. Клавы Назаровой, 6, Калининград, Россия", "longitude": 20.523706, "latitude": 54.683496 }, "geometry": { "type": "Point", "coordinates": [ 20.523706, 54.683496 ] } },
{ "type": "Feature", "properties": { "Name": "Колледж сервиса и туризма, корпус № 1", "address": "Ленинский просп., 42Б, Калининград, Россия", "longitude": 20.503503, "latitude": 54.701844 }, "geometry": { "type": "Point", "coordinates": [ 20.503503, 54.701844 ] } },
{ "type": "Feature", "properties": { "Name": "Калининградский торгово-экономический колледж", "address": "Артиллерийская ул., 18, Калининград, Россия", "longitude": 20.538655, "latitude": 54.732257 }, "geometry": { "type": "Point", "coordinates": [ 20.538655, 54.732257 ] } },
{ "type": "Feature", "properties": { "Name": "Автономная некоммерческая профессиональная образовательная организация Калининградский колледж управления", "address": "ул. Баженова, 4, Калининград, Россия", "longitude": 20.561943, "latitude": 54.704888 }, "geometry": { "type": "Point", "coordinates": [ 20.561943, 54.704888 ] } },
{ "type": "Feature", "properties": { "Name": "Калининградский гуманитарный колледж", "address": "ул. Аллея Смелых, 182, Калининград, Россия", "longitude": 20.519261, "latitude": 54.670061 }, "geometry": { "type": "Point", "coordinates": [ 20.519261, 54.670061 ] } },
{ "type": "Feature", "properties": { "Name": "Академия Топ", "address": "ул. Куйбышева, 11, Калининград, Россия", "longitude": 20.529768, "latitude": 54.726844 }, "geometry": { "type": "Point", "coordinates": [ 20.529768, 54.726844 ] } },
{ "type": "Feature", "properties": { "Name": "Колледж сервиса и туризма, корпус № 3", "address": "ул. Литовский Вал, 27А, Калининград, Россия", "longitude": 20.537812, "latitude": 54.712926 }, "geometry": { "type": "Point", "coordinates": [ 20.537812, 54.712926 ] } },
{ "type": "Feature", "properties": { "Name": "Синергия", "address": "Театральная ул., 35, Калининград, Россия", "longitude": 20.497427, "latitude": 54.717605 }, "geometry": { "type": "Point", "coordinates": [ 20.497427, 54.717605 ] } },
{ "type": "Feature", "properties": { "Name": "Прибалтийский судостроительный техникум, учебно-производственная мастерская", "address": "ул. Маршала Новикова, 5, корп. 1, Калининград, Россия", "longitude": 20.48222, "latitude": 54.679854 }, "geometry": { "type": "Point", "coordinates": [ 20.48222, 54.679854 ] } },
{ "type": "Feature", "properties": { "Name": "Колледж информационных технологий и строительства", "address": "ул. Горького, 166, Калининград, Россия", "longitude": 20.502194212766195, "latitude": 54.748294235691191 }, "geometry": { "type": "Point", "coordinates": [ 20.502194212766195, 54.748294235691191 ] } },
{ "type": "Feature", "properties": { "Name": "Колледж предпринимательства", "address": "Спортивная ул., 6, Калининград, Россия", "longitude": 20.457901217447137, "latitude": 54.724033409271968 }, "geometry": { "type": "Point", "coordinates": [ 20.457901217447137, 54.724033409271968 ] } },
{ "type": "Feature", "properties": { "Name": "Московская государственная академия хореографии", "address": "Солнечный бульвар, 27, Калининград", "longitude": null, "latitude": null }, "geometry": { "type": "Point", "coordinates": [ 20.542443254741595, 54.696561619755677 ] } },
{ "type": "Feature", "properties": { "Name": "Балтийская государственная академия рыбопромыслового флота", "address": "Островского, 22, Калининград", "longitude": null, "latitude": null }, "geometry": { "type": "Point", "coordinates": [ 20.52613676661904, 54.743711435218572 ] } },
{ "type": "Feature", "properties": { "Name": "Балтийский информационный техникум", "address": "Литовский вал, 38, Калининград", "longitude": null, "latitude": null }, "geometry": { "type": "Point", "coordinates": [ 20.532470029095407, 54.716840006744889 ] } },
{ "type": "Feature", "properties": { "Name": "Прибалтийский судостроительный техникум", "address": "Маршала Новикова, 5, Калининград", "longitude": null, "latitude": null }, "geometry": { "type": "Point", "coordinates": [ 20.480601758608454, 54.679935462467633 ] } },
{ "type": "Feature", "properties": { "Name": "Училище (техникум) олимпийского резерва", "address": "Аллея Смелых, 114, Калининград", "longitude": null, "latitude": null }, "geometry": { "type": "Point", "coordinates": [ 20.521325041260614, 54.679576510270444 ] } },
{ "type": "Feature", "properties": { "Name": "Прибалтийский судостроительный техникум", "address": "Транспортный тупик, 10 к1, Калининград", "longitude": null, "latitude": null }, "geometry": { "type": "Point", "coordinates": [ 20.444935021597999, 54.69520502379364 ] } },
{ "type": "Feature", "properties": { "Name": "НАХИМОВСКОЕ ВОЕННО-МОРСКОЕ УЧИЛИЩЕ МИНИСТЕРСТВА ОБОРОНЫ РОССИЙСКОЙ ФЕДЕРАЦИИ", "address": "Артиллерийская, 21, Калининград", "longitude": null, "latitude": null }, "geometry": { "type": "Point", "coordinates": [ 20.541738421569057, 54.733534604749877 ] } }
]
}
