{
"type": "FeatureCollection",
"crs": { "type": "name", "properties": { "name": "urn:ogc:def:crs:OGC:1.3:CRS84" } },
"features": [
{ "type": "Feature", "properties": { "Name": "Джек", "address": "ул. Фрунзе, 6В, Калининград, Россия", "longitude": 20.520863, "latitude": 54.711854 }, "geometry": { "type": "Point", "coordinates": [ 20.520863, 54.711854 ] } },
{ "type": "Feature", "properties": { "Name": "Елена", "address": "Советский просп., 40Б, Калининград, Россия", "longitude": 20.495189, "latitude": 54.728247 }, "geometry": { "type": "Point", "coordinates": [ 20.495189, 54.728247 ] } },
{ "type": "Feature", "properties": { "Name": "Вектор", "address": "Ленинский просп., 131, Калининград, Россия", "longitude": 20.503496, "latitude": 54.698858 }, "geometry": { "type": "Point", "coordinates": [ 20.503496, 54.698858 ] } },
{ "type": "Feature", "properties": { "Name": "Джек", "address": "ул. Маршала Жукова, 6, Калининград, Россия", "longitude": 20.493797, "latitude": 54.748546 }, "geometry": { "type": "Point", "coordinates": [ 20.493797, 54.748546 ] } },
{ "type": "Feature", "properties": { "Name": "Центр-Авто", "address": "ул. Ульяны Громовой, 10, Калининград, Россия", "longitude": 20.500285, "latitude": 54.672692 }, "geometry": { "type": "Point", "coordinates": [ 20.500285, 54.672692 ] } },
{ "type": "Feature", "properties": { "Name": "Автошкола", "address": "ул. Александра Невского, 27, Калининград, Россия", "longitude": 20.527201, "latitude": 54.726918 }, "geometry": { "type": "Point", "coordinates": [ 20.527201, 54.726918 ] } },
{ "type": "Feature", "properties": { "Name": "ПОУ Костш ДОСААФ России", "address": "Озёрная ул., 31А, Калининград, Россия", "longitude": 20.509977, "latitude": 54.73957 }, "geometry": { "type": "Point", "coordinates": [ 20.509977, 54.73957 ] } },
{ "type": "Feature", "properties": { "Name": "Аркада", "address": "Батальная ул., 2В, Калининград, Россия", "longitude": 20.492052, "latitude": 54.678505 }, "geometry": { "type": "Point", "coordinates": [ 20.492052, 54.678505 ] } },
{ "type": "Feature", "properties": { "Name": "Центр-Авто", "address": "Октябрьская ул., 37, Калининград, Россия", "longitude": 20.517507, "latitude": 54.702374 }, "geometry": { "type": "Point", "coordinates": [ 20.517507, 54.702374 ] } },
{ "type": "Feature", "properties": { "Name": "Центр-Авто", "address": "просп. Мира, 84, Калининград, Россия", "longitude": 20.475112, "latitude": 54.720735 }, "geometry": { "type": "Point", "coordinates": [ 20.475112, 54.720735 ] } },
{ "type": "Feature", "properties": { "Name": "Экстерн-Гарант", "address": "ул. Аксакова, 104, Калининград, Россия", "longitude": 20.581581, "latitude": 54.711095 }, "geometry": { "type": "Point", "coordinates": [ 20.581581, 54.711095 ] } },
{ "type": "Feature", "properties": { "Name": "Вектор", "address": "просп. Мира, 136, Калининград, Россия", "longitude": 20.452196, "latitude": 54.721468 }, "geometry": { "type": "Point", "coordinates": [ 20.452196, 54.721468 ] } },
{ "type": "Feature", "properties": { "Name": "АвтоДока", "address": "ул. Павлика Морозова, 5А, Калининград, Россия", "longitude": 20.472785, "latitude": 54.680612 }, "geometry": { "type": "Point", "coordinates": [ 20.472785, 54.680612 ] } },
{ "type": "Feature", "properties": { "Name": "Центр-Авто", "address": "Ленинский просп., 4, Калининград, Россия", "longitude": 20.502668, "latitude": 54.715862 }, "geometry": { "type": "Point", "coordinates": [ 20.502668, 54.715862 ] } },
{ "type": "Feature", "properties": { "Name": "Экстерн-гарант", "address": "Ленинский просп., 7, Калининград, Россия", "longitude": 20.502585, "latitude": 54.717878 }, "geometry": { "type": "Point", "coordinates": [ 20.502585, 54.717878 ] } },
{ "type": "Feature", "properties": { "Name": "Экстерн-Гарант", "address": "Лужская ул., 23, Калининград, Россия", "longitude": 20.349907, "latitude": 54.727841 }, "geometry": { "type": "Point", "coordinates": [ 20.349907, 54.727841 ] } },
{ "type": "Feature", "properties": { "Name": "Елена", "address": "ул. 9 Апреля, 86А, Калининград, Россия", "longitude": 20.525518, "latitude": 54.718612 }, "geometry": { "type": "Point", "coordinates": [ 20.525518, 54.718612 ] } },
{ "type": "Feature", "properties": { "Name": "Экстерн-Гарант", "address": "ул. Багратиона, 49, Калининград, Россия", "longitude": 20.509449, "latitude": 54.698905 }, "geometry": { "type": "Point", "coordinates": [ 20.509449, 54.698905 ] } },
{ "type": "Feature", "properties": { "Name": "Виктория", "address": "Советский просп., 16, Калининград, Россия", "longitude": 20.49899, "latitude": 54.723974 }, "geometry": { "type": "Point", "coordinates": [ 20.49899, 54.723974 ] } },
{ "type": "Feature", "properties": { "Name": "Автовит", "address": "Пролетарская ул., 90, Калининград, Россия", "longitude": 20.514787, "latitude": 54.720692 }, "geometry": { "type": "Point", "coordinates": [ 20.514787, 54.720692 ] } },
{ "type": "Feature", "properties": { "Name": "Гарантия", "address": "ул. Дзержинского, 130, Калининград, Россия", "longitude": 20.53346, "latitude": 54.683893 }, "geometry": { "type": "Point", "coordinates": [ 20.53346, 54.683893 ] } },
{ "type": "Feature", "properties": { "Name": "Сания", "address": "Красносельская ул., 80, Калининград, Россия", "longitude": 20.443743, "latitude": 54.719352 }, "geometry": { "type": "Point", "coordinates": [ 20.443743, 54.719352 ] } },
{ "type": "Feature", "properties": { "Name": "Драйвер", "address": "Интернациональная ул., 30, Калининград, Россия", "longitude": 20.500898, "latitude": 54.668931 }, "geometry": { "type": "Point", "coordinates": [ 20.500898, 54.668931 ] } },
{ "type": "Feature", "properties": { "Name": "ВОА", "address": "ул. Менделеева, 9, Калининград, Россия", "longitude": 20.436615, "latitude": 54.713081 }, "geometry": { "type": "Point", "coordinates": [ 20.436615, 54.713081 ] } },
{ "type": "Feature", "properties": { "Name": "Ю-Драйв", "address": "Минская ул., 25, Калининград, Россия", "longitude": 20.510047, "latitude": 54.717516 }, "geometry": { "type": "Point", "coordinates": [ 20.510047, 54.717516 ] } },
{ "type": "Feature", "properties": { "Name": "Аркада", "address": "Ленинский просп., 67Б, Калининград, Россия", "longitude": 20.508144, "latitude": 54.712878 }, "geometry": { "type": "Point", "coordinates": [ 20.508144, 54.712878 ] } },
{ "type": "Feature", "properties": { "Name": "Сания", "address": "ул. Маршала Борзова, 58А, Калининград, Россия", "longitude": 20.458557, "latitude": 54.738666 }, "geometry": { "type": "Point", "coordinates": [ 20.458557, 54.738666 ] } },
{ "type": "Feature", "properties": { "Name": "Автовит", "address": "ул. Генерала Челнокова, 11А, Калининград, Россия", "longitude": 20.48728, "latitude": 54.736789 }, "geometry": { "type": "Point", "coordinates": [ 20.48728, 54.736789 ] } },
{ "type": "Feature", "properties": { "Name": "Виктория", "address": "Интернациональная ул., 62А, Калининград, Россия", "longitude": 20.506996, "latitude": 54.668827 }, "geometry": { "type": "Point", "coordinates": [ 20.506996, 54.668827 ] } },
{ "type": "Feature", "properties": { "Name": "Оми", "address": "Красная ул., 115, Калининград, Россия", "longitude": 20.473059, "latitude": 54.735289 }, "geometry": { "type": "Point", "coordinates": [ 20.473059, 54.735289 ] } },
{ "type": "Feature", "properties": { "Name": "Оми", "address": "ул. Боткина, 2А, Калининград, Россия", "longitude": 20.524183, "latitude": 54.716834 }, "geometry": { "type": "Point", "coordinates": [ 20.524183, 54.716834 ] } },
{ "type": "Feature", "properties": { "Name": "Мотошкола Сергея Трёкина", "address": "Пригородная ул., 4, Калининград, Россия", "longitude": 20.561341, "latitude": 54.723793 }, "geometry": { "type": "Point", "coordinates": [ 20.561341, 54.723793 ] } },
{ "type": "Feature", "properties": { "Name": "Авто-Престиж", "address": "ул. Беланова, 8, микрорайон Чкаловск, Калининград, Россия", "longitude": 20.447936, "latitude": 54.771704 }, "geometry": { "type": "Point", "coordinates": [ 20.447936, 54.771704 ] } },
{ "type": "Feature", "properties": { "Name": "Кодекс", "address": "ул. Горького, 15, Калининград, Россия", "longitude": 20.509012, "latitude": 54.724168 }, "geometry": { "type": "Point", "coordinates": [ 20.509012, 54.724168 ] } },
{ "type": "Feature", "properties": { "Name": "Курс-авто", "address": "ул. Карла Маркса, 18, Калининград, Россия", "longitude": 20.48088, "latitude": 54.728668 }, "geometry": { "type": "Point", "coordinates": [ 20.48088, 54.728668 ] } },
{ "type": "Feature", "properties": { "Name": "Смилодон", "address": "Ленинский просп., 30А, Калининград, Россия", "longitude": 20.507529, "latitude": 54.711547 }, "geometry": { "type": "Point", "coordinates": [ 20.507529, 54.711547 ] } },
{ "type": "Feature", "properties": { "Name": "Авто-Престиж", "address": "Юбилейная ул., 2, Калининград, Россия", "longitude": 20.539481, "latitude": 54.718032 }, "geometry": { "type": "Point", "coordinates": [ 20.539481, 54.718032 ] } },
{ "type": "Feature", "properties": { "Name": "Авто-лидер", "address": "площадь Маршала Василевского, 2, Калининград, Россия", "longitude": 20.524178, "latitude": 54.719841 }, "geometry": { "type": "Point", "coordinates": [ 20.524178, 54.719841 ] } },
{ "type": "Feature", "properties": { "Name": "Курсы Подготовки Водителей Транспортных Средств Категории в КГТУ", "address": "Мореходная ул., 6, Калининград, Россия", "longitude": 20.506486, "latitude": 54.701464 }, "geometry": { "type": "Point", "coordinates": [ 20.506486, 54.701464 ] } },
{ "type": "Feature", "properties": { "Name": "Елена", "address": "Киевская ул., 52, Калининград, Россия", "longitude": 20.482113, "latitude": 54.682118 }, "geometry": { "type": "Point", "coordinates": [ 20.482113, 54.682118 ] } },
{ "type": "Feature", "properties": { "Name": "Вектор", "address": "ул. Александра Невского, 36В, Калининград, Россия", "longitude": 20.52883231670096, "latitude": 54.727750491049953 }, "geometry": { "type": "Point", "coordinates": [ 20.52883231670096, 54.727750491049953 ] } },
{ "type": "Feature", "properties": { "Name": "Джек", "address": "Батальная ул., 69, Калининград, Россия", "longitude": 20.506948238690796, "latitude": 54.675763023252749 }, "geometry": { "type": "Point", "coordinates": [ 20.506948238690796, 54.675763023252749 ] } },
{ "type": "Feature", "properties": { "Name": "Вектор", "address": "ул. Генерала Челнокова, 11, Калининград, Россия", "longitude": 20.487261029005971, "latitude": 54.737538793402067 }, "geometry": { "type": "Point", "coordinates": [ 20.487261029005971, 54.737538793402067 ] } },
{ "type": "Feature", "properties": { "Name": "Виктория", "address": "Батальная ул., 54Г, Калининград, Россия", "longitude": 20.499586148624363, "latitude": 54.675623728265663 }, "geometry": { "type": "Point", "coordinates": [ 20.499586148624363, 54.675623728265663 ] } },
{ "type": "Feature", "properties": { "Name": "Автошкола", "address": "ул. Аксакова, 100А, Калининград, Россия", "longitude": 20.579863617673766, "latitude": 54.71114007451208 }, "geometry": { "type": "Point", "coordinates": [ 20.579863617673766, 54.71114007451208 ] } },
{ "type": "Feature", "properties": { "Name": "Рыцарь", "address": "Московский просп., 177, Калининград, Россия", "longitude": 20.549291011476551, "latitude": 54.712197943920117 }, "geometry": { "type": "Point", "coordinates": [ 20.549291011476551, 54.712197943920117 ] } },
{ "type": "Feature", "properties": { "Name": "Аркада плюс", "address": "просп. Мира, 81, Калининград, Россия", "longitude": 20.467236832339083, "latitude": 54.721883993955402 }, "geometry": { "type": "Point", "coordinates": [ 20.467236832339083, 54.721883993955402 ] } },
{ "type": "Feature", "properties": { "Name": "Автошкола Аркада", "address": "Водная ул., 10, Калининград, Россия", "longitude": 20.526854848410785, "latitude": 54.693897138453565 }, "geometry": { "type": "Point", "coordinates": [ 20.526854848410785, 54.693897138453565 ] } },
{ "type": "Feature", "properties": { "Name": "АвтоДока", "address": "ул. Гайдара, 163, Калининград, Россия", "longitude": 20.510313806549412, "latitude": 54.742403085803694 }, "geometry": { "type": "Point", "coordinates": [ 20.510313806549412, 54.742403085803694 ] } }
]
}
