{
"type": "FeatureCollection",
"crs": { "type": "name", "properties": { "name": "urn:ogc:def:crs:OGC:1.3:CRS84" } },
"features": [
{ "type": "Feature", "properties": { "Name": "Детский сад № 98", "address": "пер. Грига, 1, Калининград, Россия", "longitude": 20.529234, "latitude": 54.716171 }, "geometry": { "type": "Point", "coordinates": [ 20.529234, 54.716171 ] } },
{ "type": "Feature", "properties": { "Name": "Детский сад № 125", "address": "Артиллерийская ул., 72, Калининград, Россия", "longitude": 20.550783, "latitude": 54.737305 }, "geometry": { "type": "Point", "coordinates": [ 20.550783, 54.737305 ] } },
{ "type": "Feature", "properties": { "Name": "Детский сад № 132", "address": "Флотская ул., 5, Калининград, Россия", "longitude": 20.588675, "latitude": 54.711628 }, "geometry": { "type": "Point", "coordinates": [ 20.588675, 54.711628 ] } },
{ "type": "Feature", "properties": { "Name": "Детский сад № 86", "address": "ул. Богдана Хмельницкого, 84, Калининград, Россия", "longitude": 20.513045, "latitude": 54.69696 }, "geometry": { "type": "Point", "coordinates": [ 20.513045, 54.69696 ] } },
{ "type": "Feature", "properties": { "Name": "Детский сад № 55", "address": "Нарвская ул., 117, Калининград, Россия", "longitude": 20.49853, "latitude": 54.743624 }, "geometry": { "type": "Point", "coordinates": [ 20.49853, 54.743624 ] } },
{ "type": "Feature", "properties": { "Name": "Детский сад № 1", "address": "Свободная ул., 34, Калининград, Россия", "longitude": 20.486557, "latitude": 54.71656 }, "geometry": { "type": "Point", "coordinates": [ 20.486557, 54.71656 ] } },
{ "type": "Feature", "properties": { "Name": "Детский сад № 135", "address": "Клиническая ул., 23, Калининград, Россия", "longitude": 20.520076, "latitude": 54.714463 }, "geometry": { "type": "Point", "coordinates": [ 20.520076, 54.714463 ] } },
{ "type": "Feature", "properties": { "Name": "МАДОУ ЦРР детский сад № 133", "address": "ул. Куприна, 17, Калининград, Россия", "longitude": 20.575628, "latitude": 54.710293 }, "geometry": { "type": "Point", "coordinates": [ 20.575628, 54.710293 ] } },
{ "type": "Feature", "properties": { "Name": "Детский сад № 121", "address": "ул. Литовский Вал, 103А, Калининград, Россия", "longitude": 20.539084, "latitude": 54.707378 }, "geometry": { "type": "Point", "coordinates": [ 20.539084, 54.707378 ] } },
{ "type": "Feature", "properties": { "Name": "Детский сад № 31", "address": "ул. Сергея Тюленина, 4, Калининград, Россия", "longitude": 20.518889, "latitude": 54.710525 }, "geometry": { "type": "Point", "coordinates": [ 20.518889, 54.710525 ] } },
{ "type": "Feature", "properties": { "Name": "Детский сад № 114", "address": "Коммунистическая ул., 61А, Калининград, Россия", "longitude": 20.484114, "latitude": 54.671825 }, "geometry": { "type": "Point", "coordinates": [ 20.484114, 54.671825 ] } },
{ "type": "Feature", "properties": { "Name": "МАДОУ ЦРР д/с № 94", "address": "ул. 1812 года, 69, Калининград, Россия", "longitude": 20.534108, "latitude": 54.712066 }, "geometry": { "type": "Point", "coordinates": [ 20.534108, 54.712066 ] } },
{ "type": "Feature", "properties": { "Name": "МАДОУ детский сад № 124", "address": "Печатная ул., 43, Калининград, Россия", "longitude": 20.477496, "latitude": 54.672015 }, "geometry": { "type": "Point", "coordinates": [ 20.477496, 54.672015 ] } },
{ "type": "Feature", "properties": { "Name": "Детский сад", "address": "Солнечный бул., 5, Калининград, Россия", "longitude": 20.520056, "latitude": 54.70295 }, "geometry": { "type": "Point", "coordinates": [ 20.520056, 54.70295 ] } },
{ "type": "Feature", "properties": { "Name": "МАДОУ детский сад № 56, корпус 1", "address": "ул. Виллима Фермора, 1, Ленинградский район, микрорайон Сельма, Калининград, Россия", "longitude": 20.487611, "latitude": 54.743634 }, "geometry": { "type": "Point", "coordinates": [ 20.487611, 54.743634 ] } },
{ "type": "Feature", "properties": { "Name": "МАДОУ ЦРР № 50", "address": "Зелёная ул., 42А, Калининград, Россия", "longitude": 20.502938, "latitude": 54.737777 }, "geometry": { "type": "Point", "coordinates": [ 20.502938, 54.737777 ] } },
{ "type": "Feature", "properties": { "Name": "Детский сад № 107", "address": "ул. Новый Вал, 25, Калининград, Россия", "longitude": 20.51102, "latitude": 54.701909 }, "geometry": { "type": "Point", "coordinates": [ 20.51102, 54.701909 ] } },
{ "type": "Feature", "properties": { "Name": "Детский сад № 47", "address": "Красная ул., 103, Калининград, Россия", "longitude": 20.473827, "latitude": 54.733821 }, "geometry": { "type": "Point", "coordinates": [ 20.473827, 54.733821 ] } },
{ "type": "Feature", "properties": { "Name": "Детский сад № 51", "address": "ул. Беланова, 91А, микрорайон Чкаловск, Калининград, Россия", "longitude": 20.445177, "latitude": 54.773157 }, "geometry": { "type": "Point", "coordinates": [ 20.445177, 54.773157 ] } },
{ "type": "Feature", "properties": { "Name": "Детский сад № 48", "address": "ул. Левитана, 37, Калининград, Россия", "longitude": 20.577654, "latitude": 54.676671 }, "geometry": { "type": "Point", "coordinates": [ 20.577654, 54.676671 ] } },
{ "type": "Feature", "properties": { "Name": "Детский сад № 87", "address": "ул. Вагнера, 24, Калининград, Россия", "longitude": 20.504868, "latitude": 54.712276 }, "geometry": { "type": "Point", "coordinates": [ 20.504868, 54.712276 ] } },
{ "type": "Feature", "properties": { "Name": "Детский сад № 119", "address": "ул. Репина, 54, Калининград, Россия", "longitude": 20.487556, "latitude": 54.72828 }, "geometry": { "type": "Point", "coordinates": [ 20.487556, 54.72828 ] } },
{ "type": "Feature", "properties": { "Name": "3 корпус МАДОУ детский сад № 123", "address": "ул. Юрия Костикова, 3, Калининград, Россия", "longitude": 20.541089, "latitude": 54.723226 }, "geometry": { "type": "Point", "coordinates": [ 20.541089, 54.723226 ] } },
{ "type": "Feature", "properties": { "Name": "Детский сад № 105", "address": "Пролетарская ул., 80А, Калининград, Россия", "longitude": 20.515126, "latitude": 54.719413 }, "geometry": { "type": "Point", "coordinates": [ 20.515126, 54.719413 ] } },
{ "type": "Feature", "properties": { "Name": "МАДОУ ЦРР д/с № 19", "address": "Серпуховская ул., 26, Калининград, Россия", "longitude": 20.501371, "latitude": 54.702679 }, "geometry": { "type": "Point", "coordinates": [ 20.501371, 54.702679 ] } },
{ "type": "Feature", "properties": { "Name": "Детский сад √87", "address": "Пролетарская ул., 5А, Калининград, Россия", "longitude": 20.511738, "latitude": 54.712238 }, "geometry": { "type": "Point", "coordinates": [ 20.511738, 54.712238 ] } },
{ "type": "Feature", "properties": { "Name": "Детский сад № 87", "address": "Университетская ул., 13, Калининград, Россия", "longitude": 20.50754, "latitude": 54.714504 }, "geometry": { "type": "Point", "coordinates": [ 20.50754, 54.714504 ] } },
{ "type": "Feature", "properties": { "Name": "Детский сад № 110", "address": "Калужская ул., 20, Калининград, Россия", "longitude": 20.4993, "latitude": 54.729818 }, "geometry": { "type": "Point", "coordinates": [ 20.4993, 54.729818 ] } },
{ "type": "Feature", "properties": { "Name": "В гостях у сказки", "address": "ул. Верхние Поля, 12, Калининград, Россия", "longitude": 20.54809, "latitude": 54.748015 }, "geometry": { "type": "Point", "coordinates": [ 20.54809, 54.748015 ] } },
{ "type": "Feature", "properties": { "Name": "Детский сад № 104", "address": "ул. Багратиона, 135, Калининград, Россия", "longitude": 20.495748, "latitude": 54.697268 }, "geometry": { "type": "Point", "coordinates": [ 20.495748, 54.697268 ] } },
{ "type": "Feature", "properties": { "Name": "Детский сад № 123", "address": "ул. Куйбышева, 139, Калининград, Россия", "longitude": 20.540422, "latitude": 54.727154 }, "geometry": { "type": "Point", "coordinates": [ 20.540422, 54.727154 ] } },
{ "type": "Feature", "properties": { "Name": "Детский сад № 136", "address": "ул. Николая Карамзина, 11, Калининград, Россия", "longitude": 20.504391, "latitude": 54.666874 }, "geometry": { "type": "Point", "coordinates": [ 20.504391, 54.666874 ] } },
{ "type": "Feature", "properties": { "Name": "Детский сад № 131", "address": "Дрожжевая ул., 3, Калининград, Россия", "longitude": 20.499826, "latitude": 54.678996 }, "geometry": { "type": "Point", "coordinates": [ 20.499826, 54.678996 ] } },
{ "type": "Feature", "properties": { "Name": "Детский сад № 78, МАДОУ ЦРР", "address": "Камская ул., 2Г, Калининград, Россия", "longitude": 20.457799, "latitude": 54.682755 }, "geometry": { "type": "Point", "coordinates": [ 20.457799, 54.682755 ] } },
{ "type": "Feature", "properties": { "Name": "Детский сад № 6", "address": "Черниговская ул., 6, Калининград, Россия", "longitude": 20.524325, "latitude": 54.686543 }, "geometry": { "type": "Point", "coordinates": [ 20.524325, 54.686543 ] } },
{ "type": "Feature", "properties": { "Name": "Детский сад № 70", "address": "ул. Богдана Хмельницкого, 14, Калининград, Россия", "longitude": 20.507133, "latitude": 54.696798 }, "geometry": { "type": "Point", "coordinates": [ 20.507133, 54.696798 ] } },
{ "type": "Feature", "properties": { "Name": "Детский сад № 119", "address": "ул. Войнич, 2, Калининград, Россия", "longitude": 20.484505, "latitude": 54.731945 }, "geometry": { "type": "Point", "coordinates": [ 20.484505, 54.731945 ] } },
{ "type": "Feature", "properties": { "Name": "Детский сад № 20", "address": "ул. Каштановая Аллея, 174, Калининград, Россия", "longitude": 20.464799, "latitude": 54.734183 }, "geometry": { "type": "Point", "coordinates": [ 20.464799, 54.734183 ] } },
{ "type": "Feature", "properties": { "Name": "Детский сад № 113", "address": "ул. Богдана Хмельницкого, 12, Калининград, Россия", "longitude": 20.505488, "latitude": 54.69674 }, "geometry": { "type": "Point", "coordinates": [ 20.505488, 54.69674 ] } },
{ "type": "Feature", "properties": { "Name": "МАДОУ ЦРР Д/с № 2", "address": "Красносельская ул., 24, Калининград, Россия", "longitude": 20.444723, "latitude": 54.713093 }, "geometry": { "type": "Point", "coordinates": [ 20.444723, 54.713093 ] } },
{ "type": "Feature", "properties": { "Name": "Детский сад № 44", "address": "ул. Шиллера, 4, Калининград, Россия", "longitude": 20.477464, "latitude": 54.722556 }, "geometry": { "type": "Point", "coordinates": [ 20.477464, 54.722556 ] } },
{ "type": "Feature", "properties": { "Name": "Детский сад № 109", "address": "ул. Гайдара, 43, Калининград, Россия", "longitude": 20.493906, "latitude": 54.732876 }, "geometry": { "type": "Point", "coordinates": [ 20.493906, 54.732876 ] } },
{ "type": "Feature", "properties": { "Name": "Детский сад № 57", "address": "ул. Николая Карамзина, 35, Калининград, Россия", "longitude": 20.508376, "latitude": 54.666752 }, "geometry": { "type": "Point", "coordinates": [ 20.508376, 54.666752 ] } },
{ "type": "Feature", "properties": { "Name": "МАДОУ детский сад № 115", "address": "Великолукская ул., 7, Калининград, Россия", "longitude": 20.479701, "latitude": 54.682681 }, "geometry": { "type": "Point", "coordinates": [ 20.479701, 54.682681 ] } },
{ "type": "Feature", "properties": { "Name": "Детский сад № 136", "address": "ул. Ульяны Громовой, 67, Калининград, Россия", "longitude": 20.501261, "latitude": 54.666732 }, "geometry": { "type": "Point", "coordinates": [ 20.501261, 54.666732 ] } },
{ "type": "Feature", "properties": { "Name": "Детский сад № 127", "address": "ул. Чекистов, 10, Калининград, Россия", "longitude": 20.482919, "latitude": 54.73295 }, "geometry": { "type": "Point", "coordinates": [ 20.482919, 54.73295 ] } },
{ "type": "Feature", "properties": { "Name": "МАДОУ ЦРР детский сад № 83", "address": "ул. Лилии Иванихиной, 7, Калининград, Россия", "longitude": 20.498264, "latitude": 54.673377 }, "geometry": { "type": "Point", "coordinates": [ 20.498264, 54.673377 ] } },
{ "type": "Feature", "properties": { "Name": "Детский сад № 36", "address": "Ракитная ул., 1, Калининград, Россия", "longitude": 20.510643, "latitude": 54.723515 }, "geometry": { "type": "Point", "coordinates": [ 20.510643, 54.723515 ] } },
{ "type": "Feature", "properties": { "Name": "МАДОУ д/с № 68", "address": "ул. Юрия Гагарина, 3, Калининград, Россия", "longitude": 20.537827, "latitude": 54.715158 }, "geometry": { "type": "Point", "coordinates": [ 20.537827, 54.715158 ] } },
{ "type": "Feature", "properties": { "Name": "Детский сад № 134", "address": "Нарвская ул., 78, Калининград, Россия", "longitude": 20.497925, "latitude": 54.737329 }, "geometry": { "type": "Point", "coordinates": [ 20.497925, 54.737329 ] } },
{ "type": "Feature", "properties": { "Name": "Детский сад № 10", "address": "Комсомольская ул., 29, Калининград, Россия", "longitude": 20.478597, "latitude": 54.725055 }, "geometry": { "type": "Point", "coordinates": [ 20.478597, 54.725055 ] } },
{ "type": "Feature", "properties": { "Name": "Детский сад № 101", "address": "ул. Генерала Соммера, 27А, Калининград, Россия", "longitude": 20.511203, "latitude": 54.717302 }, "geometry": { "type": "Point", "coordinates": [ 20.511203, 54.717302 ] } },
{ "type": "Feature", "properties": { "Name": "Детский сад № 40", "address": "Большевистский пер., 2/6, Калининград, Россия", "longitude": 20.504413, "latitude": 54.696684 }, "geometry": { "type": "Point", "coordinates": [ 20.504413, 54.696684 ] } },
{ "type": "Feature", "properties": { "Name": "Детский сад № 2", "address": "ул. Менделеева, 18, Калининград, Россия", "longitude": 20.438957, "latitude": 54.713447 }, "geometry": { "type": "Point", "coordinates": [ 20.438957, 54.713447 ] } },
{ "type": "Feature", "properties": { "Name": "МАДОУ ДС № 30", "address": "ул. Космонавта Леонова, 4, Калининград, Россия", "longitude": 20.482572, "latitude": 54.721633 }, "geometry": { "type": "Point", "coordinates": [ 20.482572, 54.721633 ] } },
{ "type": "Feature", "properties": { "Name": "Детский сад № 78 корпус 2", "address": "Книжная ул., 1А, Калининград, Россия", "longitude": 20.473776, "latitude": 54.677878 }, "geometry": { "type": "Point", "coordinates": [ 20.473776, 54.677878 ] } },
{ "type": "Feature", "properties": { "Name": "Детский сад № 102", "address": "Калужский пер., 7, Калининград, Россия", "longitude": 20.497317, "latitude": 54.728205 }, "geometry": { "type": "Point", "coordinates": [ 20.497317, 54.728205 ] } },
{ "type": "Feature", "properties": { "Name": "МАДОУ ЦРР детский сад № 134", "address": "ул. Старшего Лейтенанта Сибирякова, 46, Калининград, Россия", "longitude": 20.503517, "latitude": 54.736387 }, "geometry": { "type": "Point", "coordinates": [ 20.503517, 54.736387 ] } },
{ "type": "Feature", "properties": { "Name": "Детский сад № 37", "address": "ул. Чернышевского, 103, Калининград, Россия", "longitude": 20.460324, "latitude": 54.723964 }, "geometry": { "type": "Point", "coordinates": [ 20.460324, 54.723964 ] } },
{ "type": "Feature", "properties": { "Name": "Kinder", "address": "Спортивная ул., 68, Калининград, Россия", "longitude": 20.458417, "latitude": 54.731871 }, "geometry": { "type": "Point", "coordinates": [ 20.458417, 54.731871 ] } },
{ "type": "Feature", "properties": { "Name": "Детский сад № 64", "address": "Белгородская ул., 7А, Калининград, Россия", "longitude": 20.520106, "latitude": 54.68728 }, "geometry": { "type": "Point", "coordinates": [ 20.520106, 54.68728 ] } },
{ "type": "Feature", "properties": { "Name": "Детский сад № 22", "address": "Комсомольская ул., 7, Калининград, Россия", "longitude": 20.478724, "latitude": 54.722114 }, "geometry": { "type": "Point", "coordinates": [ 20.478724, 54.722114 ] } },
{ "type": "Feature", "properties": { "Name": "Детский сад № 26", "address": "Трамвайный пер., 13, Калининград, Россия", "longitude": 20.496107, "latitude": 54.690554 }, "geometry": { "type": "Point", "coordinates": [ 20.496107, 54.690554 ] } },
{ "type": "Feature", "properties": { "Name": "МАДОУ д/с № 95", "address": "ул. Кирова, 22, Калининград, Россия", "longitude": 20.491985, "latitude": 54.725702 }, "geometry": { "type": "Point", "coordinates": [ 20.491985, 54.725702 ] } },
{ "type": "Feature", "properties": { "Name": "Детский сад № 133, корпус № 2", "address": "ул. 3-го Белорусского фронта, 1, Калининград, Россия", "longitude": 20.5762, "latitude": 54.718281 }, "geometry": { "type": "Point", "coordinates": [ 20.5762, 54.718281 ] } },
{ "type": "Feature", "properties": { "Name": "Детский сад № 23", "address": "ул. Тельмана, 13, Калининград, Россия", "longitude": 20.518501, "latitude": 54.732567 }, "geometry": { "type": "Point", "coordinates": [ 20.518501, 54.732567 ] } },
{ "type": "Feature", "properties": { "Name": "Детский сад № 76", "address": "Ладожская ул., 1, Калининград, Россия", "longitude": 20.522631, "latitude": 54.741803 }, "geometry": { "type": "Point", "coordinates": [ 20.522631, 54.741803 ] } },
{ "type": "Feature", "properties": { "Name": "Детский сад № 16", "address": "Ленинградская ул., 27, Калининград, Россия", "longitude": 20.524815, "latitude": 54.734896 }, "geometry": { "type": "Point", "coordinates": [ 20.524815, 54.734896 ] } },
{ "type": "Feature", "properties": { "Name": "Детский сад № 99", "address": "Заводская ул., 18А, микрорайон Прибрежный, Калининград, Россия", "longitude": 20.337612, "latitude": 54.649605 }, "geometry": { "type": "Point", "coordinates": [ 20.337612, 54.649605 ] } },
{ "type": "Feature", "properties": { "Name": "МАДОУ детский сад № 56, корпус 2", "address": "ул. Виллима Фермора, 6А, Ленинградский район, микрорайон Сельма, Калининград, Россия", "longitude": 20.486701, "latitude": 54.744818 }, "geometry": { "type": "Point", "coordinates": [ 20.486701, 54.744818 ] } },
{ "type": "Feature", "properties": { "Name": "Детский сад № 130", "address": "Батальная ул., 71А, Калининград, Россия", "longitude": 20.507772, "latitude": 54.676554 }, "geometry": { "type": "Point", "coordinates": [ 20.507772, 54.676554 ] } },
{ "type": "Feature", "properties": { "Name": "Счастье карапуза", "address": "Автомобильная ул., 24, Калининград, Россия", "longitude": 20.488135, "latitude": 54.674154 }, "geometry": { "type": "Point", "coordinates": [ 20.488135, 54.674154 ] } },
{ "type": "Feature", "properties": { "Name": "Детский сад № 116", "address": "ул. Горького, 36А, Калининград, Россия", "longitude": 20.510861, "latitude": 54.727188 }, "geometry": { "type": "Point", "coordinates": [ 20.510861, 54.727188 ] } },
{ "type": "Feature", "properties": { "Name": "Детский сад 119", "address": "ул. Шота Руставели, 2, Калининград, Россия", "longitude": 20.492868, "latitude": 54.723532 }, "geometry": { "type": "Point", "coordinates": [ 20.492868, 54.723532 ] } },
{ "type": "Feature", "properties": { "Name": "Детский сад № 52", "address": "Калужская ул., 10А, Калининград, Россия", "longitude": 20.500735, "latitude": 54.729318 }, "geometry": { "type": "Point", "coordinates": [ 20.500735, 54.729318 ] } },
{ "type": "Feature", "properties": { "Name": "Детский сад № 27", "address": "просп. Победы, 24, Калининград, Россия", "longitude": 20.466851, "latitude": 54.71605 }, "geometry": { "type": "Point", "coordinates": [ 20.466851, 54.71605 ] } },
{ "type": "Feature", "properties": { "Name": "МАДОУ ЦРР ДС № 24", "address": "Гражданская ул., 11, Калининград, Россия", "longitude": 20.525071, "latitude": 54.714505 }, "geometry": { "type": "Point", "coordinates": [ 20.525071, 54.714505 ] } },
{ "type": "Feature", "properties": { "Name": "Детский сад № 27, корпус № 2", "address": "ул. Каштановая Аллея, 16, Калининград, Россия", "longitude": 20.466049, "latitude": 54.715673 }, "geometry": { "type": "Point", "coordinates": [ 20.466049, 54.715673 ] } },
{ "type": "Feature", "properties": { "Name": "МАОУ Нш-дс № 10", "address": "Красная ул., 301, Калининград, Россия", "longitude": 20.46996, "latitude": 54.749584 }, "geometry": { "type": "Point", "coordinates": [ 20.46996, 54.749584 ] } },
{ "type": "Feature", "properties": { "Name": "Карапуз", "address": "ул. Лейтенанта Князева, 58, Калининград, Россия", "longitude": 20.527009, "latitude": 54.742252 }, "geometry": { "type": "Point", "coordinates": [ 20.527009, 54.742252 ] } },
{ "type": "Feature", "properties": { "Name": "МАДОУ города Калининграда детский сад № 11", "address": "ул. Юрия Гагарина, 79, Калининград, Россия", "longitude": 20.546744, "latitude": 54.723639 }, "geometry": { "type": "Point", "coordinates": [ 20.546744, 54.723639 ] } },
{ "type": "Feature", "properties": { "Name": "Детский сад № 32", "address": "ул. Чаадаева, 4, Калининград, Россия", "longitude": 20.486248, "latitude": 54.695725 }, "geometry": { "type": "Point", "coordinates": [ 20.486248, 54.695725 ] } },
{ "type": "Feature", "properties": { "Name": "МАДОУ ЦРР детский сад № 53", "address": "Киевская ул., 101А, Калининград, Россия", "longitude": 20.475296, "latitude": 54.680384 }, "geometry": { "type": "Point", "coordinates": [ 20.475296, 54.680384 ] } },
{ "type": "Feature", "properties": { "Name": "Детский сад № 22", "address": "Комсомольская ул., 16, Калининград, Россия", "longitude": 20.47941, "latitude": 54.723306 }, "geometry": { "type": "Point", "coordinates": [ 20.47941, 54.723306 ] } },
{ "type": "Feature", "properties": { "Name": "Детский сад № 43", "address": "бул. Любови Шевцовой, 49, Калининград, Россия", "longitude": 20.508049, "latitude": 54.671929 }, "geometry": { "type": "Point", "coordinates": [ 20.508049, 54.671929 ] } },
{ "type": "Feature", "properties": { "Name": "МАДОУ города Калининграда центр развития ребенка детский сад № 128", "address": "Алданская ул., 8, Калининград, Россия", "longitude": 20.351126, "latitude": 54.726571 }, "geometry": { "type": "Point", "coordinates": [ 20.351126, 54.726571 ] } },
{ "type": "Feature", "properties": { "Name": "Детский сад № 129, корпус № 2", "address": "Новгородская ул., 3, Калининград, Россия", "longitude": 20.376821, "latitude": 54.721811 }, "geometry": { "type": "Point", "coordinates": [ 20.376821, 54.721811 ] } },
{ "type": "Feature", "properties": { "Name": "МАДОУ детский сад № 51 города Калининграда", "address": "ул. Гавриленко, 3, микрорайон Чкаловск, Калининград, Россия", "longitude": 20.447905, "latitude": 54.767723 }, "geometry": { "type": "Point", "coordinates": [ 20.447905, 54.767723 ] } },
{ "type": "Feature", "properties": { "Name": "Детский сад № 14", "address": "Бородинская ул., 17, Калининград, Россия", "longitude": 20.467645, "latitude": 54.716642 }, "geometry": { "type": "Point", "coordinates": [ 20.467645, 54.716642 ] } },
{ "type": "Feature", "properties": { "Name": "Солнышко", "address": "Тихая ул., 2, Калининград, Россия", "longitude": 20.509402, "latitude": 54.728477 }, "geometry": { "type": "Point", "coordinates": [ 20.509402, 54.728477 ] } },
{ "type": "Feature", "properties": { "Name": "МАДОУ д/с № 57", "address": "ул. Николая Карамзина, 8, Калининград, Россия", "longitude": 20.506828, "latitude": 54.664101 }, "geometry": { "type": "Point", "coordinates": [ 20.506828, 54.664101 ] } },
{ "type": "Feature", "properties": { "Name": "Город Мечты", "address": "ул. Герцена, 20В, Калининград, Россия", "longitude": 20.527507, "latitude": 54.74794 }, "geometry": { "type": "Point", "coordinates": [ 20.527507, 54.74794 ] } },
{ "type": "Feature", "properties": { "Name": "Умный кот", "address": "ул. Виктора Денисова, 12, Калининград, Россия", "longitude": 20.581386, "latitude": 54.714276 }, "geometry": { "type": "Point", "coordinates": [ 20.581386, 54.714276 ] } },
{ "type": "Feature", "properties": { "Name": "Детский сад № 23", "address": "ул. Александра Невского, 56, Калининград, Россия", "longitude": 20.53202, "latitude": 54.73207 }, "geometry": { "type": "Point", "coordinates": [ 20.53202, 54.73207 ] } },
{ "type": "Feature", "properties": { "Name": "МАДОУ ЦРР ДС № 77", "address": "Бассейная ул., 1, Калининград, Россия", "longitude": 20.45458, "latitude": 54.714666 }, "geometry": { "type": "Point", "coordinates": [ 20.45458, 54.714666 ] } },
{ "type": "Feature", "properties": { "Name": "МАОУ ООШ № 15", "address": "ул. Дзержинского, 131, Калининград, Россия", "longitude": 20.542171, "latitude": 54.675037 }, "geometry": { "type": "Point", "coordinates": [ 20.542171, 54.675037 ] } },
{ "type": "Feature", "properties": { "Name": "Сказкалэнд", "address": "Флотская ул., 4, Калининград, Россия", "longitude": 20.587243, "latitude": 54.712266 }, "geometry": { "type": "Point", "coordinates": [ 20.587243, 54.712266 ] } },
{ "type": "Feature", "properties": { "Name": "Солнышко", "address": "Береговой пер., 11А, Калининград, Россия", "longitude": 20.523753, "latitude": 54.727966 }, "geometry": { "type": "Point", "coordinates": [ 20.523753, 54.727966 ] } },
{ "type": "Feature", "properties": { "Name": "Стэп бай степ", "address": "Беломорская ул., 2, Калининград, Россия", "longitude": 20.511544, "latitude": 54.735508 }, "geometry": { "type": "Point", "coordinates": [ 20.511544, 54.735508 ] } },
{ "type": "Feature", "properties": { "Name": "Солнышко", "address": "ул. Демьяна Бедного, 1А, Калининград, Россия", "longitude": 20.512586, "latitude": 54.743171 }, "geometry": { "type": "Point", "coordinates": [ 20.512586, 54.743171 ] } },
{ "type": "Feature", "properties": { "Name": "Бейби Студия", "address": "Пражская ул., 38, Калининград, Россия", "longitude": 20.538446, "latitude": 54.724446 }, "geometry": { "type": "Point", "coordinates": [ 20.538446, 54.724446 ] } },
{ "type": "Feature", "properties": { "Name": "Счастье карапуза", "address": "ул. Дзержинского, 162А, Калининград, Россия", "longitude": 20.541197, "latitude": 54.672275 }, "geometry": { "type": "Point", "coordinates": [ 20.541197, 54.672275 ] } },
{ "type": "Feature", "properties": { "Name": "Сияние макс", "address": "Московский просп., 133, Калининград, Россия", "longitude": 20.530221, "latitude": 54.710454 }, "geometry": { "type": "Point", "coordinates": [ 20.530221, 54.710454 ] } },
{ "type": "Feature", "properties": { "Name": "Лисёнок", "address": "Брусничная ул., 18, Калининград, Россия", "longitude": 20.429793, "latitude": 54.713724 }, "geometry": { "type": "Point", "coordinates": [ 20.429793, 54.713724 ] } },
{ "type": "Feature", "properties": { "Name": "МАДОУ детский сад № 115, корпус 2", "address": "ул. Маршала Новикова, 27, Калининград, Россия", "longitude": 20.480423, "latitude": 54.677596 }, "geometry": { "type": "Point", "coordinates": [ 20.480423, 54.677596 ] } },
{ "type": "Feature", "properties": { "Name": "Смарт Кидс", "address": "ул. Юрия Гагарина, 99, Калининград, Россия", "longitude": 20.549781, "latitude": 54.724999 }, "geometry": { "type": "Point", "coordinates": [ 20.549781, 54.724999 ] } },
{ "type": "Feature", "properties": { "Name": "Солнечные Зайчики", "address": "Старосаперная ул., 15, Калининград, Россия", "longitude": 20.557316, "latitude": 54.74325 }, "geometry": { "type": "Point", "coordinates": [ 20.557316, 54.74325 ] } },
{ "type": "Feature", "properties": { "Name": "Step by Step", "address": "Колхозная ул., 16Б, Калининград, Россия", "longitude": 20.527333, "latitude": 54.746404 }, "geometry": { "type": "Point", "coordinates": [ 20.527333, 54.746404 ] } },
{ "type": "Feature", "properties": { "Name": "ИП Е. И.", "address": "Кутаисская ул., 27А, Калининград, Россия", "longitude": 20.576729, "latitude": 54.704534 }, "geometry": { "type": "Point", "coordinates": [ 20.576729, 54.704534 ] } },
{ "type": "Feature", "properties": { "Name": "Солнышко", "address": "Величавая ул., 6, Калининград, Россия", "longitude": 20.57765, "latitude": 54.680542 }, "geometry": { "type": "Point", "coordinates": [ 20.57765, 54.680542 ] } },
{ "type": "Feature", "properties": { "Name": "Детский сад № 48, МАДОУ", "address": "ул. Подполковника Емельянова, 312, Калининград, Россия", "longitude": 20.623847, "latitude": 54.673632 }, "geometry": { "type": "Point", "coordinates": [ 20.623847, 54.673632 ] } },
{ "type": "Feature", "properties": { "Name": "Альбертина", "address": "ул. Подполковника Емельянова, 164, Калининград, Россия", "longitude": 20.559059, "latitude": 54.682128 }, "geometry": { "type": "Point", "coordinates": [ 20.559059, 54.682128 ] } },
{ "type": "Feature", "properties": { "Name": "Binny", "address": "ул. Яблоневая Аллея, 17, Калининград, Россия", "longitude": 20.458062, "latitude": 54.718598 }, "geometry": { "type": "Point", "coordinates": [ 20.458062, 54.718598 ] } },
{ "type": "Feature", "properties": { "Name": "Марко Поло", "address": "Парковый пер., 7, корп. 2, Калининград, Россия", "longitude": 20.52105, "latitude": 54.691986 }, "geometry": { "type": "Point", "coordinates": [ 20.52105, 54.691986 ] } },
{ "type": "Feature", "properties": { "Name": "TopKIDS", "address": "Старосапёрная ул., 15, Калининград, Россия", "longitude": 20.557377, "latitude": 54.743265 }, "geometry": { "type": "Point", "coordinates": [ 20.557377, 54.743265 ] } },
{ "type": "Feature", "properties": { "Name": "Умница", "address": "Шахматная ул., 4Б, Калининград, Россия", "longitude": 20.555896, "latitude": 54.734451 }, "geometry": { "type": "Point", "coordinates": [ 20.555896, 54.734451 ] } },
{ "type": "Feature", "properties": { "Name": "Золотой ключик", "address": "ул. Сергеева, 10, Калининград, Россия", "longitude": 20.518073, "latitude": 54.717815 }, "geometry": { "type": "Point", "coordinates": [ 20.518073, 54.717815 ] } },
{ "type": "Feature", "properties": { "Name": "Средняя общеобразовательная школа № 29", "address": "Батальная ул., 11, Калининград, Россия", "longitude": 20.495483, "latitude": 54.678631 }, "geometry": { "type": "Point", "coordinates": [ 20.495483, 54.678631 ] } },
{ "type": "Feature", "properties": { "Name": "Детский сад № 131, корпус 2", "address": "Судостроительная ул., 23, Калининград, Россия", "longitude": 20.494625, "latitude": 54.681384 }, "geometry": { "type": "Point", "coordinates": [ 20.494625, 54.681384 ] } },
{ "type": "Feature", "properties": { "Name": "Бейби Студия", "address": "ул. Юрия Гагарина, 173В, Калининград, Россия", "longitude": 20.561273, "latitude": 54.730331 }, "geometry": { "type": "Point", "coordinates": [ 20.561273, 54.730331 ] } },
{ "type": "Feature", "properties": { "Name": "Алданская улица, 22в", "address": "Алданская ул., 22В, Калининград, Россия", "longitude": 20.354324, "latitude": 54.723756 }, "geometry": { "type": "Point", "coordinates": [ 20.354324, 54.723756 ] } },
{ "type": "Feature", "properties": { "Name": "Золотое наследие", "address": "ул. Мусоргского, 10, Калининград, Россия", "longitude": 20.500703, "latitude": 54.726947 }, "geometry": { "type": "Point", "coordinates": [ 20.500703, 54.726947 ] } },
{ "type": "Feature", "properties": { "Name": "Монтессори", "address": "ул. Виллима Фермора, 8, Ленинградский район, микрорайон Сельма, Калининград, Россия", "longitude": 20.485374, "latitude": 54.74478 }, "geometry": { "type": "Point", "coordinates": [ 20.485374, 54.74478 ] } },
{ "type": "Feature", "properties": { "Name": "Бегемот", "address": "Флотская ул., 9, Калининград, Россия", "longitude": 20.58988, "latitude": 54.708639 }, "geometry": { "type": "Point", "coordinates": [ 20.58988, 54.708639 ] } },
{ "type": "Feature", "properties": { "Name": "МАДОУ детский сад № 59", "address": "ул. Согласия, 32, Калининград, Россия", "longitude": 20.491427478691424, "latitude": 54.748097460556906 }, "geometry": { "type": "Point", "coordinates": [ 20.491427478691424, 54.748097460556906 ] } },
{ "type": "Feature", "properties": { "Name": "Детский сад № 122", "address": "ул. Маршала Борзова, 95, Калининград, Россия", "longitude": 20.460229654094075, "latitude": 54.735952039353101 }, "geometry": { "type": "Point", "coordinates": [ 20.460229654094075, 54.735952039353101 ] } },
{ "type": "Feature", "properties": { "Name": "Детский сад № 4, МАДОУ", "address": "Заводская ул., 16, Калининград, Россия", "longitude": 20.440630455371345, "latitude": 54.678210764472439 }, "geometry": { "type": "Point", "coordinates": [ 20.440630455371345, 54.678210764472439 ] } },
{ "type": "Feature", "properties": { "Name": "Детский сад № 71", "address": "Гостиная ул., 9, Калининград, Россия", "longitude": 20.488345123296487, "latitude": 54.718493953314479 }, "geometry": { "type": "Point", "coordinates": [ 20.488345123296487, 54.718493953314479 ] } },
{ "type": "Feature", "properties": { "Name": "Детский сад № 78 Корпус № 3", "address": "ул. Павлика Морозова, 7А, Калининград, Россия", "longitude": 20.473580253778248, "latitude": 54.679313847641012 }, "geometry": { "type": "Point", "coordinates": [ 20.473580253778248, 54.679313847641012 ] } },
{ "type": "Feature", "properties": { "Name": "Детский сад № 11", "address": "Орудийная ул., 30, Калининград, Россия", "longitude": 20.557581966722459, "latitude": 54.731713663941989 }, "geometry": { "type": "Point", "coordinates": [ 20.557581966722459, 54.731713663941989 ] } },
{ "type": "Feature", "properties": { "Name": "Детский сад № 79", "address": "Красносельская ул., 22, Калининград, Россия", "longitude": 20.444091921120688, "latitude": 54.712598676200706 }, "geometry": { "type": "Point", "coordinates": [ 20.444091921120688, 54.712598676200706 ] } },
{ "type": "Feature", "properties": { "Name": "Детский сад № 28", "address": "Серпуховская ул., 46, Калининград, Россия", "longitude": 20.498937090186512, "latitude": 54.69919778074825 }, "geometry": { "type": "Point", "coordinates": [ 20.498937090186512, 54.69919778074825 ] } },
{ "type": "Feature", "properties": { "Name": "Детский сад № 101", "address": "Пролетарская ул., 64, Калининград, Россия", "longitude": 20.514458029433506, "latitude": 54.716541484263765 }, "geometry": { "type": "Point", "coordinates": [ 20.514458029433506, 54.716541484263765 ] } },
{ "type": "Feature", "properties": { "Name": "Детский сад № 12", "address": "ул. Дзержинского, 103, Калининград, Россия", "longitude": 20.537466532623018, "latitude": 54.679966729422048 }, "geometry": { "type": "Point", "coordinates": [ 20.537466532623018, 54.679966729422048 ] } },
{ "type": "Feature", "properties": { "Name": "Детский сад № 123", "address": "ул. Потёмкина, 23, Калининград, Россия", "longitude": 20.52560871356977, "latitude": 54.727777920974745 }, "geometry": { "type": "Point", "coordinates": [ 20.52560871356977, 54.727777920974745 ] } },
{ "type": "Feature", "properties": { "Name": "Лукоморье", "address": "ул. Старшины Дадаева, 46А, Калининград, Россия", "longitude": 20.537504712531121, "latitude": 54.729995957098112 }, "geometry": { "type": "Point", "coordinates": [ 20.537504712531121, 54.729995957098112 ] } },
{ "type": "Feature", "properties": { "Name": "Детский сад № 74, корпус № 1", "address": "ул. Нахимова, 9, Калининград, Россия", "longitude": 20.46202357202802, "latitude": 54.717552207789574 }, "geometry": { "type": "Point", "coordinates": [ 20.46202357202802, 54.717552207789574 ] } },
{ "type": "Feature", "properties": { "Name": "Академия детства", "address": "Лесопарковый пер., 10, Калининград, Россия", "longitude": 20.455278096439315, "latitude": 54.716901483638956 }, "geometry": { "type": "Point", "coordinates": [ 20.455278096439315, 54.716901483638956 ] } },
{ "type": "Feature", "properties": { "Name": "Детский сад № 46", "address": "Трамвайный пер., 52, Калининград, Россия", "longitude": 20.494568448311366, "latitude": 54.692726283715999 }, "geometry": { "type": "Point", "coordinates": [ 20.494568448311366, 54.692726283715999 ] } },
{ "type": "Feature", "properties": { "Name": "Детский сад № 16", "address": "ул. Тельмана, 41А, Калининград, Россия", "longitude": 20.524546129086115, "latitude": 54.737686258093994 }, "geometry": { "type": "Point", "coordinates": [ 20.524546129086115, 54.737686258093994 ] } },
{ "type": "Feature", "properties": { "Name": "Детский сад № 111", "address": "Ленинский просп., 18А, Калининград, Россия", "longitude": 20.50470118081428, "latitude": 54.713221511923223 }, "geometry": { "type": "Point", "coordinates": [ 20.50470118081428, 54.713221511923223 ] } },
{ "type": "Feature", "properties": { "Name": "Капелька", "address": "ул. Куприна, 22, Калининград, Россия", "longitude": 20.576953161487147, "latitude": 54.710494321555878 }, "geometry": { "type": "Point", "coordinates": [ 20.576953161487147, 54.710494321555878 ] } },
{ "type": "Feature", "properties": { "Name": "Детский сад № 104", "address": "Серпуховская ул., 29, Калининград, Россия", "longitude": 20.50230982798082, "latitude": 54.700540182551293 }, "geometry": { "type": "Point", "coordinates": [ 20.50230982798082, 54.700540182551293 ] } },
{ "type": "Feature", "properties": { "Name": "Детский сад № 74", "address": "Закавказская ул., 19, Калининград, Россия", "longitude": 20.461946136721519, "latitude": 54.717169539769031 }, "geometry": { "type": "Point", "coordinates": [ 20.461946136721519, 54.717169539769031 ] } },
{ "type": "Feature", "properties": { "Name": "Детский сад № 14, корпус № 2", "address": "ул. Огарёва, 31, Калининград, Россия", "longitude": 20.467887145514808, "latitude": 54.718180868839227 }, "geometry": { "type": "Point", "coordinates": [ 20.467887145514808, 54.718180868839227 ] } },
{ "type": "Feature", "properties": { "Name": "Альбертина", "address": "ул. Чернышевского, 89, Калининград, Россия", "longitude": 20.461685868052488, "latitude": 54.724788363964691 }, "geometry": { "type": "Point", "coordinates": [ 20.461685868052488, 54.724788363964691 ] } },
{ "type": "Feature", "properties": { "Name": "Our Children - Our School", "address": "Ялтинская ул., 4, Калининград, Россия", "longitude": 20.543055856065962, "latitude": 54.708272422048907 }, "geometry": { "type": "Point", "coordinates": [ 20.543055856065962, 54.708272422048907 ] } },
{ "type": "Feature", "properties": { "Name": "Детский сад № 7", "address": "Адмиральская ул., 7, Калининград, Россия", "longitude": 20.463292650662368, "latitude": 54.715763079517671 }, "geometry": { "type": "Point", "coordinates": [ 20.463292650662368, 54.715763079517671 ] } },
{ "type": "Feature", "properties": { "Name": "Веснушки", "address": "Кировоградская ул., 35, Центральный район, посёлок Лермонтовский, Калининград, Россия", "longitude": 20.460732983586347, "latitude": 54.757378370753798 }, "geometry": { "type": "Point", "coordinates": [ 20.460732983586347, 54.757378370753798 ] } },
{ "type": "Feature", "properties": { "Name": "Baby smile", "address": "Красная ул., 275, Калининград, Россия", "longitude": 20.471627701015002, "latitude": 54.747894477003157 }, "geometry": { "type": "Point", "coordinates": [ 20.471627701015002, 54.747894477003157 ] } },
{ "type": "Feature", "properties": { "Name": "Детский сад № 7, корпус № 2", "address": "Закавказская ул., 14, Калининград, Россия", "longitude": 20.46281943490041, "latitude": 54.71539281950124 }, "geometry": { "type": "Point", "coordinates": [ 20.46281943490041, 54.71539281950124 ] } },
{ "type": "Feature", "properties": { "Name": "Детский сад № 7", "address": "Вагоностроительная ул., 7, Калининград, Россия", "longitude": 20.458502416562908, "latitude": 54.713098809382778 }, "geometry": { "type": "Point", "coordinates": [ 20.458502416562908, 54.713098809382778 ] } },
{ "type": "Feature", "properties": { "Name": "Хеппи Бэбик", "address": "просп. Мира, 127, Калининград, Россия", "longitude": 20.448718680684262, "latitude": 54.720613732507161 }, "geometry": { "type": "Point", "coordinates": [ 20.448718680684262, 54.720613732507161 ] } },
{ "type": "Feature", "properties": { "Name": "Белоснежка и Ко", "address": "Воздушная ул., 80, Калининград, Россия", "longitude": 20.449908173031382, "latitude": 54.718068120563906 }, "geometry": { "type": "Point", "coordinates": [ 20.449908173031382, 54.718068120563906 ] } },
{ "type": "Feature", "properties": { "Name": "Зёрнышко", "address": "Римская ул., 33, корп. 2, Калининград, Россия", "longitude": 20.538236045981417, "latitude": 54.723659808638573 }, "geometry": { "type": "Point", "coordinates": [ 20.538236045981417, 54.723659808638573 ] } },
{ "type": "Feature", "properties": { "Name": "Детский сад № 51", "address": "ул. Габайдулина, 1, Калининград, Россия", "longitude": 20.447351732426675, "latitude": 54.767610787502662 }, "geometry": { "type": "Point", "coordinates": [ 20.447351732426675, 54.767610787502662 ] } },
{ "type": "Feature", "properties": { "Name": "Монтессори центр Калейдоскоп", "address": "ул. Сержанта Колоскова, 8, Калининград, Россия", "longitude": 20.483606512734717, "latitude": 54.716586833800207 }, "geometry": { "type": "Point", "coordinates": [ 20.483606512734717, 54.716586833800207 ] } },
{ "type": "Feature", "properties": { "Name": "Познайка", "address": "Октябрьская площадь, 34, Калининград, Россия", "longitude": 20.46950306979285, "latitude": 54.677703361023617 }, "geometry": { "type": "Point", "coordinates": [ 20.46950306979285, 54.677703361023617 ] } }
]
}
