{
"type": "FeatureCollection",
"name": "school",
"crs": { "type": "name", "properties": { "name": "urn:ogc:def:crs:OGC:1.3:CRS84" } },
"features": [
{ "type": "Feature", "properties": { "Name": "Средняя общеобразовательная школа №57", "building_1": null, "area": null, "osm_id": null, "address": "Флотская, 6, Калининград", "Вместимость": 2941 }, "geometry": { "type": "Point", "coordinates": [ 20.585621875008901, 54.709994940295132 ] } },
{ "type": "Feature", "properties": { "Name": "Средняя общеобразовательная школа №59", "building_1": null, "area": null, "osm_id": null, "address": "Рассветный переулок, 5, Калининград", "Вместимость": 1725 }, "geometry": { "type": "Point", "coordinates": [ 20.489889, 54.751648 ] } },
{ "type": "Feature", "properties": { "Name": "Средняя общеобразовательная школа №56", "building_1": null, "area": 8227.3150163519658, "osm_id": null, "address": "Николая Карамзина, 6, Калининград", "Вместимость": 3291 }, "geometry": { "type": "Point", "coordinates": [ 20.504640015077143, 54.665810016293932 ] } },
{ "type": "Feature", "properties": { "Name": "Средняя общеобразовательная школа №31", "building_1": "4", "area": 2770.8956103820069, "osm_id": null, "address": "Пролетарская, 66а, Калининград", "Вместимость": 1108 }, "geometry": { "type": "Point", "coordinates": [ 20.514130005852394, 54.717439983374192 ] } },
{ "type": "Feature", "properties": { "Name": "Средняя общеобразовательная школа №46 с углубленным изучением отдельных предметов", "building_1": null, "area": 2352.9214557949108, "osm_id": null, "address": "Летняя улица, 48, Калининград", "Вместимость": 941 }, "geometry": { "type": "Point", "coordinates": [ 20.48597997077087, 54.672419985138077 ] } },
{ "type": "Feature", "properties": { "Name": "Средняя общеобразовательная школа №33", "building_1": "3", "area": 2448.2780703739736, "osm_id": null, "address": "Куйбышева, 15, Калининград", "Вместимость": 979 }, "geometry": { "type": "Point", "coordinates": [ 20.531799979755561, 54.727210013534517 ] } },
{ "type": "Feature", "properties": { "Name": "Средняя общеобразовательная школа №2", "building_1": null, "area": 1523.2778807862021, "osm_id": null, "address": "Юрия Гагарина, 55, Калининград", "Вместимость": 609 }, "geometry": { "type": "Point", "coordinates": [ 20.542529989286578, 54.721639987417319 ] } },
{ "type": "Feature", "properties": { "Name": "Средняя общеобразовательная школа №10", "building_1": null, "area": null, "osm_id": null, "address": "Войнич, 1, Калининград", "Вместимость": 2035 }, "geometry": { "type": "Point", "coordinates": [ 20.484899962546734, 54.731180018154532 ] } },
{ "type": "Feature", "properties": { "Name": "Средняя общеобразовательная школа №44", "building_1": "4", "area": 2261.1763070620586, "osm_id": null, "address": "Молодёжная, 7, Калининград", "Вместимость": 904 }, "geometry": { "type": "Point", "coordinates": [ 20.51803002158087, 54.739639998758037 ] } },
{ "type": "Feature", "properties": { "Name": "Средняя общеобразовательная школа №7", "building_1": null, "area": null, "osm_id": null, "address": "Улица Горького, 66, Калининград", "Вместимость": null }, "geometry": { "type": "Point", "coordinates": [ 20.511605540379804, 54.729264879294966 ] } },
{ "type": "Feature", "properties": { "Name": "Муниципальное автономное общеобразовательное учреждение города Калининграда средняя общеобразовательная школа №6 с углубленным изучением отдельных предметов", "building_1": null, "area": 3411.3134153436877, "osm_id": null, "address": "Ульяны Громовой, 1, Калининград", "Вместимость": 1365 }, "geometry": { "type": "Point", "coordinates": [ 20.504089994590771, 54.674109986365835 ] } },
{ "type": "Feature", "properties": { "Name": "Средняя общеобразовательная школа №56", "building_1": "4", "area": 2940.5459238418457, "osm_id": null, "address": "Лилии Иванихиной, 9, Калининград", "Вместимость": 1176 }, "geometry": { "type": "Point", "coordinates": [ 20.498200031229402, 54.671929979078442 ] } },
{ "type": "Feature", "properties": { "Name": "Средняя общеобразовательная школа №13", "building_1": null, "area": 1956.4332780239117, "osm_id": null, "address": "Свердлова, 27, Калининград", "Вместимость": 783 }, "geometry": { "type": "Point", "coordinates": [ 20.566710019748058, 54.711240015323853 ] } },
{ "type": "Feature", "properties": { "Name": "Средняя общеобразовательная школа №21", "building_1": null, "area": 2917.4753854053479, "osm_id": null, "address": "Бассейная, 40, Калининград", "Вместимость": 1167 }, "geometry": { "type": "Point", "coordinates": [ 20.454439958769115, 54.719389991238415 ] } },
{ "type": "Feature", "properties": { "Name": "Средняя общеобразовательная школа №25 с углубленным изучением отдельных предметов им. И.В. Грачёва", "building_1": "3", "area": 2289.6774568206397, "osm_id": null, "address": "Фрунзе, 46, Калининград", "Вместимость": 916 }, "geometry": { "type": "Point", "coordinates": [ 20.526149990282079, 54.711329995054427 ] } },
{ "type": "Feature", "properties": { "Name": "СОШ № 36", "building_1": "3", "area": 2422.2441507110861, "osm_id": null, "address": "Московский проспект, 98а, Калининград", "Вместимость": 969 }, "geometry": { "type": "Point", "coordinates": [ 20.529850013800825, 54.708509987550087 ] } },
{ "type": "Feature", "properties": { "Name": "Средняя общеобразовательная школа №50", "building_1": null, "area": null, "osm_id": null, "address": "Каштановая аллея, 147, Калининград", "Вместимость": 654 }, "geometry": { "type": "Point", "coordinates": [ 20.461345408203858, 54.734852737983942 ] } },
{ "type": "Feature", "properties": { "Name": "Средняя общеобразовательная школа №38 им. В.М. Борисова", "building_1": "3", "area": 3514.2126717840665, "osm_id": null, "address": "Зелёная, 18а, Калининград", "Вместимость": 1406 }, "geometry": { "type": "Point", "coordinates": [ 20.500960024307005, 54.738479985268071 ] } },
{ "type": "Feature", "properties": { "Name": "Средняя общеобразовательная школа №29", "building_1": null, "area": 2355.1000603454713, "osm_id": null, "address": "Машиностроительная, 66, Калининград", "Вместимость": 942 }, "geometry": { "type": "Point", "coordinates": [ 20.504329968478686, 54.678149979877361 ] } },
{ "type": "Feature", "properties": { "Name": "Росток", "building_1": null, "area": 2309.0249861560069, "osm_id": null, "address": "Озёрная, 31а, Калининград", "Вместимость": 924 }, "geometry": { "type": "Point", "coordinates": [ 20.509930001809238, 54.739550019027462 ] } },
{ "type": "Feature", "properties": { "Name": "Средняя общеобразовательная школа №28", "building_1": null, "area": 2254.3778820847347, "osm_id": 1674442.0, "address": "Александра Суворова, 35, Калининград", "Вместимость": 902 }, "geometry": { "type": "Point", "coordinates": [ 20.471629984896452, 54.691749994965164 ] } },
{ "type": "Feature", "properties": { "Name": "Средняя общеобразовательная школа №12", "building_1": "3", "area": 1574.3353362153621, "osm_id": null, "address": "Богдана Хмельницкого, 115, Калининград", "Вместимость": 630 }, "geometry": { "type": "Point", "coordinates": [ 20.513849966467291, 54.697800010767679 ] } },
{ "type": "Feature", "properties": { "Name": "СОШ № 11", "building_1": "4", "area": 2306.3937064900101, "osm_id": null, "address": "Мира, 1, Калининград", "Вместимость": 923 }, "geometry": { "type": "Point", "coordinates": [ 20.449128781545028, 54.771174918904016 ] } },
{ "type": "Feature", "properties": { "Name": "Средняя общеобразовательная школа №8", "building_1": null, "area": null, "osm_id": null, "address": "Улица Барклая Де Толли, 17, Калининград", "Вместимость": 1022 }, "geometry": { "type": "Point", "coordinates": [ 20.53068359449804, 54.7511058187552 ] } },
{ "type": "Feature", "properties": { "Name": "Средняя общеобразовательная школа №4", "building_1": null, "area": null, "osm_id": null, "address": "Карла Маркса, 65, Калининград", "Вместимость": 900 }, "geometry": { "type": "Point", "coordinates": [ 20.466560023122724, 54.72393998164867 ] } },
{ "type": "Feature", "properties": { "Name": "Средняя общеобразовательная школа №24", "building_1": "4", "area": 2354.7917818185165, "osm_id": null, "address": "Пионерская, 9, Калининград", "Вместимость": 942 }, "geometry": { "type": "Point", "coordinates": [ 20.527929971240439, 54.714759995562389 ] } },
{ "type": "Feature", "properties": { "Name": "Средняя общеобразовательная школа №43", "building_1": null, "area": 524.78550307861178, "osm_id": null, "address": "Советский проспект, 40, Калининград", "Вместимость": 210 }, "geometry": { "type": "Point", "coordinates": [ 20.493937563950958, 54.729133622608586 ] } },
{ "type": "Feature", "properties": { "Name": "Средняя общеобразовательная школа №46 с углубленным изучением отдельных предметов", "building_1": "4", "area": 406.09803685408485, "osm_id": null, "address": "Школьная, 2, Калининград", "Вместимость": 162 }, "geometry": { "type": "Point", "coordinates": [ 20.484147708004276, 54.682604548598192 ] } },
{ "type": "Feature", "properties": { "Name": "Дирижабль", "building_1": null, "area": null, "osm_id": null, "address": "Верхние Поля, 12Б, Калининград", "Вместимость": 200 }, "geometry": { "type": "Point", "coordinates": [ 20.548860039668497, 54.747471855178873 ] } },
{ "type": "Feature", "properties": { "Name": "СОШ №39", "building_1": null, "area": null, "osm_id": null, "address": "Берёзовая, 2, Калининград", "Вместимость": null }, "geometry": { "type": "Point", "coordinates": [ 20.464724228258699, 54.680151116309716 ] } },
{ "type": "Feature", "properties": { "Name": "Средняя общеобразовательная школа №14", "building_1": null, "area": 1752.2890229798993, "osm_id": null, "address": "Радищева, 81, Калининград", "Вместимость": 701 }, "geometry": { "type": "Point", "coordinates": [ 20.457679983441579, 54.712290016334634 ] } },
{ "type": "Feature", "properties": { "Name": "Средняя общеобразовательная школа №5", "building_1": "4", "area": 1742.3947657229385, "osm_id": null, "address": "Зои Космодемьянской, 26, Калининград", "Вместимость": 697 }, "geometry": { "type": "Point", "coordinates": [ 20.528939990573065, 54.684599980099392 ] } },
{ "type": "Feature", "properties": { "Name": "СОШ №3", "building_1": null, "area": 2111.8651653674838, "osm_id": null, "address": "Октябрьская площадь, 28-30, Калининград", "Вместимость": 845 }, "geometry": { "type": "Point", "coordinates": [ 20.469220020095463, 54.677730004618752 ] } },
{ "type": "Feature", "properties": { "Name": "Средняя общеобразовательная школа №26", "building_1": null, "area": 2388.2295399375862, "osm_id": null, "address": "Подполковника Емельянова, 156, Калининград", "Вместимость": 955 }, "geometry": { "type": "Point", "coordinates": [ 20.558860032148118, 54.681639994812031 ] } },
{ "type": "Feature", "properties": { "Name": "Основная общеобразовательная школа №15", "building_1": null, "area": 1801.4339914984159, "osm_id": null, "address": "Аллея Смелых, 118, Калининград", "Вместимость": 721 }, "geometry": { "type": "Point", "coordinates": [ 20.521543287820286, 54.67826327999817 ] } },
{ "type": "Feature", "properties": { "Name": "Средняя общеобразовательная школа №19", "building_1": null, "area": 1157.8822005909876, "osm_id": null, "address": "Менделеева, 13, Калининград", "Вместимость": 463 }, "geometry": { "type": "Point", "coordinates": [ 20.435889968851541, 54.713620014821004 ] } },
{ "type": "Feature", "properties": { "Name": "Средняя общеобразовательная школа №47", "building_1": null, "area": null, "osm_id": null, "address": "Сержанта Колоскова, 10, Калининград", "Вместимость": 266 }, "geometry": { "type": "Point", "coordinates": [ 20.483509991543144, 54.715929983517128 ] } },
{ "type": "Feature", "properties": { "Name": "Средняя общеобразовательная школа №16", "building_1": null, "area": 1120.4229122686293, "osm_id": null, "address": "Багратиона, 107а, Калининград", "Вместимость": 448 }, "geometry": { "type": "Point", "coordinates": [ 20.501009980449936, 54.69788001603348 ] } },
{ "type": "Feature", "properties": { "Name": "Средняя общеобразовательная школа №38 им. В.М. Борисова", "building_1": null, "area": null, "osm_id": null, "address": "Зелёная, 45, Калининград", "Вместимость": null }, "geometry": { "type": "Point", "coordinates": [ 20.500214635620196, 54.739280084407966 ] } },
{ "type": "Feature", "properties": { "Name": "Средняя общеобразовательная школа №33", "building_1": null, "area": 1043.8351890313854, "osm_id": null, "address": "Александра Невского, 32, Калининград", "Вместимость": 418 }, "geometry": { "type": "Point", "coordinates": [ 20.530229965471761, 54.727260011586935 ] } },
{ "type": "Feature", "properties": { "Name": "Средняя общеобразовательная школа №29", "building_1": null, "area": 1357.1574819614841, "osm_id": null, "address": "Дрожжевая, 1, Калининград", "Вместимость": 543 }, "geometry": { "type": "Point", "coordinates": [ 20.500839995453532, 54.677879998776064 ] } },
{ "type": "Feature", "properties": { "Name": "Средняя общеобразовательная школа №28", "building_1": null, "area": 1951.9335334677417, "osm_id": null, "address": "Александра Суворова, 139, Калининград", "Вместимость": 781 }, "geometry": { "type": "Point", "coordinates": [ 20.44218700621979, 54.675786682047494 ] } },
{ "type": "Feature", "properties": { "Name": "Средняя общеобразовательная школа №9 им. Героя Советского Союза Старшего Лейтенанта П.М. Дьякова", "building_1": null, "area": 2642.4563042841619, "osm_id": null, "address": "Балтийское шоссе, 110, Калининград", "Вместимость": 1057 }, "geometry": { "type": "Point", "coordinates": [ 20.374049963603738, 54.716360017059543 ] } },
{ "type": "Feature", "properties": { "Name": "Основная общеобразовательная школа №15", "building_1": null, "area": 817.67846030060161, "osm_id": null, "address": "Дзержинского, 163, Калининград", "Вместимость": 327 }, "geometry": { "type": "Point", "coordinates": [ 20.545505121676044, 54.671882615136063 ] } },
{ "type": "Feature", "properties": { "Name": "Средняя общеобразовательная школа №29", "building_1": null, "area": null, "osm_id": null, "address": "Батальная, 11, Калининград", "Вместимость": 1850 }, "geometry": { "type": "Point", "coordinates": [ 20.562180020176896, 54.672859993145266 ] } },
{ "type": "Feature", "properties": { "Name": "Средняя общеобразовательная школа №48", "building_1": "3", "area": 2137.7382585450728, "osm_id": null, "address": "Улица Заводская, 27Б, Калининград", "Вместимость": 855 }, "geometry": { "type": "Point", "coordinates": [ 20.331590008145014, 54.650200020824656 ] } },
{ "type": "Feature", "properties": { "Name": "Базис", "building_1": null, "area": 569.64071846684908, "osm_id": null, "address": "Космонавта Леонова, 18, Калининград", "Вместимость": 228 }, "geometry": { "type": "Point", "coordinates": [ 20.482390001640823, 54.72483998850214 ] } },
{ "type": "Feature", "properties": { "Name": "Интерлицей", "building_1": null, "area": null, "osm_id": null, "address": "БГАРФ, Озёрная, 32, Калининград", "Вместимость": 1000 }, "geometry": { "type": "Point", "coordinates": [ 20.513233854060033, 54.741157587701935 ] } },
{ "type": "Feature", "properties": { "Name": "Калининградский морской лицей", "building_1": null, "area": null, "osm_id": null, "address": "Озёрная, 30, Калининград", "Вместимость": 376 }, "geometry": { "type": "Point", "coordinates": [ 20.512858529277615, 54.740168600777778 ] } },
{ "type": "Feature", "properties": { "Name": "Альтернатива XXI ВЕК - Калининград", "building_1": null, "area": null, "osm_id": null, "address": "Пугачёва, 16, Калининград", "Вместимость": 150 }, "geometry": { "type": "Point", "coordinates": [ 20.473179966431672, 54.723019983956135 ] } },
{ "type": "Feature", "properties": { "Name": "Умный малыш", "building_1": null, "area": null, "osm_id": null, "address": "ТРК Друзья, Артиллерийская, 35а, Калининград", "Вместимость": null }, "geometry": { "type": "Point", "coordinates": [ 20.545040034011492, 54.734890016138024 ] } },
{ "type": "Feature", "properties": { "Name": "Кадетский морской корпус Андрея Первозванного", "building_1": null, "area": 4585.5409419415664, "osm_id": null, "address": "Переулок Желябова, 9, Калининград", "Вместимость": 1834 }, "geometry": { "type": "Point", "coordinates": [ 20.498570008435564, 54.726880018006483 ] } },
{ "type": "Feature", "properties": { "Name": "Калининградская средняя общеобразовательная школа-интернат для обучающихся, воспитанников с ограниченными возможностями здоровья", "building_1": null, "area": null, "osm_id": null, "address": "Спортивная, 11, Калининград", "Вместимость": null }, "geometry": { "type": "Point", "coordinates": [ 20.456176228265523, 54.727315415909786 ] } },
{ "type": "Feature", "properties": { "Name": "Школа-интернат №1", "building_1": null, "area": null, "osm_id": null, "address": "Переулок Крылова, 4, Калининград", "Вместимость": 95 }, "geometry": { "type": "Point", "coordinates": [ 20.541639998807398, 54.757920007574342 ] } },
{ "type": "Feature", "properties": { "Name": "Школа-интернат №1", "building_1": null, "area": 365.75866130184221, "osm_id": null, "address": "Анатолия Попова, 3, Калининград", "Вместимость": 146 }, "geometry": { "type": "Point", "coordinates": [ 20.540190013377071, 54.756130010241691 ] } },
{ "type": "Feature", "properties": { "Name": "Школа-интернат п. Сосновка", "building_1": null, "area": 291.4897745148138, "osm_id": null, "address": "Тургенева, 29, Калининград", "Вместимость": 117 }, "geometry": { "type": "Point", "coordinates": [ 20.51861002852003, 54.734744678382377 ] } },
{ "type": "Feature", "properties": { "Name": "Школа-интернат №1", "building_1": "2", "area": 237.31619800680676, "osm_id": null, "address": "Переулок Крылова, 2, Калининград", "Вместимость": 95 }, "geometry": { "type": "Point", "coordinates": [ 20.542480033143647, 54.757850018682831 ] } },
{ "type": "Feature", "properties": { "Name": "Средняя образовательная школа №10", "building_1": null, "area": 1689.6843144591483, "osm_id": null, "address": "Красная, 301, Калининград", "Вместимость": 676 }, "geometry": { "type": "Point", "coordinates": [ 20.469599971766399, 54.749789980589327 ] } },
{ "type": "Feature", "properties": { "Name": "Средняя общеобразовательная школа №19", "building_1": null, "area": null, "osm_id": null, "address": "Тенистая аллея, 38, Калининград", "Вместимость": 1165 }, "geometry": { "type": "Point", "coordinates": [ 20.426722723620784, 54.715657923104494 ] } },
{ "type": "Feature", "properties": { "Name": "Начальная общеобразовательная школа №53", "building_1": null, "area": null, "osm_id": null, "address": "Лужская, 27, Калининград", "Вместимость": null }, "geometry": { "type": "Point", "coordinates": [ 20.347659960551027, 54.727620014328323 ] } },
{ "type": "Feature", "properties": { "Name": "Частная начальная школа Н.И. Мороз", "building_1": null, "area": 3286.0692419347874, "osm_id": null, "address": "Сергеева, 10, Калининград", "Вместимость": 1314 }, "geometry": { "type": "Point", "coordinates": [ 20.51816999936392, 54.717590019441019 ] } },
{ "type": "Feature", "properties": { "Name": "Марко Поло", "building_1": null, "area": null, "osm_id": null, "address": "Парковый переулок, 7 к2, Калининград", "Вместимость": null }, "geometry": { "type": "Point", "coordinates": [ 20.521805679576914, 54.691968933983759 ] } },
{ "type": "Feature", "properties": { "Name": "Светоч", "building_1": null, "area": null, "osm_id": null, "address": "Величавая, 3, Калининград", "Вместимость": null }, "geometry": { "type": "Point", "coordinates": [ 20.57824997258291, 54.68075000433285 ] } },
{ "type": "Feature", "properties": { "Name": "Светоч", "building_1": null, "area": 138.68565591591107, "osm_id": null, "address": "Величавая, 1, Калининград", "Вместимость": 55 }, "geometry": { "type": "Point", "coordinates": [ 20.578179983691399, 54.681030001808438 ] } },
{ "type": "Feature", "properties": { "Name": "ProSchool", "building_1": null, "area": null, "osm_id": null, "address": "Советский проспект, 197, Калининград", "Вместимость": null }, "geometry": { "type": "Point", "coordinates": [ 20.455452521671269, 54.749659579610054 ] } },
{ "type": "Feature", "properties": { "Name": "Лицей №23", "building_1": "4", "area": 2305.117845239607, "osm_id": null, "address": "Вагнера, 51, Калининград", "Вместимость": 922 }, "geometry": { "type": "Point", "coordinates": [ 20.499220025026801, 54.711310004215363 ] } },
{ "type": "Feature", "properties": { "Name": "Лицей №49", "building_1": null, "area": null, "osm_id": null, "address": "Кирова, 28, Калининград", "Вместимость": 980 }, "geometry": { "type": "Point", "coordinates": [ 20.488100005541042, 54.72690998331035 ] } },
{ "type": "Feature", "properties": { "Name": "Лицей №17", "building_1": "4", "area": 2329.8315938381661, "osm_id": null, "address": "Серпуховская, 28, Калининград", "Вместимость": 932 }, "geometry": { "type": "Point", "coordinates": [ 20.500630028778971, 54.701599988481775 ] } },
{ "type": "Feature", "properties": { "Name": "Лицей №18", "building_1": null, "area": 2349.3024802777099, "osm_id": null, "address": "Комсомольская улица, 4, Калининград", "Вместимость": 940 }, "geometry": { "type": "Point", "coordinates": [ 20.480699958503578, 54.721689985469766 ] } },
{ "type": "Feature", "properties": { "Name": "Лицей №49", "building_1": "4", "area": 1007.9729746732427, "osm_id": null, "address": "Комсомольская улица, 67, Калининград", "Вместимость": 403 }, "geometry": { "type": "Point", "coordinates": [ 20.477750031499994, 54.731439982881511 ] } },
{ "type": "Feature", "properties": { "Name": "Лицей №35 им. Буткова В.В.", "building_1": "3", "area": 2909.0110371625301, "osm_id": null, "address": "Маршала Баграмяна, 34, Калининград", "Вместимость": 1164 }, "geometry": { "type": "Point", "coordinates": [ 20.495320009298297, 54.70773000955009 ] } },
{ "type": "Feature", "properties": { "Name": "Лицей №18", "building_1": "4", "area": 1101.1151133451222, "osm_id": null, "address": "Космонавта Леонова, 6, Калининград", "Вместимость": 440 }, "geometry": { "type": "Point", "coordinates": [ 20.482489997745716, 54.722069979050218 ] } },
{ "type": "Feature", "properties": { "Name": "Ганзейская ладья", "building_1": null, "area": 1861.8873885952751, "osm_id": null, "address": "Карла Маркса, 17, Калининград", "Вместимость": 745 }, "geometry": { "type": "Point", "coordinates": [ 20.477260025440359, 54.726959981362796 ] } },
{ "type": "Feature", "properties": { "Name": "Лицей Альма Матер", "building_1": null, "area": 179.59961750561223, "osm_id": null, "address": "Нарвский переулок, 6а, Калининград", "Вместимость": 72 }, "geometry": { "type": "Point", "coordinates": [ 20.497699966885932, 54.728790002283063 ] } },
{ "type": "Feature", "properties": { "Name": "Калининградский морской лицей", "building_1": null, "area": 1640.9479032838212, "osm_id": null, "address": "Молодёжная, 3, Калининград", "Вместимость": 656 }, "geometry": { "type": "Point", "coordinates": [ 20.513489963725902, 54.739529986278853 ] } },
{ "type": "Feature", "properties": { "Name": "Гимназия №40 им. Ю.А. Гагарина", "building_1": "3", "area": 12938.075090909, "osm_id": null, "address": "Юрия Маточкина, 4, Калининград", "Вместимость": 5175 }, "geometry": { "type": "Point", "coordinates": [ 20.489219995443335, 54.740620010877308 ] } },
{ "type": "Feature", "properties": { "Name": "Гимназия №1", "building_1": null, "area": 1891.7247800685809, "osm_id": null, "address": "Кропоткина, 8/10, Калининград", "Вместимость": 757 }, "geometry": { "type": "Point", "coordinates": [ 20.469688657890014, 54.729304608360295 ] } },
{ "type": "Feature", "properties": { "Name": "Гимназия №32", "building_1": "4", "area": 2413.1870846755778, "osm_id": null, "address": "Подполковника Иванникова, 6, Калининград", "Вместимость": 965 }, "geometry": { "type": "Point", "coordinates": [ 20.507630007577887, 54.71715001143383 ] } },
{ "type": "Feature", "properties": { "Name": "Гимназия №32", "building_1": "4", "area": 1421.1105410300281, "osm_id": null, "address": "Сергея Тюленина, 2, Калининград", "Вместимость": 568 }, "geometry": { "type": "Point", "coordinates": [ 20.520479968060044, 54.711470014746993 ] } },
{ "type": "Feature", "properties": { "Name": "Гимназия №22", "building_1": "3", "area": 2343.7645003366465, "osm_id": null, "address": "Новый Вал, 23, Калининград", "Вместимость": 938 }, "geometry": { "type": "Point", "coordinates": [ 20.510269971802018, 54.703120004713128 ] } },
{ "type": "Feature", "properties": { "Name": "Гимназия №22", "building_1": null, "area": null, "osm_id": null, "address": "Солнечный бульвар, 5 к1, Калининград", "Вместимость": 1437 }, "geometry": { "type": "Point", "coordinates": [ 20.519339, 54.703632 ] } },
{ "type": "Feature", "properties": { "Name": "Гимназия №1", "building_1": "2", "area": 590.54891339688868, "osm_id": null, "address": "Чернышевского, 51, Калининград", "Вместимость": 236 }, "geometry": { "type": "Point", "coordinates": [ 20.466249976524267, 54.725639999250717 ] } },
{ "type": "Feature", "properties": { "Name": "Альбертина", "building_1": null, "area": 259.67019863090252, "osm_id": null, "address": "Ялтинская, 126, Калининград", "Вместимость": 104 }, "geometry": { "type": "Point", "coordinates": [ 20.563799990603599, 54.702810000024186 ] } },
{ "type": "Feature", "properties": { "Name": "Лицей-интернат (ШИЛИ)", "building_1": null, "area": null, "osm_id": null, "address": null, "Вместимость": null }, "geometry": { "type": "Point", "coordinates": [ 20.463479571898375, 54.730447453518735 ] } },
{ "type": "Feature", "properties": { "Name": "Средняя школа №15", "building_1": null, "area": null, "osm_id": null, "address": null, "Вместимость": 500 }, "geometry": { "type": "Point", "coordinates": [ 20.542222203960801, 54.67505326160493 ] } },
{ "type": "Feature", "properties": { "Name": "Школа-интернат №12 коррекционная", "building_1": null, "area": null, "osm_id": null, "address": null, "Вместимость": 150 }, "geometry": { "type": "Point", "coordinates": [ 20.521565764903045, 54.678601161908347 ] } },
{ "type": "Feature", "properties": { "Name": "Вечерняя школа №6", "building_1": null, "area": null, "osm_id": null, "address": null, "Вместимость": 200 }, "geometry": { "type": "Point", "coordinates": [ 20.436535663225239, 54.716260607440425 ] } },
{ "type": "Feature", "properties": { "Name": "Школа №58", "building_1": null, "area": null, "osm_id": null, "address": null, "Вместимость": 2503 }, "geometry": { "type": "Point", "coordinates": [ 20.548846374756589, 54.733729616060124 ] } },
{ "type": "Feature", "properties": { "Name": "Православная гимназия города Калининграда", "building_1": null, "area": null, "osm_id": null, "address": null, "Вместимость": 450 }, "geometry": { "type": "Point", "coordinates": [ 20.50417139789668, 54.721556462051538 ] } },
{ "type": "Feature", "properties": { "Name": "Вечерняя школа №9", "building_1": null, "area": null, "osm_id": null, "address": null, "Вместимость": 200 }, "geometry": { "type": "Point", "coordinates": [ 20.427874266174843, 54.711552084589172 ] } }
]
}
