{
"type": "FeatureCollection",
"features": [
{ "type": "Feature", "properties": { "Name": "МАОУ Лицей № 23", "address": "ул. Вагнера, 51", "latitude": 54.711310004215001, "longitude": 20.499220025027 }, "geometry": { "type": "Point", "coordinates": [ 20.499220025027, 54.711310004215001 ] } },
{ "type": "Feature", "properties": { "Name": "МАОУ Лицей № 49", "address": "Комсомольская ул., 67", "latitude": 54.731439982882002, "longitude": 20.477750031500001 }, "geometry": { "type": "Point", "coordinates": [ 20.477750031500001, 54.731439982882002 ] } },
{ "type": "Feature", "properties": { "Name": "МАОУ лицей № 17", "address": "Серпуховская ул., 28", "latitude": 54.701599988482002, "longitude": 20.500630028779 }, "geometry": { "type": "Point", "coordinates": [ 20.500630028779, 54.701599988482002 ] } },
{ "type": "Feature", "properties": { "Name": "Лицей № 18", "address": "Комсомольская ул., 4", "latitude": 54.72168998547, "longitude": 20.480699958504001 }, "geometry": { "type": "Point", "coordinates": [ 20.480699958504001, 54.72168998547 ] } },
{ "type": "Feature", "properties": { "Name": "Альма Матер", "address": "Нарвский пер., 6А", "latitude": 54.728790002282999, "longitude": 20.497699966886 }, "geometry": { "type": "Point", "coordinates": [ 20.497699966886, 54.728790002282999 ] } },
{ "type": "Feature", "properties": { "Name": "МАОУ Лицей № 49", "address": "ул. Кирова, 28", "latitude": 54.726909983310001, "longitude": 20.488100005541 }, "geometry": { "type": "Point", "coordinates": [ 20.488100005541, 54.726909983310001 ] } },
{ "type": "Feature", "properties": { "Name": "Лицей Ганзейская ладья", "address": "ул. Карла Маркса, 17", "latitude": 54.726959981363002, "longitude": 20.47726002544 }, "geometry": { "type": "Point", "coordinates": [ 20.47726002544, 54.726959981363002 ] } },
{ "type": "Feature", "properties": { "Name": "Лицей № 18", "address": "ул. Космонавта Леонова, 6", "latitude": 54.722069979049998, "longitude": 20.482489997746001 }, "geometry": { "type": "Point", "coordinates": [ 20.482489997746001, 54.722069979049998 ] } },
{ "type": "Feature", "properties": { "Name": "Ганзейская ладья", "address": "Молодёжная ул., 7", "latitude": 54.739639998758001, "longitude": 20.518030021581001 }, "geometry": { "type": "Point", "coordinates": [ 20.518030021581001, 54.739639998758001 ] } },
{ "type": "Feature", "properties": { "Name": "МАОУ Лицей 35 им. Буткова В. В.", "address": "ул. Маршала Баграмяна, 34", "latitude": 54.707730009549998, "longitude": 20.495320009297998 }, "geometry": { "type": "Point", "coordinates": [ 20.495320009297998, 54.707730009549998 ] } },
{ "type": "Feature", "properties": { "Name": "Калининградский морской лицей", "address": "Озёрная ул., 30", "latitude": 54.741889994936997, "longitude": 20.428490005633002 }, "geometry": { "type": "Point", "coordinates": [ 20.428490005633002, 54.741889994936997 ] } },
{ "type": "Feature", "properties": { "Name": "МАОУ Лицей № 49", "address": "Комсомольская ул., 67", "latitude": 54.731439982882002, "longitude": 20.477750031500001 }, "geometry": { "type": "Point", "coordinates": [ 20.477750031500001, 54.731439982882002 ] } },
{ "type": "Feature", "properties": { "Name": "МАОУ Нш-дс № 10", "address": "Красная ул., 301", "latitude": 54.749789980589, "longitude": 20.469599971766002 }, "geometry": { "type": "Point", "coordinates": [ 20.469599971766002, 54.749789980589 ] } },
{ "type": "Feature", "properties": { "Name": "Дирижабль", "address": "ул. Верхние Поля, 12Б", "latitude": 54.748037762433, "longitude": 20.547809485075 }, "geometry": { "type": "Point", "coordinates": [ 20.547809485075, 54.748037762433 ] } },
{ "type": "Feature", "properties": { "Name": "Город Мечты", "address": "Сельская ул., 1А, посёлок Малое Исаково", "latitude": 54.731979986993998, "longitude": 20.582340006056 }, "geometry": { "type": "Point", "coordinates": [ 20.582340006056, 54.731979986993998 ] } },
{ "type": "Feature", "properties": { "Name": "МАОУ Лицей № 49", "address": "ул. Кирова, 28", "latitude": 54.726909983310001, "longitude": 20.488100005541 }, "geometry": { "type": "Point", "coordinates": [ 20.488100005541, 54.726909983310001 ] } },
{ "type": "Feature", "properties": { "Name": "МАОУ Нш-дс № 72", "address": "Красная ул., 301", "latitude": 54.749789980589, "longitude": 20.469599971766002 }, "geometry": { "type": "Point", "coordinates": [ 20.469599971766002, 54.749789980589 ] } },
{ "type": "Feature", "properties": { "Name": "Начальная школа № 19", "address": "ул. Тенистая Аллея, 38", "latitude": 54.725146554906999, "longitude": 20.409967566982001 }, "geometry": { "type": "Point", "coordinates": [ 20.409967566982001, 54.725146554906999 ] } },
{ "type": "Feature", "properties": { "Name": "МАОУ СОШ № 33", "address": "ул. Александра Невского, 32", "latitude": 54.727260011586999, "longitude": 20.530229965472 }, "geometry": { "type": "Point", "coordinates": [ 20.530229965472, 54.727260011586999 ] } },
{ "type": "Feature", "properties": { "Name": "Все Пятёрки", "address": "просп. Мира, 136, офис 411, этаж 4", "latitude": 54.721619996577999, "longitude": 20.451260032341999 }, "geometry": { "type": "Point", "coordinates": [ 20.451260032341999, 54.721619996577999 ] } },
{ "type": "Feature", "properties": { "Name": "Муниципальное автономное общеобразовательное учреждение города Калининграда Средняя общеобразовательная школа № 11 имени Т. А. Апакидзе", "address": "ул. Мира, 1, микрорайон Чкаловск", "latitude": 54.76572, "longitude": 20.44515 }, "geometry": { "type": "Point", "coordinates": [ 20.44515, 54.76572 ] } },
{ "type": "Feature", "properties": { "Name": "МАОУ Средняя общеобразовательная школа № 33", "address": "ул. Куйбышева, 15", "latitude": 54.727210013535, "longitude": 20.531799979755998 }, "geometry": { "type": "Point", "coordinates": [ 20.531799979755998, 54.727210013535 ] } },
{ "type": "Feature", "properties": { "Name": "Школа", "address": "Центральная ул., 36, посёлок Луговое", "latitude": 54.702940003342, "longitude": 20.577580007062 }, "geometry": { "type": "Point", "coordinates": [ 20.577580007062, 54.702940003342 ] } },
{ "type": "Feature", "properties": { "Name": "МАОУ СОШ № 43", "address": "Советский просп., 40", "latitude": 54.728460006755, "longitude": 20.494439993284001 }, "geometry": { "type": "Point", "coordinates": [ 20.494439993284001, 54.728460006755 ] } },
{ "type": "Feature", "properties": { "Name": "Школа № 31", "address": "Пролетарская ул., 66А", "latitude": 54.717439983374, "longitude": 20.514130005852 }, "geometry": { "type": "Point", "coordinates": [ 20.514130005852, 54.717439983374 ] } },
{ "type": "Feature", "properties": { "Name": "МБОУ Средняя общеобразовательная школа, школа будущего", "address": "ул. Анны Бариновой, 1, посёлок Большое Исаково", "latitude": 54.722019980997999, "longitude": 20.608200021371001 }, "geometry": { "type": "Point", "coordinates": [ 20.608200021371001, 54.722019980997999 ] } },
{ "type": "Feature", "properties": { "Name": "Росток", "address": "Озёрная ул., 31А, Калининград", "latitude": 54.739550019027, "longitude": 20.509930001809 }, "geometry": { "type": "Point", "coordinates": [ 20.509930001809, 54.739550019027 ] } },
{ "type": "Feature", "properties": { "Name": "МАОУ СОШ № 38", "address": "Зелёная ул., 45", "latitude": 54.697789994392998, "longitude": 20.591920018471999 }, "geometry": { "type": "Point", "coordinates": [ 20.591920018471999, 54.697789994392998 ] } },
{ "type": "Feature", "properties": { "Name": "Школа № 12", "address": "ул. Богдана Хмельницкого, 115", "latitude": 54.697800010767999, "longitude": 20.513849966466999 }, "geometry": { "type": "Point", "coordinates": [ 20.513849966466999, 54.697800010767999 ] } },
{ "type": "Feature", "properties": { "Name": "Средняя общеобразовательная школа № 21", "address": "Бассейная ул., 40", "latitude": 54.719389991238003, "longitude": 20.454439958769001 }, "geometry": { "type": "Point", "coordinates": [ 20.454439958769001, 54.719389991238003 ] } },
{ "type": "Feature", "properties": { "Name": "МАОУ школа № 4", "address": "ул. Карла Маркса, 65", "latitude": 54.723939981649004, "longitude": 20.466560023123002 }, "geometry": { "type": "Point", "coordinates": [ 20.466560023123002, 54.723939981649004 ] } },
{ "type": "Feature", "properties": { "Name": "МАОУ СОШ № 6 с УИОП", "address": "ул. Ульяны Громовой, 1", "latitude": 54.674109986365998, "longitude": 20.504089994590998 }, "geometry": { "type": "Point", "coordinates": [ 20.504089994590998, 54.674109986365998 ] } },
{ "type": "Feature", "properties": { "Name": "МАОУ СОШ № 25 с УИОП", "address": "ул. Фрунзе, 46", "latitude": 54.711329995054001, "longitude": 20.526149990282001 }, "geometry": { "type": "Point", "coordinates": [ 20.526149990282001, 54.711329995054001 ] } },
{ "type": "Feature", "properties": { "Name": "Школа № 28", "address": "ул. Александра Суворова, 35", "latitude": 54.691749994965001, "longitude": 20.471629984896001 }, "geometry": { "type": "Point", "coordinates": [ 20.471629984896001, 54.691749994965001 ] } },
{ "type": "Feature", "properties": { "Name": "МАОУ СОШ № 57", "address": "Флотская ул., 6", "latitude": 54.702365102240996, "longitude": 20.389798484536001 }, "geometry": { "type": "Point", "coordinates": [ 20.389798484536001, 54.702365102240996 ] } },
{ "type": "Feature", "properties": { "Name": "МОУ СОШ № 50", "address": "ул. Каштановая Аллея, 147", "latitude": 54.749809769245999, "longitude": 20.444710409184999 }, "geometry": { "type": "Point", "coordinates": [ 20.444710409184999, 54.749809769245999 ] } },
{ "type": "Feature", "properties": { "Name": "Школа № 38 им. В. М. Борисова", "address": "Зелёная ул., 18А", "latitude": 54.738479985268, "longitude": 20.500960024306998 }, "geometry": { "type": "Point", "coordinates": [ 20.500960024306998, 54.738479985268 ] } },
{ "type": "Feature", "properties": { "Name": "МАОУ Средняя общеобразовательная школа № 33", "address": "ул. Куйбышева, 15", "latitude": 54.727210013535, "longitude": 20.531799979755998 }, "geometry": { "type": "Point", "coordinates": [ 20.531799979755998, 54.727210013535 ] } },
{ "type": "Feature", "properties": { "Name": "МАОУ Средняя общеобразовательная школа № 10", "address": "ул. Войнич, 1", "latitude": 54.731180018155001, "longitude": 20.484899962547001 }, "geometry": { "type": "Point", "coordinates": [ 20.484899962547001, 54.731180018155001 ] } },
{ "type": "Feature", "properties": { "Name": "Средняя общеобразовательная школа № 8", "address": "ул. Герцена, 35", "latitude": 54.751270015143, "longitude": 20.530349994325 }, "geometry": { "type": "Point", "coordinates": [ 20.530349994325, 54.751270015143 ] } },
{ "type": "Feature", "properties": { "Name": "Средняя общеобразовательная школа № 7", "address": "ул. Горького, 66", "latitude": 54.726240017789998, "longitude": 20.586970001731999 }, "geometry": { "type": "Point", "coordinates": [ 20.586970001731999, 54.726240017789998 ] } },
{ "type": "Feature", "properties": { "Name": "МБОУ Средняя общеобразовательная школа № 44", "address": "Молодёжная ул., 7", "latitude": 54.739639998758001, "longitude": 20.518030021581001 }, "geometry": { "type": "Point", "coordinates": [ 20.518030021581001, 54.739639998758001 ] } },
{ "type": "Feature", "properties": { "Name": "МАОУ СОШ № 13", "address": "ул. Свердлова, 27", "latitude": 54.711240015324002, "longitude": 20.566710019748001 }, "geometry": { "type": "Point", "coordinates": [ 20.566710019748001, 54.711240015324002 ] } },
{ "type": "Feature", "properties": { "Name": "МАОУ Средняя общеобразовательная школа № 24", "address": "Пионерская ул., 9, Калининград", "latitude": 54.714759995561998, "longitude": 20.527929971239999 }, "geometry": { "type": "Point", "coordinates": [ 20.527929971239999, 54.714759995561998 ] } },
{ "type": "Feature", "properties": { "Name": "МАОУ Средняя общеобразовательная школа № 2", "address": "ул. Юрия Гагарина, 55", "latitude": 54.721639987416999, "longitude": 20.542529989287001 }, "geometry": { "type": "Point", "coordinates": [ 20.542529989287001, 54.721639987416999 ] } },
{ "type": "Feature", "properties": { "Name": "Муниципальное автономное общеобразовательное учреждение г. Калининграда средняя общеобразовательная школа № 59", "address": "Рассветный пер., 5", "latitude": 54.750705385216001, "longitude": 20.489196629894 }, "geometry": { "type": "Point", "coordinates": [ 20.489196629894, 54.750705385216001 ] } },
{ "type": "Feature", "properties": { "Name": "МАОУ СОШ № 3 г. Калининграда", "address": "Октябрьская площадь, 28, Калининград", "latitude": 54.678179987090999, "longitude": 20.469060009564 }, "geometry": { "type": "Point", "coordinates": [ 20.469060009564, 54.678179987090999 ] } },
{ "type": "Feature", "properties": { "Name": "МАОУ школа № 56", "address": "ул. Николая Карамзина, 6, Калининград", "latitude": 54.665810016294003, "longitude": 20.504640015077001 }, "geometry": { "type": "Point", "coordinates": [ 20.504640015077001, 54.665810016294003 ] } },
{ "type": "Feature", "properties": { "Name": "Школа № 36", "address": "Московский просп., 98А, Калининград", "latitude": 54.708509987550002, "longitude": 20.529850013800999 }, "geometry": { "type": "Point", "coordinates": [ 20.529850013800999, 54.708509987550002 ] } },
{ "type": "Feature", "properties": { "Name": "Базис", "address": "ул. Космонавта Леонова, 18, Калининград, этаж 1", "latitude": 54.724839988501998, "longitude": 20.482390001641001 }, "geometry": { "type": "Point", "coordinates": [ 20.482390001641001, 54.724839988501998 ] } },
{ "type": "Feature", "properties": { "Name": "Школа № 16, МАОУ", "address": "ул. Багратиона, 107А, Калининград", "latitude": 54.697880016032997, "longitude": 20.50100998045 }, "geometry": { "type": "Point", "coordinates": [ 20.50100998045, 54.697880016032997 ] } },
{ "type": "Feature", "properties": { "Name": "МАОУ СОШ № 58 города Калининграда", "address": "Артиллерийская ул., 61, Калининград", "latitude": 54.733689979060003, "longitude": 20.548820020887 }, "geometry": { "type": "Point", "coordinates": [ 20.548820020887, 54.733689979060003 ] } },
{ "type": "Feature", "properties": { "Name": "Школа № 14", "address": "ул. Радищева, 81, Калининград", "latitude": 54.712290016334997, "longitude": 20.457679983441999 }, "geometry": { "type": "Point", "coordinates": [ 20.457679983441999, 54.712290016334997 ] } },
{ "type": "Feature", "properties": { "Name": "Светоч", "address": "Величавая ул., 3, Калининград", "latitude": 54.680750004332999, "longitude": 20.578249972582999 }, "geometry": { "type": "Point", "coordinates": [ 20.578249972582999, 54.680750004332999 ] } },
{ "type": "Feature", "properties": { "Name": "Школа № 56, корпус № 2", "address": "ул. Лилии Иванихиной, 9, Калининград", "latitude": 54.671929979078001, "longitude": 20.498200031229 }, "geometry": { "type": "Point", "coordinates": [ 20.498200031229, 54.671929979078001 ] } },
{ "type": "Feature", "properties": { "Name": "МАОУ Средняя общеобразовательная школа № 19 г. Калининграда", "address": "ул. Менделеева, 13, Калининград", "latitude": 54.713620014820997, "longitude": 20.435889968851999 }, "geometry": { "type": "Point", "coordinates": [ 20.435889968851999, 54.713620014820997 ] } },
{ "type": "Feature", "properties": { "Name": "Средняя общеобразовательная школа № 5", "address": "ул. Зои Космодемьянской, 26, Калининград", "latitude": 54.684599980099001, "longitude": 20.528939990573001 }, "geometry": { "type": "Point", "coordinates": [ 20.528939990573001, 54.684599980099001 ] } },
{ "type": "Feature", "properties": { "Name": "Средняя общеобразовательная школа № 29", "address": "Батальная ул., 11, Калининград", "latitude": 54.672859993145003, "longitude": 20.562180020176999 }, "geometry": { "type": "Point", "coordinates": [ 20.562180020176999, 54.672859993145003 ] } },
{ "type": "Feature", "properties": { "Name": "МОУ СОШ № 46 с углубленным изучением отдельных предметов, корпус 2", "address": "Школьная ул., 2, Калининград", "latitude": 54.682579983343999, "longitude": 20.484020030351001 }, "geometry": { "type": "Point", "coordinates": [ 20.484020030351001, 54.682579983343999 ] } },
{ "type": "Feature", "properties": { "Name": "Васильковская школа", "address": "Западная ул., 2, посёлок Васильково", "latitude": 54.744690011602003, "longitude": 20.455719959203002 }, "geometry": { "type": "Point", "coordinates": [ 20.455719959203002, 54.744690011602003 ] } },
{ "type": "Feature", "properties": { "Name": "МАОУ СОШ № 47", "address": "ул. Сержанта Колоскова, 10, Калининград", "latitude": 54.715929983517, "longitude": 20.483509991542999 }, "geometry": { "type": "Point", "coordinates": [ 20.483509991542999, 54.715929983517 ] } },
{ "type": "Feature", "properties": { "Name": "Школа № 29", "address": "Машиностроительная ул., 66, Калининград", "latitude": 54.678149979876999, "longitude": 20.504329968478999 }, "geometry": { "type": "Point", "coordinates": [ 20.504329968478999, 54.678149979876999 ] } },
{ "type": "Feature", "properties": { "Name": "МОУ Средняя общеобразовательная школа № 46 с углубленным изучением отдельных предметов, основной корпус", "address": "Летняя ул., 48, Калининград", "latitude": 54.672419985137999, "longitude": 20.485979970771002 }, "geometry": { "type": "Point", "coordinates": [ 20.485979970771002, 54.672419985137999 ] } },
{ "type": "Feature", "properties": { "Name": "Школа № 28, корпус № 2", "address": "ул. Александра Суворова, 139, Калининград", "latitude": 54.675719982327998, "longitude": 20.442089978811001 }, "geometry": { "type": "Point", "coordinates": [ 20.442089978811001, 54.675719982327998 ] } },
{ "type": "Feature", "properties": { "Name": "Школа № 15", "address": "ул. Аллея Смелых, 118, Калининград", "latitude": 54.678669993150002, "longitude": 20.521519994605999 }, "geometry": { "type": "Point", "coordinates": [ 20.521519994605999, 54.678669993150002 ] } },
{ "type": "Feature", "properties": { "Name": "Школа № 9 имени Героя Советского Союза старшего лейтенанта Дьякова Петра Михайловича", "address": "Балтийское ш., 110, Калининград", "latitude": 54.716360017059998, "longitude": 20.374049963604001 }, "geometry": { "type": "Point", "coordinates": [ 20.374049963604001, 54.716360017059998 ] } },
{ "type": "Feature", "properties": { "Name": "Муниципальное автономное общеобразовательное учреждение города Калининграда Средняя общеобразовательная школа № 11 имени Т. А. Апакидзе", "address": "ул. Мира, 1, микрорайон Чкаловск, Калининград", "latitude": 54.771069998281, "longitude": 20.449000019789001 }, "geometry": { "type": "Point", "coordinates": [ 20.449000019789001, 54.771069998281 ] } },
{ "type": "Feature", "properties": { "Name": "МАОУ СОШ № 26", "address": "ул. Подполковника Емельянова, 156, Калининград", "latitude": 54.681639994812002, "longitude": 20.558860032148001 }, "geometry": { "type": "Point", "coordinates": [ 20.558860032148001, 54.681639994812002 ] } },
{ "type": "Feature", "properties": { "Name": "Классическая школа г. Гурьевска", "address": "Садовая ул., 19, Гурьевск", "latitude": 54.726889992471001, "longitude": 20.414709989175002 }, "geometry": { "type": "Point", "coordinates": [ 20.414709989175002, 54.726889992471001 ] } },
{ "type": "Feature", "properties": { "Name": "Школа № 56", "address": "ул. Лилии Иванихиной, 9, Калининград", "latitude": 54.671929979078001, "longitude": 20.498200031229 }, "geometry": { "type": "Point", "coordinates": [ 20.498200031229, 54.671929979078001 ] } },
{ "type": "Feature", "properties": { "Name": "МБОУ СОШ № 1", "address": "ул. Ленина, 42, Гурьевск", "latitude": 54.777660018195, "longitude": 20.597790032904001 }, "geometry": { "type": "Point", "coordinates": [ 20.597790032904001, 54.777660018195 ] } },
{ "type": "Feature", "properties": { "Name": "Центральная музыкальная школа - академия исполнительского искусства, филиал Балтийский", "address": "Солнечный бул., 27, корп. 4, Калининград", "latitude": 54.704548825049002, "longitude": 20.51885058769 }, "geometry": { "type": "Point", "coordinates": [ 20.51885058769, 54.704548825049002 ] } },
{ "type": "Feature", "properties": { "Name": "МАОУ СОШ № 33", "address": "ул. Александра Невского, 32, Калининград", "latitude": 54.727260011586999, "longitude": 20.530229965472 }, "geometry": { "type": "Point", "coordinates": [ 20.530229965472, 54.727260011586999 ] } },
{ "type": "Feature", "properties": { "Name": "МАОУ Нш-дс № 72", "address": "Красная ул., 301, Калининград", "latitude": 54.749789980589, "longitude": 20.469599971766002 }, "geometry": { "type": "Point", "coordinates": [ 20.469599971766002, 54.749789980589 ] } },
{ "type": "Feature", "properties": { "Name": "МАОУ ООШ № 15", "address": "ул. Дзержинского, 163, Калининград", "latitude": 54.671850015722001, "longitude": 20.545370029539001 }, "geometry": { "type": "Point", "coordinates": [ 20.545370029539001, 54.671850015722001 ] } },
{ "type": "Feature", "properties": { "Name": "Школа № 27", "address": "Дрожжевая ул., 1, Калининград", "latitude": 54.677879998776, "longitude": 20.500839995454001 }, "geometry": { "type": "Point", "coordinates": [ 20.500839995454001, 54.677879998776 ] } },
{ "type": "Feature", "properties": { "Name": "Орловская школа", "address": "Центральная ул., 24, посёлок Орловка", "latitude": 51.291760011245998, "longitude": 31.557600000667001 }, "geometry": { "type": "Point", "coordinates": [ 31.557600000667001, 51.291760011245998 ] } },
{ "type": "Feature", "properties": { "Name": "Начальная общеобразовательная школа № 53", "address": "Лужская ул., 27, Калининград", "latitude": 54.727620014327997, "longitude": 20.347659960550999 }, "geometry": { "type": "Point", "coordinates": [ 20.347659960550999, 54.727620014327997 ] } },
{ "type": "Feature", "properties": { "Name": "МАОУ Лицей № 49", "address": "ул. Кирова, 28, Калининград", "latitude": 54.726909983310001, "longitude": 20.488100005541 }, "geometry": { "type": "Point", "coordinates": [ 20.488100005541, 54.726909983310001 ] } },
{ "type": "Feature", "properties": { "Name": "МБОУ Петровская СОШ им. П.А. Захарова", "address": "Октябрьская ул., 2, посёлок Петрово", "latitude": 48.336541533328003, "longitude": 33.265385326481002 }, "geometry": { "type": "Point", "coordinates": [ 33.265385326481002, 48.336541533328003 ] } },
{ "type": "Feature", "properties": { "Name": "Муниципальное автономное общеобразовательное учреждение города Калининграда Средняя общеобразовательная школа № 48", "address": "Заводская ул., 27Б, микрорайон Прибрежный, Калининград", "latitude": 54.650200020824997, "longitude": 20.331590008145 }, "geometry": { "type": "Point", "coordinates": [ 20.331590008145, 54.650200020824997 ] } },
{ "type": "Feature", "properties": { "Name": "Школа", "address": "Центральная ул., 36, посёлок Луговое", "latitude": 54.702940003342, "longitude": 20.577580007062 }, "geometry": { "type": "Point", "coordinates": [ 20.577580007062, 54.702940003342 ] } },
{ "type": "Feature", "properties": { "Name": "Школа № 28, корпус № 3, дошкольное образование", "address": "ул. Чаадаева, 4, Калининград", "latitude": 54.695750006799003, "longitude": 20.486160014050999 }, "geometry": { "type": "Point", "coordinates": [ 20.486160014050999, 54.695750006799003 ] } },
{ "type": "Feature", "properties": { "Name": "МАОУ Нш-дс № 10", "address": "Красная ул., 301, Калининград", "latitude": 54.749789980589, "longitude": 20.469599971766002 }, "geometry": { "type": "Point", "coordinates": [ 20.469599971766002, 54.749789980589 ] } },
{ "type": "Feature", "properties": { "Name": "Кораблик", "address": "ул. Тельмана, 20, Калининград", "latitude": 54.733630006543002, "longitude": 20.521169966329001 }, "geometry": { "type": "Point", "coordinates": [ 20.521169966329001, 54.733630006543002 ] } },
{ "type": "Feature", "properties": { "Name": "Общеобразовательная школа", "address": "Солнечный бул., 27, Калининград", "latitude": 54.704548825049002, "longitude": 20.51885058769 }, "geometry": { "type": "Point", "coordinates": [ 20.51885058769, 54.704548825049002 ] } }
]
}
