{
"type": "FeatureCollection",
"name": "religion",
"crs": { "type": "name", "properties": { "name": "urn:ogc:def:crs:OGC:1.3:CRS84" } },
"features": [
{ "type": "Feature", "properties": { "Name": "Крестовоздвиженский собор", "address": "Генерала Павлова, 2, Калининград" }, "geometry": { "type": "Point", "coordinates": [ 20.52256002115206, 54.705699996420037 ] } },
{ "type": "Feature", "properties": { "Name": "Кафедральный собор Христа Спасителя", "address": "Площадь Победы, 2, Калининград" }, "geometry": { "type": "Point", "coordinates": [ 20.502819968621623, 54.720890016630705 ] } },
{ "type": "Feature", "properties": { "Name": "Часовня Святых благоверных князей Петра и Февронии Муромских", "address": "Площадь Победы, 2а, Калининград" }, "geometry": { "type": "Point", "coordinates": [ 20.502779986943494, 54.720129987560284 ] } },
{ "type": "Feature", "properties": { "Name": "Воскресная школа кафедрального собора Христа Спасителя", "address": "Площадь Победы, 2 к2, Калининград" }, "geometry": { "type": "Point", "coordinates": [ 20.502819968621623, 54.720890016630705 ] } },
{ "type": "Feature", "properties": { "Name": "Храм Покрова Пресвятой Богородицы", "address": "Клавы Назаровой, 24, Калининград" }, "geometry": { "type": "Point", "coordinates": [ 20.531758540933939, 54.683315908760299 ] } },
{ "type": "Feature", "properties": { "Name": "Храм Кирилла и Мефодия", "address": "Проспект Мира, 132Б, Калининград" }, "geometry": { "type": "Point", "coordinates": [ 20.458060018931548, 54.722910013386468 ] } },
{ "type": "Feature", "properties": { "Name": "Храм святого благоверного великого князя Александра Невского", "address": "Александра Невского, 8, Калининград" }, "geometry": { "type": "Point", "coordinates": [ 20.526660029090323, 54.723099989221936 ] } },
{ "type": "Feature", "properties": { "Name": "Храм Рождества Пресвятой Богородицы", "address": "Киевская, 75, Калининград" }, "geometry": { "type": "Point", "coordinates": [ 20.480489991829018, 54.681129997913331 ] } },
{ "type": "Feature", "properties": { "Name": "Храм Святой мученицы Лидии", "address": "Виктора Денисова, 12/1, Калининград" }, "geometry": { "type": "Point", "coordinates": [ 20.581676744726767, 54.715658593108031 ] } },
{ "type": "Feature", "properties": { "Name": "Пасхалия", "address": "Виктора Денисова, 12/3, Калининград" }, "geometry": { "type": "Point", "coordinates": [ 20.580851654727699, 54.71568043729156 ] } },
{ "type": "Feature", "properties": { "Name": "Армянская церковь", "address": "Герцена, 1г, Калининград" }, "geometry": { "type": "Point", "coordinates": [ 20.523378788487186, 54.747126277721449 ] } },
{ "type": "Feature", "properties": { "Name": "Храм преподобного Герасима Болдинского", "address": "Колхозная, 41, Калининград" }, "geometry": { "type": "Point", "coordinates": [ 20.525250025338153, 54.746890009728673 ] } },
{ "type": "Feature", "properties": { "Name": "Храм Святителя Спиридона Тримифунтского", "address": "Улица Флагманская, 1а, Калининград" }, "geometry": { "type": "Point", "coordinates": [ 20.50928, 54.70907 ] } },
{ "type": "Feature", "properties": { "Name": "Храм Святого апостола Андрея Первозванного", "address": "Комсомольская улица, 64, Калининград" }, "geometry": { "type": "Point", "coordinates": [ 20.479351069370356, 54.730086870295757 ] } },
{ "type": "Feature", "properties": { "Name": "Храм Успения Пресвятой Богородицы", "address": "Петра Панина, 6, Калининград" }, "geometry": { "type": "Point", "coordinates": [ 20.495510027043281, 54.746619986717889 ] } },
{ "type": "Feature", "properties": { "Name": "Храм святителя Николая Чудотворца", "address": "Артиллерийская, 52а, Калининград" }, "geometry": { "type": "Point", "coordinates": [ 20.550882552428277, 54.729917031155551 ] } },
{ "type": "Feature", "properties": { "Name": "Храм Георгия Победоносца", "address": "Осенняя, 30 ст1, Калининград" }, "geometry": { "type": "Point", "coordinates": [ 20.461617746168198, 54.740088919480584 ] } },
{ "type": "Feature", "properties": { "Name": "Храм Архангела Гавриила", "address": "Проспект Мира, 152, Калининград" }, "geometry": { "type": "Point", "coordinates": [ 20.444927499705624, 54.721597865271107 ] } },
{ "type": "Feature", "properties": { "Name": "Храм Святых мучеников бессребреников и чудотворцев Космы и Дамиана", "address": "Улица Карташева, 85, Калининград" }, "geometry": { "type": "Point", "coordinates": [ 20.362328860391667, 54.726196702819614 ] } },
{ "type": "Feature", "properties": { "Name": "Храм Сретения Господня", "address": "Интернациональная, 24, Калининград" }, "geometry": { "type": "Point", "coordinates": [ 20.494750063747745, 54.669123544038683 ] } },
{ "type": "Feature", "properties": { "Name": "Храм Святого великомученика целителя Пантелеймона", "address": "Дмитрия Донского, 23а, Калининград" }, "geometry": { "type": "Point", "coordinates": [ 20.474619874289303, 54.715541747365272 ] } },
{ "type": "Feature", "properties": { "Name": "Церковь Николая Чудотворца", "address": "Причальная 2-я, 1, Калининград" }, "geometry": { "type": "Point", "coordinates": [ 20.474412928990922, 54.703871765837178 ] } },
{ "type": "Feature", "properties": { "Name": "Храм Святого Равноапостольного князя Владимира", "address": "Лукашова, 17, Калининград" }, "geometry": { "type": "Point", "coordinates": [ 20.453519640621796, 54.770662860551226 ] } },
{ "type": "Feature", "properties": { "Name": "Храм Святой мученицы Людмилы", "address": "Тульская, 57, Калининград" }, "geometry": { "type": "Point", "coordinates": [ 20.565177236662112, 54.704089451679636 ] } },
{ "type": "Feature", "properties": { "Name": "Храм Святой благоверной княгини Ольги", "address": "Рабочая, 1, Калининград" }, "geometry": { "type": "Point", "coordinates": [ 20.346890358834365, 54.649836566170848 ] } },
{ "type": "Feature", "properties": { "Name": "Храм святого великомученника Георгия Победоносца", "address": "Тихоокеанская, 5а, Калининград" }, "geometry": { "type": "Point", "coordinates": [ 20.351222024738941, 54.72166154790623 ] } },
{ "type": "Feature", "properties": { "Name": "Храм Илии Муромца при КПИ ФСБ России", "address": "Подполковника Емельянова, 256а, Калининград" }, "geometry": { "type": "Point", "coordinates": [ 20.590498757885882, 54.675934097528867 ] } },
{ "type": "Feature", "properties": { "Name": "Женский монастырь иконы Божией Матери Державная, Свято-Никольский храм", "address": "Тенистая аллея, 39Б, Калининград" }, "geometry": { "type": "Point", "coordinates": [ 20.4252201100105, 54.715726547303326 ] } },
{ "type": "Feature", "properties": { "Name": "Свято-Елисаветинский женский монастырь Черняховской Епархии Русской Православной Церкви(Московский Патриархат)", "address": "Полецкого, 24, Калининград" }, "geometry": { "type": "Point", "coordinates": [ 20.461098245057677, 54.745010524279664 ] } },
{ "type": "Feature", "properties": { "Name": "Евангелическо-Лютеранская церковь Воскресения", "address": "Проспект Мира, 101, Калининград" }, "geometry": { "type": "Point", "coordinates": [ 20.458681036949304, 54.722027328914919 ] } },
{ "type": "Feature", "properties": { "Name": "Церковь Евангельских христиан-баптистов", "address": "Юрия Гагарина, 18, Калининград" }, "geometry": { "type": "Point", "coordinates": [ 20.54762995827366, 54.722630015910909 ] } },
{ "type": "Feature", "properties": { "Name": "Синагога", "address": "Октябрьская, 1а, Калининград" }, "geometry": { "type": "Point", "coordinates": [ 20.514999963582966, 54.705819983363995 ] } },
{ "type": "Feature", "properties": { "Name": "Церковь Христиан Адвентистов Седьмого Дня", "address": "Александра Суворова, 113, Калининград" }, "geometry": { "type": "Point", "coordinates": [ 20.457113451186178, 54.683372982577637 ] } },
{ "type": "Feature", "properties": { "Name": "Благодать", "address": "Александра Суворова, 8а, Калининград" }, "geometry": { "type": "Point", "coordinates": [ 20.483820038141602, 54.695110006581587 ] } },
{ "type": "Feature", "properties": { "Name": "Церковь Евангельских христиан-баптистов", "address": "Ломоносова, 54, Калининград" }, "geometry": { "type": "Point", "coordinates": [ 20.457521327117274, 54.744282023358004 ] } },
{ "type": "Feature", "properties": { "Name": "Калининградская Епархия Русской Православной Церкви", "address": "Подполковника Иванникова, 18, Калининград" }, "geometry": { "type": "Point", "coordinates": [ 20.505550038304904, 54.720079989507838 ] } },
{ "type": "Feature", "properties": { "Name": "Буддийский Центр Алмазного Пути Традиции Карма Кагью", "address": "Космонавта Пацаева, 5-7а, Калининград" }, "geometry": { "type": "Point", "coordinates": [ 20.480347289147009, 54.724960502761768 ] } },
{ "type": "Feature", "properties": { "Name": "Дом Молитвы международного союза церквей евангельских христиан-баптистов", "address": "Дежнёва, 18, Калининград" }, "geometry": { "type": "Point", "coordinates": [ 20.567189967523888, 54.67950001111231 ] } },
{ "type": "Feature", "properties": { "Name": "Любовь Христа", "address": "Советский проспект, 12, Калининград" }, "geometry": { "type": "Point", "coordinates": [ 20.499539962271001, 54.723459991963324 ] } },
{ "type": "Feature", "properties": { "Name": "Истина", "address": "На острове, Октябрьская, 8, Калининград" }, "geometry": { "type": "Point", "coordinates": [ 20.51579, 54.7022 ] } },
{ "type": "Feature", "properties": { "Name": "Христианская миссия", "address": "Камская, 2Б, Калининград" }, "geometry": { "type": "Point", "coordinates": [ 20.456720004070888, 54.681949999500972 ] } },
{ "type": "Feature", "properties": { "Name": "Церковь в Калининграде", "address": "Римская, 29, Калининград" }, "geometry": { "type": "Point", "coordinates": [ 20.535660013805909, 54.72393998164867 ] } },
{ "type": "Feature", "properties": { "Name": "Дом деяний", "address": "Павлика Морозова, 96 к2, Калининград" }, "geometry": { "type": "Point", "coordinates": [ 20.476240031642959, 54.674269996897436 ] } },
{ "type": "Feature", "properties": { "Name": "Ковчег", "address": "Стрелецкая, 8а, Калининград" }, "geometry": { "type": "Point", "coordinates": [ 20.545888466017267, 54.715916088947395 ] } },
{ "type": "Feature", "properties": { "Name": "Часовня Святаго равноапостольного Владимира", "address": "Подполковника Емельянова, 316, Калининград" }, "geometry": { "type": "Point", "coordinates": [ 20.625683836593609, 54.672678903004616 ] } },
{ "type": "Feature", "properties": { "Name": "Часовня Святого Праведного адмирала Федора Ушакова", "address": "Советский проспект, 82а, Калининград" }, "geometry": { "type": "Point", "coordinates": [ 20.486199995729237, 54.734339995651652 ] } },
{ "type": "Feature", "properties": { "Name": "Часовня в честь преподобного Сергия Радонежского", "address": "Южный вокзал, Железнодорожная, 13, Калининград" }, "geometry": { "type": "Point", "coordinates": [ 20.498909978428344, 54.694509988042768 ] } },
{ "type": "Feature", "properties": { "Name": "Римско-католический приход Святого Адальберта", "address": "Александра Невского, 78в, Калининград" }, "geometry": { "type": "Point", "coordinates": [ 20.533300005147851, 54.739030005754444 ] } },
{ "type": "Feature", "properties": { "Name": "Храм святой равноапостольной Нины в Калининграде", "address": "Лазаретная, 22, Калининград" }, "geometry": { "type": "Point", "coordinates": [ 20.525180036446642, 54.710570007893523 ] } },
{ "type": "Feature", "properties": { "Name": "Католический приход Святого Семейства", "address": "Лесопильная, 72, Калининград" }, "geometry": { "type": "Point", "coordinates": [ 20.535260029386393, 54.707149981850364 ] } },
{ "type": "Feature", "properties": { "Name": "Приход храма в честь равноапостольных Царя Константина и Царицы Елены", "address": "Левитана, 53, Калининград" }, "geometry": { "type": "Point", "coordinates": [ 20.579533802645837, 54.675859482390649 ] } },
{ "type": "Feature", "properties": { "Name": "Приход преподобного Сергия Радонежского г. Калининграда", "address": "Площадь Калинина, 2, Калининград" }, "geometry": { "type": "Point", "coordinates": [ 20.498289942833718, 54.696217512687916 ] } },
{ "type": "Feature", "properties": { "Name": "Воскресная школа для детей", "address": "Киевская, 60-62, Калининград" }, "geometry": { "type": "Point", "coordinates": [ 20.479690022989956, 54.681579980385294 ] } },
{ "type": "Feature", "properties": { "Name": "Воскресная школа", "address": "Площадь Калинина, 2е, Калининград" }, "geometry": { "type": "Point", "coordinates": [ 20.497946543084069, 54.696240665725568 ] } }
]
}
